     2.11           OBSERVATION DATA    G (GPS)             RINEX VERSION / TYPE
teqc  2010Mar17     Mike Craymer        20150102 02:01:01UTCPGM / RUN BY / DATE
Linux 2.4.20-8|Pentium IV|gcc -static|Linux|486/DX+         COMMENT
teqc  2010Oct21     Mike Craymer        20150102 01:10:25UTCCOMMENT
MSXP|IAx86-PII|bcc32 5.0|MSWin95->XP|486/DX+                COMMENT
BIT 2 OF LLI FLAGS DATA COLLECTED UNDER A/S CONDITION       COMMENT
ALRT                                                        MARKER NAME
40162M001                                                   MARKER NUMBER
MRC                 NRCan/GSD                               OBSERVER / AGENCY
1006                ASHTECH UZ-12       CQ00                REC # / TYPE / VERS
903                 ASH701945D_M    NONE                    ANT # / TYPE
   388042.7540  -740382.3996  6302001.8510                  APPROX POSITION XYZ
        0.1000        0.0000        0.0000                  ANTENNA: DELTA H/E/N
     1     1                                                WAVELENGTH FACT L1/2
     7    L1    L2    C1    P2    P1    S1    S2            # / TYPES OF OBSERV
    30.0000                                                 INTERVAL
     0                                                      LEAP SECONDS
 SNR is mapped to RINEX snr flag value [0-9]                COMMENT
  L1 & L2: min(max(int(snr_dBHz/6), 0), 9)                  COMMENT
pseudorange smoothing corrections applied                   COMMENT
  2015     1     1     0     0    0.0000000     GPS         TIME OF FIRST OBS
                                                            END OF HEADER
 15  1  1  0  0  0.0000000  0 11G14G31G06G29G20G25G23G32G03G02G12
  -4075631.30047  -3170287.62346  23763577.1624   23763576.2884   23763576.8424
        44.0004         39.0004
 -11206159.62349  -8727352.43048  21205999.0064   21205997.7564   21205999.2984
        56.0004         50.0004
  -9853001.01448  -7670082.92247  22331001.3014   22331005.2104   22331001.9094
        51.0004         46.0004
  -1948541.67347  -1339106.52246  24571549.8034   24571549.3664   24571550.4354
        42.0004         39.0004
 -18046736.73248 -14031121.69647  21897610.2694   21897609.2464   21897609.6504
        52.0004         46.0004
 -20337020.17749 -15793001.14848  21297379.6434   21297381.8084   21297379.5094
        54.0004         49.0004
  -7831620.70947  -6096989.25746  24215369.2724   24215366.3534   24215369.0414
        46.0004         39.0004
  -7762907.06748  -6045836.06347  23633196.5694   23633196.8824   23633195.9864
        48.0004         42.0004
 -17788297.44348 -13852392.06347  21925937.7754   21925939.7124   21925938.2954
        52.0004         47.0004
  -9139533.76147  -7096399.84746  24069303.2004   24069301.6584   24069302.6764
        47.0004         40.0004
  -9822352.11148  -7650037.38247  22494103.9154   22494103.9634   22494104.1084
        51.0004         45.0004
 15  1  1  0  0 30.0000000  0 11G14G31G06G29G20G25G23G32G03G02G12
  -3971735.15347  -3089329.60446  23783347.9314   23783347.0974   23783347.6314
        45.0004         39.0004
 -11233972.60849  -8749024.88948  21200706.3824   21200705.1114   21200706.6754
        56.0004         50.0004
  -9873945.22748  -7686403.16647  22327015.8204   22327019.7314   22327016.4124
        50.0004         46.0004
  -2060733.06847  -1426528.24146  24550200.3404   24550199.9094   24550200.9624
        42.0004         38.0004
 -18054227.12348 -14036958.35947  21896184.8924   21896183.8714   21896184.2604
        52.0004         46.0004
 -20331775.32549 -15788914.23048  21298377.6944   21298379.8594   21298377.5544
        54.0004         49.0004
  -7935455.68247  -6177899.55346  24195610.0634   24195607.1444   24195609.8394
        45.0004         39.0004
  -7666922.71248  -5971043.05647  23651461.7844   23651462.1014   23651461.2054
        48.0004         42.0004
 -17755831.59848 -13827094.01047  21932115.8334   21932117.7514   21932116.3384
        53.0004         47.0004
  -9225518.44747  -7163400.90846  24052940.8664   24052939.3194   24052940.3374
        47.0004         40.0004
  -9739702.49648  -7585634.97247  22509831.5344   22509831.5564   22509831.7284
        51.0004         45.0004
 15  1  1  0  1  0.0000000  0 11G14G31G06G29G20G25G23G32G03G02G12
  -3867601.22047  -3008186.27746  23803163.9714   23803163.1244   23803163.6564
        44.0004         39.0004
 -11261200.56749  -8770241.47348  21195525.0754   21195523.7954   21195525.3604
        56.0004         50.0004
  -9894257.46448  -7702230.96847  22323150.5824   22323154.5264   22323151.1874
        51.0004         46.0004
  -2172752.47847  -1513816.02346  24528883.7144   24528883.2314   24528884.3264
        42.0004         38.0004
 -18061074.53748 -14042293.98847  21894881.8714   21894880.8274   21894881.2284
        52.0004         46.0004
 -20325876.86649 -15784318.03148  21299500.1414   21299502.3024   21299499.9924
        54.0004         49.0004
  -8039070.71947  -6258638.48446  24175892.7324   24175889.8044   24175892.5124
        46.0004         39.0004
  -7570631.30647  -5896010.79547  23669785.4214   23669785.7464   23669784.8494
        47.0004         42.0004
 -17722756.97348 -13801321.58547  21938409.7214   21938411.6584   21938410.2444
        52.0004         47.0004
  -9311190.20148  -7230157.90546  24036637.9204   24036636.3244   24036637.3854
        48.0004         41.0004
  -9656603.59748  -7520882.53747  22525644.6994   22525644.7154   22525644.8904
        51.0004         45.0004
 15  1  1  0  1 30.0000000  0 11G14G31G06G29G20G25G23G32G03G02G12
  -3763225.91647  -2926854.88546  23823025.9554   23823025.0984   23823025.6294
        43.0004         39.0004
 -11287836.96749  -8790997.11348  21190456.3254   21190455.0644   21190456.6284
        56.0004         50.0004
  -9913930.89348  -7717560.89947  22319406.8544   22319410.7794   22319407.4534
        51.0004         46.0004
  -2284590.58747  -1600962.49746  24507601.5554   24507601.0394   24507602.1434
        43.0004         38.0004
 -18067273.02148 -14047123.96847  21893702.3344   21893701.3044   21893701.6934
        52.0004         46.0004
 -20319319.15949 -15779208.11748  21300748.0114   21300750.1704   21300747.8734
        54.0004         49.0004
  -8142457.43947  -6339199.51246  24156218.8444   24156215.9144   24156218.6144
        46.0004         39.0004
  -7474029.47547  -5820736.66847  23688168.1734   23688168.4904   23688167.5834
        47.0004         42.0004
 -17689068.85748 -13775071.11547  21944820.3614   21944822.3184   21944820.8874
        52.0004         47.0004
  -9396541.63047  -7296665.56646  24020396.1254   24020394.5374   24020395.5954
        47.0004         41.0004
  -9573052.71448  -7455778.12547  22541544.0224   22541544.0794   22541544.2194
        51.0004         45.0004
 15  1  1  0  2  0.0000000  0 11G14G31G06G29G20G25G23G32G03G02G12
  -3658608.32347  -2845334.67046  23842933.9944   23842933.1584   23842933.6894
        45.0004         39.0004
 -11313877.74649  -8811288.63548  21185500.9444   21185499.6734   21185501.2224
        56.0004         50.0004
  -9932961.65348  -7732390.01947  22315785.3894   22315789.3114   22315785.9924
        51.0004         46.0004
  -2396241.80446  -1687963.49246  24486355.0764   24486354.5754   24486355.6184
        41.0004         37.0004
 -18072819.07848 -14051445.56847  21892646.9434   21892645.9144   21892646.3084
        52.0004         46.0004
 -20312099.36149 -15773582.31948  21302121.9104   21302124.0844   21302121.7824
        54.0004         49.0004
  -8245610.46847  -6419578.43446  24136589.4314   24136586.4904   24136589.2044
        46.0004         40.0004
  -7377116.65347  -5745220.21047  23706610.0854   23706610.4244   23706609.4974
        46.0004         42.0004
 -17654765.17248 -13748340.98647  21951348.1594   21951350.1044   21951348.6734
        52.0004         47.0004
  -9481566.65047  -7362918.83946  24004216.4114   24004214.8094   24004215.8704
        47.0004         41.0004
  -9489047.94648  -7390319.80047  22557529.5594   22557529.5944   22557529.7544
        51.0004         45.0004
 15  1  1  0  2 30.0000000  0 11G14G31G06G29G20G25G23G32G03G02G12
  -3553755.30847  -2763631.02546  23862886.8684   23862886.0244   23862886.5524
        45.0004         39.0004
 -11339326.36749  -8831118.73048  21180658.2324   21180656.9544   21180658.5274
        56.0004         50.0004
  -9951353.50248  -7746721.29647  22312285.5174   22312289.4254   22312286.1174
        51.0004         46.0004
  -2507707.24147  -1774819.51546  24465143.7374   24465143.2444   24465144.3204
        44.0004         38.0004
 -18077716.80248 -14055261.97247  21891714.9474   21891713.9054   21891714.3054
        52.0004         46.0004
 -20304222.13349 -15767444.21348  21303620.8834   21303623.0594   21303620.7484
        54.0004         49.0004
  -8348532.03348  -6499777.02946  24117004.0934   24117001.1424   24117003.8484
        48.0004         40.0004
  -7279899.83947  -5669466.89246  23725109.8544   23725110.2034   23725109.2754
        47.0004         41.0004
 -17619851.54448 -13721135.57647  21957992.0064   21957993.9634   21957992.5224
        52.0004         47.0004
  -9566267.09347  -7428919.19746  23988098.4564   23988096.8814   23988097.9274
        46.0004         41.0004
  -9404597.05048  -7324513.90847  22573600.0264   22573600.0614   22573600.2274
        51.0004         45.0004
 15  1  1  0  3  0.0000000  0 11G14G31G06G29G20G25G23G32G03G02G12
  -3448668.94347  -2681745.55846  23882884.1454   23882883.3074   23882883.8224
        44.0004         39.0004
 -11364181.96149  -8850486.72548  21175928.3584   21175927.1004   21175928.6524
        56.0004         50.0004
  -9969105.31048  -7760553.82347  22308907.4114   22308911.3214   22308908.0094
        51.0004         46.0004
  -2618983.98647  -1861528.49946  24443968.3514   24443967.8154   24443968.8984
        42.0004         37.0004
 -18081965.63548 -14058572.75047  21890906.4164   21890905.3814   21890905.7684
        52.0004         46.0004
 -20295687.53449 -15760793.88148  21305244.9654   21305247.1494   21305244.8494
        54.0004         49.0004
  -8451218.74148  -6579792.58246  24097463.4204   24097460.4394   24097463.1914
        48.0004         41.0004
  -7182381.32047  -5593478.45846  23743667.0274   23743667.3924   23743666.4504
        47.0004         41.0004
 -17584328.80748 -13693455.54247  21964751.7874   21964753.7254   21964752.2944
        52.0004         47.0004
  -9650640.32147  -7494664.51246  23972042.7154   23972041.1234   23972042.2004
        46.0004         41.0004
  -9319701.95048  -7258362.01947  22589755.1374   22589755.1974   22589755.3164
        51.0004         45.0004
 15  1  1  0  3 30.0000000  0 11G14G31G06G29G20G25G23G32G03G02G12
  -3343349.94947  -2599678.81346  23902925.6824   23902924.8484   23902925.3754
        43.0004         38.0004
 -11388441.97849  -8869390.63548  21171311.8384   21171310.5734   21171312.1344
        56.0004         50.0004
  -9986214.71448  -7773885.69647  22305651.4934   22305655.3784   22305652.1014
        51.0004         46.0004
  -2730068.23147  -1948087.60046  24422829.6714   24422829.1404   24422830.2304
        43.0004         38.0004
 -18085563.95948 -14061376.64347  21890221.6744   21890220.6484   21890221.0444
        52.0004         46.0004
 -20286494.45449 -15753630.47448  21306994.3844   21306996.5724   21306994.2554
        54.0004         48.0004
  -8553666.73848  -6659622.15346  24077968.1794   24077965.2124   24077967.9434
        48.0004         41.0004
  -7084561.98547  -5517255.64446  23762281.4544   23762281.8344   23762280.8764
        47.0004         41.0004
 -17548196.60848 -13665300.60547  21971627.5284   21971629.4874   21971628.0444
        52.0004         47.0004
  -9734682.73547  -7560152.26846  23956050.0944   23956048.5654   23956049.5724
        47.0004         41.0004
  -9234363.75148  -7191864.85247  22605994.5554   22605994.6524   22605994.7444
        51.0004         45.0004
 15  1  1  0  4  0.0000000  0 11G14G31G06G29G20G25G23G32G03G02G12
  -3237803.44847  -2517434.79646  23923010.5274   23923009.6804   23923010.2204
        44.0004         38.0004
 -11412108.97349  -8887832.44848  21166808.1684   21166806.8854   21166808.4374
        56.0004         50.0004
 -10002684.02848  -7786718.82047  22302517.4064   22302521.2604   22302518.0244
        51.0004         46.0004
  -2840959.97647  -2034496.84746  24401727.7504   24401727.2254   24401728.3224
        43.0004         38.0004
 -18088514.36348 -14063675.65247  21889660.2344   21889659.1844   21889659.5984
        52.0004         46.0004
 -20276645.99649 -15745956.37248  21308868.4914   21308870.6844   21308868.3584
        54.0004         48.0004
  -8655876.75448  -6739266.30246  24058518.2504   24058515.2754   24058518.0104
        48.0004         41.0004
  -6986447.26147  -5440802.67146  23780952.1164   23780952.5054   23780951.5254
        47.0004         41.0004
 -17511458.99148 -13636673.91547  21978618.4784   21978620.4494   21978619.0024
        52.0004         47.0004
  -9818394.18947  -7625381.91847  23940120.3044   23940118.7504   23940119.7734
        47.0004         42.0004
  -9148587.88748  -7125026.57047  22622317.1884   22622317.2984   22622317.3854
        51.0004         45.0004
 15  1  1  0  4 30.0000000  0 11G14G31G06G29G20G25G23G32G03G02G12
  -3132027.67047  -2435012.12346  23943138.9884   23943138.1614   23943138.6814
        43.0004         38.0004
 -11435177.79749  -8905808.15748  21162418.3084   21162417.0474   21162418.5884
        56.0004         50.0004
 -10018508.71248  -7799049.71047  22299506.0344   22299509.8954   22299506.6554
        51.0004         46.0004
  -2951651.86747  -2120750.32446  24380663.8274   24380663.3254   24380664.3714
        42.0004         38.0004
 -18090812.53448 -14065466.43447  21889222.8924   21889221.8764   21889222.2694
        52.0004         46.0004
 -20266138.51849 -15737768.71248  21310867.9994   21310870.1844   21310867.8514
        54.0004         48.0004
  -8757842.17448  -6818719.85546  24039114.8564   24039111.8694   24039114.6184
        48.0004         41.0004
  -6888035.80147  -5364118.46446  23799679.2304   23799679.6224   23799678.6564
        47.0004         41.0004
 -17474113.19148 -13607573.31147  21985725.1724   21985727.1394   21985725.6814
        52.0004         47.0004
  -9901768.18547  -7690348.68746  23924254.7754   23924253.2214   23924254.2364
        47.0004         41.0004
  -9062372.36048  -7057845.67647  22638723.4864   22638723.6154   22638723.6924
        51.0004         45.0004
 15  1  1  0  5  0.0000000  0 11G14G31G06G29G20G25G23G32G03G02G12
  -3026028.14647  -2352415.09546  23963310.0374   23963309.1944   23963309.7244
        44.0004         38.0004
 -11457650.97449  -8923319.72548  21158141.8114   21158140.5464   21158142.1044
        56.0004         50.0004
 -10033690.87148  -7810879.84347  22296616.8714   22296620.7004   22296617.4934
        51.0004         46.0004
  -3062144.01047  -2206848.01646  24359637.8184   24359637.2964   24359638.3324
        47.0004         38.0004
 -18092461.69548 -14066751.50547  21888909.0864   21888908.0524   21888908.4514
        52.0004         46.0004
 -20254975.71049 -15729070.47948  21312992.2434   21312994.4544   21312992.1224
        54.0004         48.0004
  -8859563.59648  -6897983.27746  24019757.9024   24019754.9014   24019757.6684
        48.0004         41.0004
  -6789332.96747  -5287207.12347  23818461.7264   23818462.1244   23818461.1544
        47.0004         42.0004
 -17436163.52548 -13578002.18047  21992946.7764   21992948.7544   21992947.2884
        52.0004         47.0004
  -9984805.59847  -7755053.01846  23908453.1634   23908451.5874   23908452.6474
        47.0004         41.0004
  -8975723.65148  -6990327.29947  22655212.2614   22655212.4124   22655212.4504
        51.0004         45.0004
 15  1  1  0  5 30.0000000  0 11G14G31G06G29G20G25G23G32G03G02G12
  -2919810.13947  -2269647.83446  23983522.6784   23983521.8294   23983522.3554
        44.0004         38.0004
 -11479530.57649  -8940368.75948  21153978.2514   21153976.9934   21153978.5464
        56.0004         50.0004
 -10048233.06248  -7822211.40247  22293849.5854   22293853.3864   22293850.1844
        51.0004         46.0004
  -3172436.82047  -2292790.57346  24338649.8694   24338649.3574   24338650.3834
        44.0004         39.0004
 -18093464.60748 -14067532.99347  21888718.2304   21888717.2054   21888717.5914
        52.0004         46.0004
 -20243160.66649 -15719863.95348  21315240.5704   21315242.7704   21315240.4434
        54.0004         48.0004
  -8961041.36048  -6977056.86046  24000447.3094   24000444.3244   24000447.0854
        48.0004         41.0004
  -6690344.49947  -5210073.27946  23837298.6204   23837299.0284   23837298.0564
        47.0004         41.0004
 -17397614.11848 -13547963.70147  22000282.5014   22000284.4854   22000283.0124
        52.0004         47.0004
 -10067507.16247  -7819495.79446  23892715.5794   23892713.9904   23892715.0544
        47.0004         41.0004
  -8888646.78448  -6922475.26547  22671782.4974   22671782.6544   22671782.6954
        51.0004         44.0004
 15  1  1  0  6  0.0000000  0 11G14G31G06G29G20G25G23G32G03G02G12
  -2813370.01147  -2186707.48446  24003777.5724   24003776.7144   24003777.2464
        43.0004         38.0004
 -11500809.86849  -8956950.02448  21149928.9354   21149927.6744   21149929.2344
        56.0004         50.0004
 -10062128.20148  -7833038.60647  22291205.2794   22291209.0584   22291205.8974
        51.0004         46.0004
  -3282520.80847  -2378570.14146  24317701.4634   24317700.9394   24317701.9864
        44.0004         39.0004
 -18093815.09348 -14067806.10247  21888651.5394   21888650.5134   21888650.9144
        52.0004         46.0004
 -20230688.10249 -15710145.12648  21317614.0724   21317616.2804   21317613.9314
        54.0004         48.0004
  -9062266.96448  -7055933.92446  23981184.6914   23981181.7184   23981184.4694
        48.0004         41.0004
  -6591066.88847  -5132714.12046  23856190.5354   23856190.9314   23856189.9584
        46.0004         41.0004
 -17358460.35548 -13517454.32147  22007733.2544   22007735.2484   22007733.7564
        52.0004         47.0004
 -10149864.01247  -7883669.79946  23877043.4574   23877041.8344   23877042.9394
        47.0004         41.0004
  -8801138.49348  -6854286.90747  22688434.7154   22688434.8594   22688434.8984
        51.0004         45.0004
 15  1  1  0  6 30.0000000  0 11G14G31G06G29G20G25G23G32G03G02G12
  -2706709.32047  -2103595.25646  24024074.4194   24024073.5664   24024074.0884
        45.0004         38.0004
 -11521487.63949  -8973062.57648  21145994.0924   21145992.8114   21145994.3854
        56.0004         50.0004
 -10075375.72848  -7843361.30747  22288684.3174   22288688.0884   22288684.9294
        51.0004         46.0004
  -3392393.63248  -2464185.29046  24296793.3114   24296792.7844   24296793.8414
        48.0004         39.0004
 -18093512.65548 -14067570.43647  21888709.0934   21888708.0734   21888708.4614
        52.0004         46.0004
 -20217557.73349 -15699913.72948  21320112.7314   21320114.9724   21320112.6154
        54.0004         48.0004
  -9163237.45148  -7134612.22246  23961970.6474   23961967.6654   23961970.4124
        48.0004         41.0004
  -6491502.05247  -5055131.15146  23875137.1084   23875137.5104   23875136.5364
        47.0004         41.0004
 -17318702.80248 -13486474.43147  22015298.8794   22015300.8874   22015299.3924
        52.0004         47.0004
 -10231873.44047  -7947573.08147  23861437.4584   23861435.8004   23861436.9344
        47.0004         42.0004
  -8713200.75248  -6785763.94147  22705168.6714   22705168.7964   22705168.8754
        51.0004         45.0004
 15  1  1  0  7  0.0000000  0 11G14G31G06G29G20G25G23G32G03G02G12
  -2599836.82247  -2020317.98146  24044411.5924   24044410.7134   24044411.2564
        44.0004         38.0004
 -11541570.14549  -8988711.28348  21142172.5084   21142171.2584   21142172.8054
        56.0004         50.0004
 -10087981.65248  -7853184.11347  22286285.4914   22286289.2744   22286286.1204
        51.0004         46.0004
  -3502059.00747  -2549638.97246  24275924.8074   24275924.3004   24275925.3314
        45.0004         39.0004
 -18092563.83848 -14066831.09247  21888889.6434   21888888.6154   21888889.0074
        52.0004         46.0004
 -20203776.78949 -15689175.35048  21322735.1694   21322737.4044   21322735.0344
        54.0004         48.0004
  -9263957.07948  -7213095.04046  23942804.3224   23942801.3584   23942804.1024
        48.0004         41.0004
  -6391659.29447  -4977331.60646  23894136.5614   23894136.9754   23894135.9864
        47.0004         41.0004
 -17278349.51948 -13455030.31247  22022977.8404   22022979.8604   22022978.3484
        52.0004         47.0004
 -10313539.78147  -8011209.16146  23845896.8414   23845895.1874   23845896.3284
        47.0004         41.0004
  -8624842.95248  -6716913.63747  22721982.5504   22721982.6554   22721982.7474
        51.0004         45.0004
 15  1  1  0  7 30.0000000  0 11G14G31G06G29G20G25G23G32G03G02G12
  -2492750.69847  -1936874.25146  24064789.4054   24064788.5224   24064789.0894
        45.0004         38.0004
 -11561052.15449  -9003892.07648  21138465.2134   21138463.9464   21138465.5094
        56.0004         50.0004
 -10099940.83848  -7862503.03447  22284009.8104   22284013.5934   22284010.4164
        51.0004         46.0004
  -3611508.90347  -2634924.59046  24255097.1904   24255096.6614   24255097.6814
        45.0004         40.0004
 -18090963.83348 -14065584.33447  21889194.1024   21889193.0814   21889193.4744
        52.0004         46.0004
 -20189341.13849 -15677926.77748  21325482.1844   21325484.4154   21325482.0524
        54.0004         49.0004
  -9364418.47347  -7291376.62746  23923687.1394   23923684.1704   23923686.9244
        47.0004         41.0004
  -6291536.56547  -4899313.91346  23913189.2874   23913189.7034   23913188.7194
        47.0004         41.0004
 -17237397.33348 -13423119.52447  22030770.7904   22030772.7954   22030771.3054
        52.0004         47.0004
 -10394856.03547  -8074572.52146  23830422.9244   23830421.2694   23830422.3884
        47.0004         41.0004
  -8536062.75948  -6647734.16647  22738876.7774   22738876.8734   22738876.9774
        50.0004         45.0004
 15  1  1  0  8  0.0000000  0 11G14G31G06G29G20G25G23G32G03G02G12
  -2385454.87547  -1853267.12746  24085207.1484   24085206.2634   24085206.8164
        45.0004         38.0004
 -11579934.40849  -9018605.51948  21134872.0474   21134870.7764   21134872.3244
        56.0004         50.0004
 -10111254.02948  -7871318.54047  22281857.0044   22281860.7884   22281857.6144
        51.0004         46.0004
  -3720742.15147  -2720041.39946  24234310.7814   24234310.2694   24234311.2614
        46.0004         40.0004
 -18088714.30548 -14063831.45047  21889622.1774   21889621.1474   21889621.5474
        52.0004         46.0004
 -20174252.96449 -15666169.76148  21328353.3654   21328355.5904   21328353.2304
        54.0004         49.0004
  -9464620.91247  -7369456.42246  23904619.2184   23904616.2374   23904618.9934
        47.0004         41.0004
  -6191137.88147  -4821081.19546  23932294.5404   23932294.9684   23932293.9694
        47.0004         41.0004
 -17195849.06148 -13390744.25847  22038677.1634   22038679.1904   22038677.6804
        52.0004         47.0004
 -10475821.03547  -8137662.11546  23815015.7714   23815014.1034   23815015.2354
        47.0004         41.0004
  -8446864.89948  -6578229.39247  22755850.6154   22755850.7114   22755850.8184
        50.0004         45.0004
 15  1  1  0  8 30.0000000  0 11G14G31G06G29G20G25G23G32G03G02G12
  -2277952.47047  -1769499.04346  24105664.2024   24105663.3094   24105663.8664
        45.0004         38.0004
 -11598217.62549  -9032852.18248  21131392.8564   21131391.6024   21131393.1444
        56.0004         50.0004
 -10121922.01648  -7879631.21947  22279826.9354   22279830.7074   22279827.5344
        51.0004         46.0004
  -3829757.27247  -2804988.27446  24213565.9304   24213565.3964   24213566.3854
        45.0004         40.0004
 -18085816.61848 -14061573.50747  21890173.5834   21890172.5634   21890172.9474
        52.0004         46.0004
 -20158514.07249 -15653905.66548  21331348.3554   21331350.5844   21331348.2184
        54.0004         49.0004
  -9564563.42447  -7447333.68246  23885600.7604   23885597.8024   23885600.5414
        47.0004         41.0004
  -6090467.16247  -4742636.51946  23951451.5704   23951452.0094   23951451.0074
        47.0004         41.0004
 -17153707.40448 -13357906.60747  22046696.4564   22046698.4824   22046696.9784
        52.0004         47.0004
 -10556434.14647  -8200477.61746  23799675.6544   23799674.0274   23799675.1344
        46.0004         41.0004
  -8357253.04048  -6508402.08847  22772903.2644   22772903.3854   22772903.4774
        50.0004         44.0004
 15  1  1  0  9  0.0000000  0 11G14G31G06G29G20G25G23G32G03G02G12
  -2170242.78847  -1685569.44446  24126160.6934   24126159.8004   24126160.3674
        45.0004         38.0004
 -11615898.16349  -9046629.22348  21128028.3784   21128027.1074   21128028.6654
        56.0004         50.0004
 -10131941.33748  -7887438.50547  22277920.3234   22277924.1154   22277920.9394
        51.0004         46.0004
  -3938548.45547  -2889760.71046  24192863.7124   24192863.2124   24192864.1684
        44.0004         40.0004
 -18082267.71548 -14058808.12547  21890848.9084   21890847.8954   21890848.2894
        52.0004         46.0004
 -20142121.93749 -15641132.58848  21334467.6814   21334469.9224   21334467.5604
        54.0004         48.0004
  -9664240.21448  -7525003.87946  23866632.8814   23866629.9054   23866632.6714
        48.0004         41.0004
  -5989523.63747  -4663979.23146  23970660.4974   23970660.9364   23970659.9114
        47.0004         41.0004
 -17110970.49248 -13324605.11247  22054829.0244   22054831.0434   22054829.5484
        52.0004         47.0004
 -10636689.36047  -8263014.24047  23784403.6594   23784402.0774   23784403.1424
        47.0004         42.0004
  -8267226.01848  -6438251.20747  22790034.8674   22790035.0104   22790035.0854
        50.0004         44.0004
 15  1  1  0  9 30.0000000  0 12G14G31G06G29G20G25G23G32G03G02G12G10
  -2062330.51947  -1601481.99646  24146695.7414   24146694.8574   24146695.4034
        43.0004         38.0004
 -11632977.58649  -9059937.86348  21124778.2624   21124776.9974   21124778.5484
        56.0004         50.0004
 -10141313.63748  -7894741.56747  22276136.8254   22276140.5984   22276137.4214
        51.0004         46.0004
  -4047114.68047  -2974357.77446  24172204.2544   24172203.7744   24172204.6994
        42.0004         40.0004
 -18078069.80948 -14055537.02947  21891647.7504   21891646.7184   21891647.1164
        52.0004         46.0004
 -20125079.42049 -15627852.72548  21337710.7804   21337713.0274   21337710.6574
        54.0004         48.0004
  -9763650.68848  -7602466.57346  23847715.6914   23847712.7144   23847715.4774
        48.0004         41.0004
  -5888312.19947  -4585113.17046  23989920.3764   23989920.8284   23989919.8044
        47.0004         41.0004
 -17067642.13048 -13290842.77847  22063074.1454   22063076.1894   22063074.6784
        52.0004         47.0004
 -10716586.44547  -8325271.71147  23769199.7684   23769198.1714   23769199.2424
        47.0004         42.0004
  -8176789.22448  -6367780.96947  22807244.4224   22807244.5604   22807244.6204
        51.0004         45.0004
                                  25194063.180
        43.000
 15  1  1  0 10  0.0000000  0 12G14G31G06G29G20G25G23G32G03G02G12G10
  -1954216.63347  -1517237.44146  24167269.1534   24167268.2804   24167268.8204
        42.0004         38.0004
 -11649453.91849  -9072776.56548  21121642.9124   21121641.6634   21121643.2044
        56.0004         50.0004
 -10150037.10848  -7901539.00247  22274476.7414   22274480.5134   22274477.3534
        51.0004         46.0004
  -4155451.73847  -3058776.24446  24151588.3864   24151587.8814   24151588.8214
        43.0004         40.0004
 -18073221.42348 -14051759.06647  21892570.3694   21892569.3464   21892569.7424
        52.0004         46.0004
 -20107385.65349 -15614065.34248  21341077.7774   21341080.0114   21341077.6484
        54.0004         48.0004
  -9862791.50148  -7679719.14246  23828849.8174   23828846.8204   23828849.5944
        48.0004         41.0004
  -5786834.00247  -4506039.26146  24009231.0454   24009231.4954   24009230.4694
        46.0004         40.0004
 -17023722.30948 -13256619.55247  22071431.8304   22071433.8564   22071432.3494
        52.0004         47.0004
 -10796121.75548  -8387247.26847  23754064.6974   23754063.0894   23754064.1684
        48.0004         42.0004
  -8085943.79248  -6296992.58847  22824531.9274   22824532.1224   22824532.1264
        50.0004         45.0004
  -1453548.11257  -1095703.37256  25171700.1774   25171699.6564   25171698.4714
        43.0004         37.0004
 15  1  1  0 10 30.0000000  0 12G14G31G06G29G20G25G23G32G03G02G12G10
  -1845906.63746  -1432840.07846  24187879.9004   24187879.0294   24187879.5574
        41.0004         38.0004
 -11665329.96849  -9085147.51248  21118621.8024   21118620.5404   21118622.1044
        56.0004         50.0004
 -10158114.66948  -7907833.10347  22272939.5564   22272943.2874   22272940.1664
        50.0004         46.0004
  -4263560.16147  -3143016.57046  24131016.0224   24131015.5504   24131016.4544
        46.0004         40.0004
 -18067726.07348 -14047476.96747  21893616.1004   21893615.0624   21893615.4664
        52.0004         46.0004
 -20089044.88249 -15599773.88848  21344567.9514   21344570.1844   21344567.8254
        54.0004         48.0004
  -9961663.10848  -7756761.94546  23810035.1654   23810032.1724   23810034.9484
        48.0004         41.0004
  -5685094.76147  -4426761.81346  24028591.3004   24028591.7124   24028590.7134
        46.0004         40.0004
 -16979215.77848 -13221939.17347  22079901.1724   22079903.2024   22079901.6904
        52.0004         47.0004
 -10875296.46248  -8448941.83947  23738998.2354   23738996.6524   23738997.7134
        48.0004         42.0004
  -7994695.68848  -6225890.27847  22841895.9444   22841896.1734   22841896.1434
        50.0004         44.0004
  -1570889.74447  -1187138.22346  25149370.4274   25149370.1564   25149369.0544
        43.0004         37.0004
 15  1  1  0 11  0.0000000  0 12G14G31G06G29G20G25G23G32G03G02G12G10
  -1737397.94147  -1348287.87446  24208528.4194   24208527.5894   24208528.0834
        43.0004         38.0004
 -11680600.62149  -9097046.72048  21115715.8874   21115714.6234   21115716.1784
        56.0004         50.0004
 -10165541.24848  -7913619.89847  22271526.2214   22271529.9204   22271526.8194
        51.0004         46.0004
  -4371432.42547  -3227072.82946  24110488.5704   24110488.0854   24110488.9914
        46.0004         40.0004
 -18061579.41548 -14042687.37047  21894785.7694   21894784.7434   21894785.1464
        52.0004         46.0004
 -20070052.69849 -15584974.72848  21348182.0004   21348184.2244   21348181.8594
        54.0004         48.0004
 -10060258.52848  -7833589.52746  23791273.0734   23791270.0724   23791272.8564
        49.0004         41.0004
  -5583092.69147  -4347279.69746  24048001.6474   24048002.0814   24048001.0834
        45.0004         40.0004
 -16934119.31448 -13186799.11447  22088482.7694   22088484.8124   22088483.2834
        52.0004         47.0004
 -10954102.99748  -8510349.46747  23724001.8204   23724000.2024   23724001.2844
        48.0004         42.0004
  -7903042.69948  -6154472.36047  22859336.9294   22859337.1654   22859337.1224
        49.0004         44.0004
  -1688051.94647  -1278433.53446  25127074.4024   25127075.0234   25127073.7034
        43.0004         38.0004
 15  1  1  0 11 30.0000000  0 12G14G31G06G29G20G25G23G32G03G02G12G10
  -1628698.37147  -1263586.93146  24229213.2964   24229212.4514   24229212.9444
        43.0004         38.0004
 -11695270.87649  -9108478.08648  21112924.2284   21112922.9664   21112924.5334
        56.0004         50.0004
 -10172322.31148  -7918903.87647  22270235.8414   22270239.5514   22270236.4604
        51.0004         46.0004
  -4479071.28047  -3310947.19446  24090005.5214   24090005.0144   24090005.9364
        45.0004         40.0004
 -18054786.75848 -14037394.38647  21896078.3684   21896077.3444   21896077.7444
        52.0004         46.0004
 -20050415.60649 -15569673.13848  21351918.8424   21351921.0734   21351918.7134
        54.0004         48.0004
 -10158580.51948  -7910204.07846  23772563.0194   23772560.0264   23772562.8154
        49.0004         41.0004
  -5480835.57747  -4267598.86046  24067460.5384   24067460.9794   24067459.9834
        46.0004         40.0004
 -16888439.82948 -13151204.75447  22097175.3294   22097177.3844   22097175.8444
        52.0004         47.0004
 -11032544.73447  -8571472.90347  23709074.8594   23709073.2404   23709074.3204
        47.0004         42.0004
  -7810993.13748  -6082745.53047  22876853.4484   22876853.7114   22876853.6434
        50.0004         44.0004
  -1805035.74047  -1369589.46346  25104812.7824   25104813.5644   25104812.1054
        43.0004         38.0004
 15  1  1  0 12  0.0000000  0 12G14G31G06G29G20G25G23G32G03G02G12G10
  -1519804.14947  -1178734.29046  24249935.1794   24249934.3334   24249934.8314
        44.0004         38.0004
 -11709333.95449  -9119436.32848  21110248.1244   21110246.8624   21110248.4124
        56.0004         50.0004
 -10178450.78348  -7923679.25747  22269069.6074   22269073.2964   22269070.1964
        51.0004         46.0004
  -4586467.37447  -3394632.43046  24069568.6864   24069568.2034   24069569.1014
        45.0004         40.0004
 -18047342.29648 -14031593.50847  21897494.9984   21897493.9734   21897494.3794
        52.0004         46.0004
 -20030127.92249 -15553864.58548  21355779.4914   21355781.7244   21355779.3464
        54.0004         48.0004
 -10256620.41848  -7986598.86446  23753906.6884   23753903.7204   23753906.4834
        48.0004         41.0004
  -5378319.71547  -4187716.36846  24086968.6584   24086969.1074   24086968.0994
        46.0004         40.0004
 -16842172.50548 -13115152.31647  22105979.7154   22105981.7874   22105980.2344
        52.0004         47.0004
 -11110613.11948  -8632305.54647  23694219.0284   23694217.4544   23694218.5104
        48.0004         42.0004
  -7718542.33548  -6010705.89747  22894446.2234   22894446.4594   22894446.4074
        50.0004         44.0004
  -1921833.04647  -1460600.42146  25082587.0454   25082587.9634   25082586.3294
        44.0004         37.0004
 15  1  1  0 12 30.0000000  0 12G14G31G06G29G20G25G23G32G03G02G12G10
  -1410723.00447  -1093736.03446  24270692.6604   24270691.8174   24270692.3084
        45.0004         38.0004
 -11722795.44349  -9129925.80448  21107686.4914   21107685.2184   21107686.7854
        56.0004         50.0004
 -10183932.58648  -7927950.80647  22268026.4514   22268030.1604   22268027.0684
        51.0004         46.0004
  -4693623.82047  -3478130.92746  24049177.4564   24049176.9714   24049177.8724
        42.0004         40.0004
 -18039252.28748 -14025289.62247  21899034.4834   21899033.4684   21899033.8574
        52.0004         46.0004
 -20009196.40249 -15537554.38248  21359762.6804   21359764.9384   21359762.5494
        54.0004         48.0004
 -10354381.54548  -8062776.39146  23735303.3764   23735300.4174   23735303.1774
        49.0004         41.0004
  -5275553.49847  -4107638.78646  24106524.4104   24106524.8434   24106523.8444
        46.0004         40.0004
 -16795324.88748 -13078647.70147  22114894.5414   22114896.6134   22114895.0634
        52.0004         46.0004
 -11188311.36547  -8692849.56747  23679433.4994   23679431.9014   23679432.9614
        47.0004         42.0004
  -7625699.57148  -5938360.79647  22912113.5394   22912113.7784   22912113.7354
        50.0004         45.0004
  -2038446.56747  -1551468.16046  25060396.1974   25060397.1924   25060395.5374
        43.0004         38.0004
 15  1  1  0 13  0.0000000  0 12G14G31G06G29G20G25G23G32G03G02G12G10
  -1301454.40347  -1008591.66746  24291485.7714   24291484.9364   24291485.4354
        44.0004         37.0004
 -11735651.39949  -9139943.43548  21105240.0874   21105238.8274   21105240.3814
        56.0004         50.0004
 -10188763.65948  -7931715.23447  22267107.0944   22267110.7964   22267107.7014
        51.0004         46.0004
  -4800534.53247  -3561437.97946  24028833.0434   24028832.5424   24028833.4454
        43.0004         40.0004
 -18030513.14148 -14018479.90947  21900697.5114   21900696.4744   21900696.8754
        52.0004         46.0004
 -19987618.13049 -15520740.18448  21363868.9184   21363871.1784   21363868.7924
        54.0004         48.0004
 -10451858.07148  -8138732.16647  23716754.2434   23716751.2804   23716754.0484
        49.0004         42.0004
  -5172535.96847  -4027365.39846  24126128.0124   24126128.4574   24126127.4364
        45.0004         40.0004
 -16747894.97548 -13041689.38247  22123920.2004   22123922.2904   22123920.7144
        52.0004         47.0004
 -11265633.80048  -8753100.69547  23664719.4454   23664717.8084   23664718.9054
        48.0004         42.0004
  -7532465.13448  -5865710.63347  22929855.5114   22929855.7374   22929855.7094
        50.0004         44.0004
  -2154869.48047  -1642187.32246  25038241.7344   25038242.6754   25038240.9294
        42.0004         37.0004
 15  1  1  0 13 30.0000000  0 12G14G31G06G29G20G25G23G32G03G02G12G10
  -1192002.47547   -923304.44146  24312313.7734   24312312.9364   24312313.4414
        45.0004         37.0004
 -11747903.38749  -9149490.43948  21102908.6204   21102907.3454   21102908.8994
        56.0004         50.0004
 -10192945.92348  -7934973.98647  22266311.1164   22266314.7754   22266311.7354
        51.0004         46.0004
  -4907198.68947  -3644552.93846  24008535.5344   24008535.0604   24008535.9364
        46.0004         40.0004
 -18021127.28648 -14011166.25947  21902483.5694   21902482.5444   21902482.9574
        52.0004         46.0004
 -19965396.16149 -15503424.37248  21368097.6294   21368099.9024   21368097.4994
        54.0004         48.0004
 -10549049.71948  -8214466.01046  23698259.3704   23698256.4124   23698259.1604
        49.0004         41.0004
  -5069271.99347  -3946899.96746  24145778.4824   24145778.9354   24145777.9304
        45.0004         40.0004
 -16699886.50548 -13004280.19647  22133055.9094   22133058.0064   22133056.4234
        52.0004         46.0004
 -11342580.28248  -8813058.89547  23650076.9484   23650075.2844   23650076.4054
        48.0004         42.0004
  -7438842.56948  -5792758.03147  22947671.3104   22947671.5754   22947671.5134
        49.0004         44.0004
  -2271100.64847  -1732756.84346  25016123.4794   25016124.4604   25016122.6064
        42.0004         37.0004
 15  1  1  0 14  0.0000000  0 12G14G31G06G29G20G25G23G32G03G02G12G10
  -1082368.37547   -837875.27246  24333176.4724   24333175.5984   24333176.1204
        43.0004         37.0004
 -11759549.71649  -9158565.50248  21100692.3924   21100691.1264   21100692.6864
        56.0004         50.0004
 -10196478.20548  -7937726.35147  22265638.9054   22265642.5484   22265639.5034
        51.0004         46.0004
  -5013611.82447  -3727472.26546  23988285.7874   23988285.3234   23988286.1824
        46.0004         40.0004
 -18011093.89048 -14003348.02647  21904392.8764   21904391.8314   21904392.2334
        52.0004         46.0004
 -19942530.09349 -15485606.64748  21372448.8814   21372451.1604   21372448.7504
        54.0004         48.0004
 -10645952.42248  -8289974.66547  23679819.4384   23679816.5024   23679819.2354
        48.0004         42.0004
  -4965762.83447  -3866243.44746  24165475.6094   24165476.0344   24165475.0354
        46.0004         40.0004
 -16651299.93248 -12966420.58747  22142301.6704   22142303.7824   22142302.1904
        52.0004         46.0004
 -11419147.00948  -8872721.17347  23635506.6934   23635505.0234   23635506.1584
        48.0004         42.0004
  -7344832.85648  -5719503.72647  22965560.7734   22965561.0314   22965560.9874
        49.0004         44.0004
  -2387136.59246  -1823174.33446  24994042.4694   24994043.4674   24994041.5224
        40.0004         36.0004
 15  1  1  0 14 30.0000000  0 11G14G31G06G29G20G25G23G32G03G02G12
   -972554.71547   -752306.19446  24354073.3254   24354072.4514   24354072.9774
        46.0004         37.0004
 -11770590.65349  -9167168.83148  21098591.3804   21098590.0914   21098591.6634
        56.0004         50.0004
 -10199361.01148  -7939972.69047  22265090.3124   22265093.9634   22265090.9194
        51.0004         46.0004
  -5119771.90447  -3810194.42646  23968084.2144   23968083.7404   23968084.6134
        42.0004         40.0004
 -18000414.25448 -13995026.22247  21906425.1234   21906424.0944   21906424.4914
        52.0004         46.0004
 -19919021.50649 -15467288.28048  21376922.4264   21376924.7024   21376922.2954
        54.0004         48.0004
 -10742564.66948  -8365256.94247  23661434.7494   23661431.8084   23661434.5304
        49.0004         42.0004
  -4862011.70747  -3785398.40146  24185218.7824   24185219.2024   24185218.2244
        47.0004         41.0004
 -16602137.44048 -12928112.20047  22151657.0084   22151659.1314   22151657.5334
        52.0004         46.0004
 -11495332.83048  -8932086.77347  23621009.0304   23621007.3644   23621008.4924
        48.0004         42.0004
  -7250439.65348  -5645950.63447  22983523.2564   22983523.5284   22983523.4564
        50.0004         44.0004
 15  1  1  0 15  0.0000000  0 12G14G31G06G29G20G25G23G32G03G02G12G10
   -862563.56747   -666598.87446  24375003.9924   24375003.1524   24375003.6464
        42.0004         37.0004
 -11781025.52149  -9175299.89848  21096605.6954   21096604.4174   21096605.9794
        56.0004         50.0004
 -10201593.48548  -7941712.30147  22264665.5154   22264669.1504   22264666.1134
        51.0004         46.0004
  -5225675.51947  -3892716.69546  23947931.4064   23947930.9174   23947931.7814
        46.0004         40.0004
 -17989087.84248 -13986200.44247  21908580.4624   21908579.4264   21908579.8434
        52.0004         46.0004
 -19894870.76149 -15448469.58948  21381518.2214   21381520.5134   21381518.0874
        54.0004         48.0004
 -10838883.26548  -8440310.42747  23643105.9594   23643103.0224   23643105.7434
        49.0004         42.0004
  -4758020.65647  -3704366.43146  24205007.6324   24205008.0744   24205007.0734
        46.0004         40.0004
 -16552400.12648 -12889355.92247  22161121.7694   22161123.9064   22161122.2844
        52.0004         46.0004
 -11571134.44347  -8991152.90347  23606584.4224   23606582.7494   23606583.8764
        47.0004         42.0004
  -7155665.21748  -5572100.29847  23001558.1424   23001558.3674   23001558.3324
        50.0004         44.0004
  -1043191.69356   -775944.32655  24949993.9834   24949996.0024   24949992.9064
        36.0004         34.0004
 15  1  1  0 15 30.0000000  0 11G14G31G06G29G20G25G23G32G03G02G12
   -752397.76947   -580755.44446  24395967.8994   24395967.0594   24395967.5484
        43.0004         37.0004
 -11790854.64849  -9182958.95848  21094735.2684   21094733.9904   21094735.5514
        56.0004         50.0004
 -10203176.06348  -7942945.48247  22264364.3604   22264368.0034   22264364.9614
        51.0004         46.0004
  -5331320.72447  -3975037.68846  23927827.8374   23927827.3704   23927828.2134
        46.0004         40.0004
 -17977115.62348 -13976871.43247  21910858.6934   21910857.6764   21910858.0644
        52.0004         46.0004
 -19870079.29849 -15429151.60848  21386235.9134   21386238.2124   21386235.7674
        54.0004         48.0004
 -10934906.39248  -8515133.61047  23624833.3294   23624830.3774   23624833.1104
        49.0004         42.0004
  -4653792.70947  -3623149.86846  24224841.5664   24224842.0174   24224841.0034
        45.0004         40.0004
 -16502090.25748 -12850153.48747  22170695.4704   22170697.6264   22170695.9744
        51.0004         46.0004
 -11646550.34448  -9049918.50547  23592233.2154   23592231.5404   23592232.6774
        48.0004         42.0004
  -7060513.79148  -5497956.39947  23019664.8994   23019665.1634   23019665.1074
        49.0004         44.0004
 15  1  1  0 16  0.0000000  0 11G14G31G06G29G20G25G23G32G03G02G12
   -642060.27247   -494778.22046  24416964.4424   24416963.6214   24416964.1144
        43.0004         36.0004
 -11800078.35449  -9190146.26348  21092980.0474   21092978.7714   21092980.3544
        56.0004         50.0004
 -10204108.80948  -7943672.24347  22264186.8274   22264190.4474   22264187.4334
        51.0004         46.0004
  -5436704.48747  -4057154.80046  23907773.8934   23907773.3924   23907774.2594
        47.0004         40.0004
 -17964498.00548 -13967039.52447  21913259.7644   21913258.7284   21913259.1324
        52.0004         46.0004
 -19844648.23549 -15409335.21848  21391075.3044   21391077.5914   21391075.1634
        54.0004         48.0004
 -11030631.72848  -8589724.74947  23606617.3724   23606614.4254   23606617.1744
        49.0004         42.0004
  -4549330.85947  -3541751.04446  24244720.0004   24244720.4644   24244719.4374
        45.0004         40.0004
 -16451209.69348 -12810506.33047  22180377.7494   22180379.8984   22180378.2534
        51.0004         46.0004
 -11721578.31848  -9108381.80447  23577955.8324   23577954.1264   23577955.2894
        48.0004         42.0004
  -6964987.67648  -5423520.66947  23037843.0664   23037843.3754   23037843.2684
        49.0004         43.0004
 15  1  1  0 16 30.0000000  0 11G14G31G06G29G20G25G23G32G03G02G12
   -531551.99246   -408667.91246  24437993.5044   24437992.6934   24437993.1634
        41.0004         36.0004
 -11808695.23149  -9196860.70748  21091340.3054   21091339.0384   21091340.6054
        56.0004         50.0004
 -10204390.91448  -7943892.06747  22264133.1424   22264136.7624   22264133.7524
        51.0004         46.0004
  -5541823.41447  -4139065.65846  23887770.4334   23887769.9324   23887770.8094
        45.0004         40.0004
 -17951235.21148 -13956704.87347  21915783.5694   21915782.5384   21915782.9404
        52.0004         46.0004
 -19818577.48449 -15389020.29048  21396036.3524   21396038.6474   21396036.2204
        54.0004         48.0004
 -11126056.32148  -8664081.55547  23588458.6674   23588455.7054   23588458.4504
        49.0004         42.0004
  -4444636.71847  -3460171.21846  24264642.6584   24264643.1174   24264642.0994
        46.0004         40.0004
 -16399759.19348 -12770415.01947  22190168.4444   22190170.5994   22190168.9554
        51.0004         46.0004
 -11796215.19448  -9166540.31547  23563752.8324   23563751.1154   23563752.3044
        48.0004         43.0004
  -6869087.80148  -5348793.55047  23056092.2614   23056092.5614   23056092.4604
        50.0004         43.0004
 15  1  1  0 17  0.0000000  0 12G14G31G06G29G20G25G23G32G03G02G12G10
   -420877.55346   -322428.13746  24459054.1784   24459053.3724   24459053.8474
        41.0004         36.0004
 -11816707.22249  -9203103.81748  21089815.6904   21089814.4144   21089815.9804
        56.0004         50.0004
 -10204024.46648  -7943606.47447  22264202.8284   22264206.4534   22264203.4374
        50.0004         46.0004
  -5646676.82747  -4220769.54346  23867817.4344   23867816.9104   23867817.8054
        47.0004         40.0004
 -17937329.53848 -13945869.28947  21918429.7424   21918428.7114   21918429.1064
        52.0004         46.0004
 -19791870.71449 -15368209.84648  21401118.4914   21401120.7924   21401118.3644
        54.0004         48.0004
 -11221179.26248  -8738203.29247  23570357.3484   23570354.3824   23570357.1304
        49.0004         42.0004
  -4339715.10047  -3378414.08446  24284608.5674   24284609.0084   24284607.9894
        46.0004         40.0004
 -16347742.88848 -12729882.84647  22200066.8254   22200068.9744   22200067.3434
        51.0004         46.0004
 -11870460.82848  -9224393.90847  23549624.2554   23549622.4884   23549623.7094
        48.0004         42.0004
  -6772819.99648  -5273779.77747  23074411.4854   23074411.8214   23074411.6984
        49.0004         44.0004
                                  24862366.796
        42.000
 15  1  1  0 17 30.0000000  0 11G14G31G06G29G20G25G23G32G03G02G12
   -310034.30247   -236056.78346  24480146.9674   24480146.1594   24480146.6224
        42.0004         36.0004
 -11824109.00549  -9208871.43648  21088407.1734   21088405.8884   21088407.4514
        56.0004         50.0004
 -10203004.74048  -7942811.94247  22264396.9134   22264400.5514   22264397.5244
        50.0004         46.0004
  -5751256.92047  -4302260.51346  23847916.4904   23847915.9744   23847916.8524
        46.0004         41.0004
 -17922776.99948 -13934529.64447  21921198.9874   21921197.9504   21921198.3534
        52.0004         46.0004
 -19764523.84249 -15346900.67348  21406322.4924   21406324.8004   21406322.3524
        54.0004         48.0004
 -11315993.80948  -8812084.73947  23552314.7244   23552311.7604   23552314.5094
        49.0004         42.0004
  -4234563.71247  -3296477.97846  24304618.2504   24304618.6804   24304617.6604
        46.0004         40.0004
 -16295157.54448 -12688907.27047  22210073.4854   22210075.6444   22210074.0074
        51.0004         46.0004
 -11944308.33148  -9281937.39247  23535571.5244   23535569.7464   23535570.9954
        48.0004         42.0004
  -6676181.49648  -5198477.01547  23092801.1494   23092801.4914   23092801.3604
        49.0004         43.0004
 15  1  1  0 18  0.0000000  0 12G14G31G06G29G20G25G23G32G03G02G12G10
   -199030.17346   -149560.03146  24501270.3354   24501269.5084   24501269.9794
        39.0004         36.0004
 -11830906.04249  -9214167.82048  21087113.7224   21087112.4484   21087114.0134
        56.0004         50.0004
 -10201337.06248  -7941512.51947  22264714.3254   22264717.9764   22264714.9164
        51.0004         46.0004
  -5855566.79747  -4383541.03846  23828067.0584   23828066.5694   23828067.4204
        46.0004         41.0004
 -17907583.00848 -13922690.16847  21924090.3174   21924089.2764   21924089.6874
        52.0004         46.0004
 -19736543.33249 -15325097.76848  21411647.0844   21411649.4154   21411646.9514
        54.0004         48.0004
 -11410502.53848  -8885727.88647  23534330.3014   23534327.3354   23534330.0754
        50.0004         42.0004
  -4129190.42847  -3214368.98146  24324670.1474   24324670.6094   24324669.5764
        45.0004         39.0004
 -16242010.32348 -12647493.84047  22220187.0744   22220189.2304   22220187.5724
        52.0004         46.0004
 -12017760.61647  -9339172.77647  23521593.8994   23521592.0944   23521593.3564
        47.0004         42.0004
  -6579180.44148  -5122891.69947  23111259.7724   23111260.0904   23111259.9874
        49.0004         43.0004
                                  24818797.988
        43.000
 15  1  1  0 18 30.0000000  0 12G14G31G06G29G20G25G23G32G03G02G12G10
    -87864.47747    -62937.42546  24522424.4734   24522423.6554   24522424.1364
        44.0004         37.0004
 -11837095.04849  -9218990.41848  21085935.9894   21085934.7114   21085936.2824
        56.0004         50.0004
 -10199018.02048  -7939705.40047  22265155.5674   22265159.1964   22265156.1684
        51.0004         46.0004
  -5959600.27447  -4464606.30846  23808270.3104   23808269.8684   23808270.6694
        47.0004         41.0004
 -17891745.00148 -13910348.86847  21927104.1964   21927103.1494   21927103.5614
        52.0004         46.0004
 -19707926.89449 -15302799.26948  21417092.6124   21417094.9724   21417092.4874
        54.0004         48.0004
 -11504700.29848  -8959128.71147  23516405.0384   23516402.0614   23516404.8184
        49.0004         42.0004
  -4023594.79947  -3132086.72946  24344764.3574   24344764.8524   24344763.7914
        45.0004         39.0004
 -16188299.89448 -12605641.55247  22230407.8024   22230409.9804   22230408.3244
        51.0004         46.0004
 -12090812.48248  -9396096.20947  23507692.5084   23507690.6794   23507691.9824
        48.0004         43.0004
  -6481816.60648  -5047023.73547  23129787.4654   23129787.7674   23129787.6664
        49.0004         43.0004
   -770962.36957   -423936.71055  24797076.5994   24797077.3434   24797075.7204
        42.0004         35.0004
 15  1  1  0 19  0.0000000  0 12G14G31G06G29G20G25G23G32G03G02G12G10
     23458.55947     23807.79846  24543608.5464   24543607.7354   24543608.2184
        42.0004         37.0004
 -11842677.94149  -9223340.71848  21084873.6104   21084872.3174   21084873.8964
        56.0004         50.0004
 -10196050.36748  -7937392.99747  22265720.3234   22265723.9844   22265720.9454
        51.0004         46.0004
  -6063356.14347  -4545455.03846  23788526.2284   23788525.7954   23788526.5894
        47.0004         41.0004
 -17875265.88648 -13897507.98547  21930240.0424   21930239.0184   21930239.4284
        52.0004         46.0004
 -19678678.10249 -15280008.07148  21422658.5314   21422660.8824   21422658.4054
        54.0004         48.0004
 -11598586.66648  -9032286.91047  23498539.0594   23498536.0654   23498538.8384
        50.0004         42.0004
  -3917781.69347  -3049635.04046  24364900.0044   24364900.4894   24364899.4224
        46.0004         40.0004
 -16134030.31848 -12563353.56947  22240734.9744   22240737.1254   22240735.4914
        51.0004         46.0004
 -12163464.21048  -9452707.94247  23493867.3334   23493865.5124   23493866.8164
        48.0004         42.0004
  -6384094.78748  -4970876.80147  23148383.2684   23148383.5534   23148383.4774
        49.0004         43.0004
   -884886.62447   -512709.09246  24775397.6004   24775399.2794   24775396.9144
        44.0004         36.0004
 15  1  1  0 19 30.0000000  0 12G14G31G06G29G20G25G23G32G03G02G12G10
    134937.10747    110674.17046  24564822.2204   24564821.4304   24564821.8954
        42.0004         37.0004
 -11847654.08049  -9227218.22148  21083926.6664   21083925.3874   21083926.9554
        56.0004         50.0004
 -10192433.01548  -7934574.16847  22266408.6074   22266412.2274   22266409.2174
        51.0004         46.0004
  -6166831.25347  -4626085.03046  23768835.6054   23768835.1784   23768835.9584
        47.0004         41.0004
 -17858145.64748 -13884167.53347  21933497.9264   21933496.8794   21933497.2864
        52.0004         46.0004
 -19648797.15449 -15256724.21848  21428344.6914   21428347.0564   21428344.5594
        54.0004         48.0004
 -11692158.57048  -9105200.08047  23480732.9064   23480729.9254   23480732.6864
        49.0004         43.0004
  -3811752.84447  -2967015.11846  24385076.5934   24385077.0784   24385076.0124
        45.0004         39.0004
 -16079202.76948 -12520630.81547  22251168.3134   22251170.4844   22251168.8284
        51.0004         46.0004
 -12235712.20648  -9509004.89847  23480118.8644   23480116.9814   23480118.3394
        48.0004         43.0004
  -6286017.59848  -4894453.06547  23167046.7714   23167047.0714   23167046.9644
        49.0004         44.0004
   -998583.08647   -601303.87646  24753762.1564   24753763.5914   24753761.2204
        45.0004         36.0004
 15  1  1  0 20  0.0000000  0 12G14G31G06G29G20G25G23G32G03G02G12G10
    246571.68547    197662.12346  24586065.6224   24586064.8034   24586065.2724
        43.0004         37.0004
 -11852020.52449  -9230620.63948  21083095.7514   21083094.4774   21083096.0434
        56.0004         50.0004
 -10188163.37948  -7931246.94747  22267220.9084   22267224.4744   22267221.5144
        51.0004         46.0004
  -6270019.99747  -4706491.68446  23749199.3154   23749198.8474   23749199.6554
        45.0004         41.0004
 -17840382.30548 -13870325.95847  21936878.1584   21936877.1224   21936877.5404
        52.0004         46.0004
 -19618282.53149 -15232946.59348  21434151.4394   21434153.7844   21434151.2984
        54.0004         48.0004
 -11785410.63648  -9177864.02747  23462987.6254   23462984.6544   23462987.4034
        50.0004         43.0004
  -3705508.13147  -2884227.05846  24405294.3024   24405294.8094   24405293.7294
        44.0004         39.0004
 -16023816.23548 -12477472.48147  22261708.0254   22261710.1964   22261708.5344
        51.0004         46.0004
 -12307551.77348  -9564983.57347  23466448.0984   23466446.1684   23466447.5534
        49.0004         43.0004
  -6187583.90248  -4817751.29247  23185777.9434   23185778.1944   23185778.1414
        49.0004         43.0004
  -1112046.89847   -689717.37246  24732170.8914   24732172.1214   24732169.7504
        44.0004         37.0004
 15  1  1  0 20 30.0000000  0 12G14G31G06G29G20G25G23G32G03G02G12G10
    358357.74347    284768.12846  24607337.8024   24607336.9974   24607337.4704
        43.0004         37.0004
 -11855779.35249  -9233549.59648  21082380.4694   21082379.1914   21082380.7604
        56.0004         50.0004
 -10183244.75348  -7927414.34247  22268156.9554   22268160.5404   22268157.5614
        50.0004         46.0004
  -6372922.04547  -4786675.09346  23729617.7014   23729617.2384   23729618.0494
        46.0004         41.0004
 -17821978.70448 -13855985.48447  21940380.2554   21940379.2054   21940379.6144
        52.0004         46.0004
 -19587137.64949 -15208677.85848  21440078.1004   21440080.4604   21440077.9864
        54.0004         48.0004
 -11878342.59748  -9250278.53647  23445303.2584   23445300.2854   23445303.0334
        50.0004         43.0004
  -3599052.54447  -2801274.69046  24425552.1634   24425552.6544   24425551.5894
        44.0004         38.0004
 -15967874.94648 -12433881.88247  22272353.3044   22272355.4724   22272353.8134
        51.0004         46.0004
 -12378983.40848  -9620644.56647  23452855.0934   23452853.1714   23452854.5584
        48.0004         43.0004
  -6088799.89148  -4740776.77147  23204575.9404   23204576.1954   23204576.1334
        49.0004         43.0004
  -1225276.65947   -777948.16946  24710623.7944   24710624.9334   24710622.6224
        45.0004         37.0004
 15  1  1  0 21  0.0000000  0 12G14G31G06G29G20G25G23G32G03G02G12G10
    470291.19947    371988.98446  24628638.0714   24628637.2484   24628637.7234
        42.0004         37.0004
 -11858932.26449  -9236006.41348  21081780.5054   21081779.2104   21081780.7904
        56.0004         50.0004
 -10177677.89748  -7923076.48747  22269216.2754   22269219.8414   22269216.8674
        51.0004         46.0004
  -6475536.29847  -4866634.38646  23710090.9494   23710090.5404   23710091.3104
        46.0004         41.0004
 -17802936.91448 -13841147.72647  21944003.7944   21944002.7254   21944003.1514
        52.0004         46.0004
 -19555365.19448 -15183920.12348  21446124.2224   21446126.5924   21446124.0964
        53.0004         48.0004
 -11970953.86848  -9322443.14947  23427679.9054   23427676.9324   23427679.6854
        50.0004         43.0004
  -3492389.97547  -2718161.04046  24445849.3954   24445849.9004   24445848.8184
        44.0004         38.0004
 -15911382.18648 -12389861.57947  22283103.5394   22283105.7144   22283104.0464
        51.0004         46.0004
 -12450005.82448  -9675986.51647  23439339.8144   23439337.8514   23439339.2924
        48.0004         43.0004
  -5989669.32448  -4663532.22247  23223439.8964   23223440.1634   23223440.1004
        49.0004         43.0004
  -1338271.66847   -865996.50246  24689121.7054   24689122.9824   24689120.5714
        43.0004         37.0004
 15  1  1  0 21 30.0000000  0 12G14G31G06G29G20G25G23G32G03G02G12G10
    582370.21946    459323.24046  24649966.0324   24649965.2334   24649965.6774
        41.0004         37.0004
 -11861478.97149  -9237990.85948  21081295.8854   21081294.5874   21081296.1584
        56.0004         50.0004
 -10171463.02148  -7918233.67447  22270398.8724   22270402.4364   22270399.4764
        51.0004         46.0004
  -6577859.22647  -4946366.58646  23690619.5854   23690619.1834   23690619.9254
        47.0004         41.0004
 -17783257.38548 -13825813.03247  21947748.6714   21947747.6214   21947748.0534
        52.0004         46.0004
 -19522966.06649 -15158674.03748  21452289.5714   21452291.9274   21452289.4254
        54.0004         48.0004
 -12063241.44048  -9394355.54747  23410118.1674   23410115.1864   23410117.9474
        50.0004         43.0004
  -3385522.92347  -2634888.09046  24466185.5814   24466186.1134   24466184.9954
        45.0004         38.0004
 -15854339.64648 -12345412.86147  22293958.3814   22293960.5624   22293958.8944
        51.0004         46.0004
 -12520617.00048  -9731008.09947  23425902.8724   23425900.8964   23425902.3364
        48.0004         43.0004
  -5890195.03548  -4586019.85747  23242369.2744   23242369.5654   23242369.4744
        49.0004         43.0004
  -1451027.64147   -953858.33446  24667664.9874   24667666.2234   24667663.9144
        42.0004         37.0004
 15  1  1  0 22  0.0000000  0 12G14G31G06G29G20G25G23G32G03G02G12G10
    694599.68947    546774.75646  24671322.6064   24671321.8064   24671322.2594
        45.0004         37.0004
 -11863412.11949  -9239497.20648  21080928.0064   21080926.7174   21080928.2954
        56.0004         50.0004
 -10164593.19348  -7912880.51647  22271706.1354   22271709.6934   22271706.7424
        51.0004         46.0004
  -6679880.76947  -5025863.85246  23671205.5024   23671205.0904   23671205.8374
        44.0004         41.0004
 -17762933.52748 -13809976.25847  21951616.1724   21951615.1274   21951615.5534
        52.0004         46.0004
 -19489934.33449 -15132935.00048  21458575.2704   21458577.6344   21458575.1364
        54.0004         48.0004
 -12155195.74448  -9466008.22947  23392619.8254   23392616.8584   23392619.6104
        50.0004         43.0004
  -3278446.71747  -2551452.10546  24486561.5284   24486562.0564   24486560.9484
        46.0004         39.0004
 -15796742.05748 -12300531.65047  22304918.8674   22304921.0574   22304919.3874
        51.0004         46.0004
 -12590807.10648  -9785701.61647  23412546.0984   23412544.0874   23412545.5574
        49.0004         43.0004
  -5790371.51248  -4508235.29847  23261365.0704   23261365.3534   23261365.2524
        49.0004         43.0004
  -1563535.58647  -1041527.04346  24646255.6344   24646256.9154   24646254.5754
        43.0004         38.0004
 15  1  1  0 22 30.0000000  0 12G14G31G06G29G20G25G23G32G03G02G12G10
    806967.85746    634334.34046  24692705.5734   24692704.7824   24692705.2234
        41.0004         37.0004
 -11864741.15849  -9240532.81348  21080675.0964   21080673.8034   21080675.3794
        56.0004         50.0004
 -10157077.99748  -7907024.43547  22273136.1544   22273139.6984   22273136.7724
        51.0004         46.0004
  -6781607.58047  -5105131.38246  23651847.4484   23651847.0104   23651847.7794
        46.0004         41.0004
 -17741975.66248 -13793645.44647  21955604.3284   21955603.2554   21955603.6974
        52.0004         46.0004
 -19456280.91449 -15106711.57348  21464979.3264   21464981.6794   21464979.1844
        54.0004         48.0004
 -12246823.91948  -9537406.79647  23375183.5674   23375180.5694   23375183.3414
        51.0004         43.0004
  -3171173.29847  -2467862.44446  24506975.0044   24506975.5184   24506974.4104
        44.0004         39.0004
 -15738600.82248 -12255226.82547  22315982.7984   22315984.9944   22315983.3084
        51.0004         46.0004
 -12660583.89948  -9840073.04447  23399267.9224   23399265.8984   23399267.4044
        48.0004         42.0004
  -5690211.32848  -4430188.40647  23280424.9084   23280425.2194   23280425.1064
        48.0004         42.0004
  -1675800.90246  -1129006.62546  24624892.3784   24624893.6184   24624891.2074
        40.0004         36.0004
 15  1  1  0 23  0.0000000  0 12G14G31G06G29G20G25G23G32G03G02G12G10
    919475.05747    722002.23246  24714115.0054   24714114.2614   24714114.6924
        42.0004         36.0004
 -11865463.14149  -9241095.40448  21080537.7044   21080536.4134   21080537.9974
        56.0004         50.0004
 -10148914.27748  -7900662.78247  22274689.4324   22274692.9014   22274690.0324
        51.0004         46.0004
  -6883034.45347  -5184165.31746  23632546.5664   23632546.1194   23632546.9044
        47.0004         41.0004
 -17720381.68148 -13776818.96647  21959713.5284   21959712.4714   21959712.8854
        52.0004         46.0004
 -19422003.51549 -15080001.87548  21471502.0704   21471504.4074   21471501.9434
        54.0004         48.0004
 -12338120.53648  -9608546.98247  23357810.3594   23357807.3674   23357810.1384
        50.0004         43.0004
  -3063702.32047  -2384118.90146  24527426.1074   24527426.6284   24527425.5134
        44.0004         39.0004
 -15679914.79248 -12209497.48847  22327150.4184   22327152.6104   22327150.9274
        51.0004         46.0004
 -12729942.16948  -9894118.50947  23386069.5194   23386067.5264   23386068.9914
        49.0004         43.0004
  -5589714.54747  -4351879.23647  23299548.8054   23299549.1144   23299549.0114
        47.0004         42.0004
  -1787817.76046  -1216292.54146  24603576.1544   24603577.5244   24603575.0584
        39.0004         36.0004
 15  1  1  0 23 30.0000000  0 12G14G31G06G29G20G25G23G32G03G02G12G10
   1032118.56046    809776.33846  24735550.3754   24735549.6484   24735550.0574
        41.0004         36.0004
 -11865579.18449  -9241185.82648  21080515.6264   21080514.3394   21080515.9074
        56.0004         50.0004
 -10140103.81048  -7893797.21047  22276365.7924   22276369.2094   22276366.4044
        50.0004         46.0004
  -6984159.06647  -5262963.68446  23613303.1554   23613302.7124   23613303.4944
        46.0004         41.0004
 -17698153.19948 -13759498.06547  21963943.4534   21963942.3924   21963942.8294
        52.0004         46.0004
 -19387104.65449 -15052807.94148  21478143.0954   21478145.4254   21478142.9464
        54.0004         48.0004
 -12429084.00248  -9679427.58447  23340500.5784   23340497.5774   23340500.3614
        50.0004         43.0004
  -2956037.17947  -2300224.06146  24547914.1524   24547914.7154   24547913.5554
        43.0004         39.0004
 -15620686.86748 -12163345.91247  22338421.1634   22338423.3764   22338421.6604
        51.0004         46.0004
 -12798880.69248  -9947836.93547  23372951.0444   23372949.0574   23372950.5094
        49.0004         43.0004
  -5488884.72248  -4273310.60947  23318736.1524   23318736.4804   23318736.3444
        49.0004         42.0004
  -1899584.42846  -1303383.61346  24582307.7714   24582309.1854   24582306.6844
        39.0004         36.0004
 15  1  1  0 24  0.0000000  0 12G14G31G06G29G20G25G23G32G03G02G12G10
   1144897.11146    897655.72146  24757011.4414   24757010.7184   24757011.1114
        41.0004         36.0004
 -11865088.00749  -9240803.09448  21080609.1064   21080607.8114   21080609.3894
        56.0004         50.0004
 -10130646.23148  -7886427.45147  22278165.3454   22278168.7014   22278165.9634
        51.0004         46.0004
  -7084977.48647  -5341523.45146  23594118.0304   23594117.5564   23594118.3574
        47.0004         41.0004
 -17675290.50748 -13741682.98347  21968294.0884   21968293.0124   21968293.4574
        52.0004         46.0004
 -19351585.00549 -15025130.32848  21484902.2714   21484904.6234   21484902.1554
        54.0004         48.0004
 -12519711.28048  -9750046.21047  23323254.7504   23323251.7494   23323254.5254
        50.0004         43.0004
  -2848179.89547  -2216179.52846  24568438.7904   24568439.3854   24568438.1954
        44.0004         39.0004
 -15560918.36748 -12116773.14047  22349794.7794   22349797.0294   22349795.2994
        51.0004         46.0004
 -12867396.66748 -10001226.18647  23359913.0084   23359911.0824   23359912.4774
        49.0004         43.0004
  -5387723.48248  -4194483.73647  23337986.5344   23337986.8794   23337986.7524
        49.0004         43.0004
  -2011096.04146  -1390275.53246  24561087.6404   24561088.9204   24561086.5874
        40.0004         36.0004
 15  1  1  0 24 30.0000000  0 12G14G31G06G29G20G25G23G32G03G02G12G10
   1257809.72146    985639.50846  24778498.0324   24778497.3324   24778497.7164
        40.0004         36.0004
 -11863988.34849  -9239946.21748  21080818.3464   21080817.0584   21080818.6354
        56.0004         50.0004
 -10120540.17848  -7878552.53047  22280088.4254   22280091.7464   22280089.0184
        51.0004         46.0004
  -7185485.54447  -5419841.40846  23574991.9644   23574991.4964   23574992.3014
        46.0004         41.0004
 -17651792.12548 -13723372.55247  21972765.6754   21972764.6124   21972765.0584
        52.0004         46.0004
 -19315443.72949 -14996968.28748  21491779.7354   21491782.0734   21491779.5934
        54.0004         48.0004
 -12609998.10548  -9820399.58747  23306073.7384   23306070.7324   23306073.5164
        50.0004         43.0004
  -2740130.96047  -2131985.61546  24588999.8624   24589000.4704   24588999.2764
        44.0004         40.0004
 -15500609.14748 -12069778.94447  22361271.2364   22361273.4964   22361271.7524
        50.0004         46.0004
 -12935485.36248 -10054282.26747  23346956.1194   23346954.1854   23346955.6074
        48.0004         43.0004
  -5286231.72348  -4115399.23747  23357299.7694   23357300.1114   23357299.9804
        48.0004         42.0004
  -2122348.69647  -1476965.76046  24539916.8644   24539918.0744   24539915.7954
        42.0004         37.0004
 15  1  1  0 25  0.0000000  0 12G14G31G06G29G20G25G23G32G03G02G12G10
   1370854.17447   1073726.05846  24800009.7094   24800009.0184   24800009.3914
        43.0004         36.0004
 -11862280.09349  -9238615.11348  21081143.4234   21081142.1324   21081143.7154
        56.0004         50.0004
 -10109785.66248  -7870172.35547  22282134.9134   22282138.2324   22282135.5114
        50.0004         46.0004
  -7285680.28647  -5497915.20847  23555925.5224   23555925.0474   23555925.8464
        46.0004         42.0004
 -17627659.18148 -13704567.63647  21977358.0084   21977356.9344   21977357.3834
        52.0004         46.0004
 -19278682.19448 -14968322.91648  21498775.1964   21498777.5424   21498775.0624
        53.0004         48.0004
 -12699941.49148  -9890485.32847  23288958.0804   23288955.0594   23288957.8574
        50.0004         43.0004
  -2631893.06447  -2047644.54746  24609596.9594   24609597.6164   24609596.3884
        46.0004         40.0004
 -15439761.27048 -12022365.00447  22372850.2034   22372852.4524   22372850.7184
        50.0004         46.0004
 -13003144.52748 -10107003.51347  23334080.8914   23334078.8874   23334080.3444
        49.0004         43.0004
  -5184412.41248  -4036059.62647  23376675.4404   23376675.7834   23376675.6354
        48.0004         42.0004
  -2233339.27647  -1563451.93146  24518796.1064   24518797.2664   24518795.0014
        42.0004         36.0004
 15  1  1  0 25 30.0000000  0 12G14G31G06G29G20G25G23G32G03G02G12G10
   1484024.60146   1161910.76846  24821545.3794   24821544.6694   24821545.0454
        41.0004         36.0004
 -11859967.28749  -9236812.93148  21081583.5514   21081582.2514   21081583.8354
        56.0004         50.0004
 -10098386.67448  -7861289.98447  22284304.0364   22284307.3334   22284304.6464
        51.0004         46.0004
  -7385562.60447  -5575745.55346  23536918.5224   23536918.0454   23536918.8414
        46.0004         41.0004
 -17602896.31348 -13685271.87347  21982070.2124   21982069.1294   21982069.5804
        52.0004         46.0004
 -19241305.55249 -14939198.28848  21505887.7694   21505890.1094   21505887.6314
        54.0004         48.0004
 -12789543.07448  -9960304.72747  23271907.4634   23271904.4364   23271907.2394
        51.0004         43.0004
  -2523472.13747  -1963160.76646  24630228.8244   24630229.4764   24630228.2504
        46.0004         39.0004
 -15378380.40548 -11974535.73647  22384530.5704   22384532.8104   22384531.0844
        50.0004         45.0004
 -13070376.23748 -10159391.75947  23321287.0384   23321285.0314   23321286.4994
        49.0004         43.0004
  -5082272.01348  -3956469.70547  23396112.1024   23396112.4654   23396112.2964
        48.0004         43.0004
  -2344068.70147  -1649734.86046  24497725.1774   24497726.4284   24497724.1164
        44.0004         36.0004
 15  1  1  0 26  0.0000000  0 12G14G31G06G29G20G25G23G32G03G02G12G10
   1597320.33646   1250193.16945  24843104.8254   24843104.1194   24843104.4964
        39.0004         35.0004
 -11857048.20449  -9234538.32648  21082139.0284   21082137.7324   21082139.3204
        56.0004         50.0004
 -10086341.86448  -7851904.34747  22286596.0164   22286599.3304   22286596.6404
        50.0004         46.0004
  -7485127.97247  -5653328.93647  23517971.8464   23517971.3654   23517972.1754
        47.0004         42.0004
 -17577502.26148 -13665484.29147  21986902.5254   21986901.4494   21986901.8984
        51.0004         45.0004
 -19203313.18348 -14909593.83448  21513117.4644   21513119.8064   21513117.3204
        53.0004         48.0004
 -12878798.55248 -10029854.42347  23254922.6854   23254919.6454   23254922.4674
        51.0004         43.0004
  -2414869.06347  -1878535.01846  24650895.3294   24650895.9834   24650894.7514
        46.0004         39.0004
 -15316467.00248 -11926291.57547  22396312.3534   22396314.5934   22396312.8574
        51.0004         46.0004
 -13137176.97748 -10211444.40547  23308575.3654   23308573.3924   23308574.8344
        49.0004         43.0004
  -4979811.04248  -3876629.99547  23415609.7774   23415610.1494   23415609.9874
        48.0004         43.0004
  -2454531.33547  -1735809.68646  24476704.8694   24476706.1144   24476703.8304
        44.0004         37.0004
 15  1  1  0 26 30.0000000  0 12G14G31G06G29G20G25G23G32G03G02G12G10
   1710741.09746   1338572.94545  24864688.1064   24864687.4224   24864687.7894
        40.0004         34.0004
 -11853520.76649  -9231789.68148  21082810.2904   21082809.0014   21082810.5794
        56.0004         50.0004
 -10073649.65548  -7842014.22247  22289011.2034   22289014.4804   22289011.8094
        51.0004         46.0004
  -7584371.48647  -5730661.54146  23499086.4334   23499085.9524   23499086.7544
        47.0004         41.0004
 -17551476.22448 -13645204.26047  21991855.1154   21991854.0424   21991854.4864
        52.0004         45.0004
 -19164704.60548 -14879509.22448  21520464.4304   21520466.7644   21520464.2964
        53.0004         48.0004
 -12967703.55848 -10099131.01747  23238004.5954   23238001.5554   23238004.3724
        50.0004         43.0004
  -2306084.63347  -1793768.02046  24671596.3924   24671597.0484   24671595.8064
        45.0004         39.0004
 -15254020.99148 -11877632.41147  22408195.4744   22408197.7464   22408195.9944
        50.0004         45.0004
 -13203541.98848 -10263157.38047  23295946.5244   23295944.5294   23295945.9784
        49.0004         43.0004
  -4877030.76448  -3796541.56947  23435168.2844   23435168.6734   23435168.4934
        48.0004         43.0004
  -2564722.69347  -1821673.32946  24455736.3324   24455737.6534   24455735.2964
        45.0004         37.0004
 15  1  1  0 27  0.0000000  0 12G14G31G06G29G20G25G23G32G03G02G12G10
  22304744.13456  17385847.91355  24886294.5554   24886293.3884   24886293.4914
        41.0004         34.0004
 -11849385.94149  -9228567.74948  21083597.1164   21083595.8344   21083597.4124
        56.0004         50.0004
 -10060311.24448  -7831620.59547  22291549.3784   22291552.6414   22291549.9784
        51.0004         46.0004
  -7683290.99947  -5807741.64047  23480262.6554   23480262.1484   23480262.9714
        47.0004         42.0004
 -17524819.59748 -13624432.85547  21996927.6994   21996926.6164   21996927.0644
        52.0004         45.0004
 -19125481.84648 -14848946.00848  21527928.2454   21527930.5744   21527928.1234
        53.0004         48.0004
 -13056256.29248 -10168133.10847  23221153.5374   23221150.4944   23221153.3074
        50.0004         43.0004
  -2197121.96547  -1708862.15146  24692331.3524   24692332.0584   24692330.7834
        45.0004         39.0004
 -15191044.75648 -11828559.93847  22420179.3924   22420181.6424   22420179.8994
        50.0004         46.0004
 -13269469.61448 -10314529.33747  23283400.7404   23283398.6984   23283400.2154
        49.0004         43.0004
  -4773933.74648  -3716206.20347  23454786.9884   23454787.3654   23454787.1774
        48.0004         42.0004
  -2674639.66047  -1907322.69246  24434819.6934   24434820.9804   24434818.6464
        46.0004         36.0004
 15  1  1  0 27 30.0000000  0 12G14G31G06G29G20G25G23G32G03G02G12G10
  22418403.50256  17474413.62755  24907922.9014   24907922.6344   24907923.4514
        38.0004         34.0004
 -11844647.85149  -9224875.74048  21084498.7694   21084497.4844   21084499.0514
        56.0004         50.0004
 -10046330.96748  -7820726.80847  22294209.6914   22294212.9234   22294210.2874
        51.0004         46.0004
  -7781887.85347  -5884570.43247  23461500.3524   23461499.8644   23461500.6564
        47.0004         42.0004
 -17497537.40448 -13603174.00147  22002119.3254   22002118.2334   22002118.7084
        52.0004         45.0004
 -19085650.31848 -14817908.47748  21535507.9524   21535510.2924   21535507.8134
        53.0004         48.0004
 -13144458.29448 -10236861.92647  23204369.2404   23204366.2054   23204369.0264
        50.0004         43.0004
  -2087987.31747  -1623822.25646  24713099.0714   24713099.7954   24713098.4914
        44.0004         39.0004
 -15127544.67548 -11779079.33447  22432263.0494   22432265.2934   22432263.5594
        50.0004         46.0004
 -13334962.22648 -10365562.40347  23270937.8054   23270935.7304   23270937.2684
        49.0004         43.0004
  -4670527.38248  -3635629.85247  23474464.5874   23474464.9804   23474464.7854
        48.0004         42.0004
  -2784283.99147  -1992759.93346  24413955.1504   24413956.4604   24413954.1114
        47.0004         36.0004
 15  1  1  0 28  0.0000000  0 12G14G31G06G29G20G25G23G32G03G02G12G10
  22532179.66046  17563070.35445  24929573.7434   24929573.5424   24929574.0574
        39.0004         34.0004
 -11839303.39849  -9220711.23448  21085515.7894   21085514.4994   21085516.0664
        56.0004         50.0004
 -10031706.18448  -7809330.82147  22296992.6534   22296995.8744   22296993.2704
        51.0004         46.0004
  -7880155.80048  -5961142.85947  23442800.5744   23442800.0964   23442800.8884
        48.0004         42.0004
 -17469627.50248 -13581426.01647  22007430.3994   22007429.3094   22007429.7694
        52.0004         45.0004
 -19045208.11548 -14786395.03648  21543203.8274   21543206.1394   21543203.6824
        53.0004         48.0004
 -13232304.05248 -10305313.16747  23187652.7484   23187649.7114   23187652.5284
        50.0004         43.0004
  -1978680.24947  -1538648.06146  24733899.6194   24733900.3924   24733899.0494
        42.0004         38.0004
 -15063519.69648 -11729189.80047  22444446.6394   22444448.8834   22444447.1384
        51.0004         45.0004
 -13400014.18948 -10416251.98447  23258558.6304   23258556.4914   23258558.0954
        49.0004         43.0004
  -4566810.64848  -3554811.59847  23494201.2164   23494201.5984   23494201.4054
        48.0004         42.0004
  -2893649.15447  -2077979.79846  24393143.8344   24393145.2254   24393142.8114
        45.0004         36.0004
 15  1  1  0 28 30.0000000  0 12G14G31G06G29G20G25G23G32G03G02G12G10
  22646071.61946  17651817.35245  24951246.8574   24951246.7214   24951246.9234
        40.0004         34.0004
 -11833351.90149  -9216073.71348  21086648.3144   21086647.0424   21086648.6004
        56.0004         50.0004
 -10016436.22848  -7797432.08747  22299898.3654   22299901.5954   22299898.9854
        50.0004         46.0004
  -7978091.21048  -6037456.21747  23424164.1264   23424163.6674   23424164.4404
        48.0004         42.0004
 -17441090.12648 -13559189.12947  22012860.9094   22012859.8154   22012860.2804
        52.0004         45.0004
 -19004155.56848 -14754405.95048  21551015.8034   21551018.1044   21551015.6544
        53.0004         48.0004
 -13319789.80948 -10373483.84147  23171004.7424   23171001.6734   23171004.5024
        51.0004         43.0004
  -1869202.10547  -1453340.62246  24754732.7584   24754733.5824   24754732.1934
        42.0004         38.0004
 -14998970.41448 -11678891.60347  22456729.9154   22456732.1604   22456730.4204
        50.0004         46.0004
 -13464622.33248 -10466595.66247  23246263.8674   23246261.6414   23246263.3374
        49.0004         43.0004
  -4462785.41048  -3473752.85347  23513996.4824   23513996.8154   23513996.6624
        48.0004         42.0004
  -3002730.51647  -2162978.15246  24372386.2564   24372387.6054   24372385.2364
        43.0004         37.0004
 15  1  1  0 29  0.0000000  0 12G14G31G06G29G20G25G23G32G03G02G12G10
  22760070.40646  17740647.55045  24972939.9084   24972939.8184   24972940.1474
        38.0004         34.0004
 -11826799.97549  -9210968.32148  21087895.1214   21087893.8404   21087895.3934
        56.0004         50.0004
 -10000528.14548  -7785036.11747  22302925.5274   22302928.7394   22302926.1524
        50.0004         46.0004
  -8075697.35148  -6113512.92747  23405590.2734   23405589.8074   23405590.5864
        48.0004         42.0004
 -17411932.24848 -13536468.74547  22018409.5034   22018408.4224   22018408.8594
        51.0004         45.0004
 -18962500.82648 -14721947.67948  21558942.4134   21558944.7084   21558942.2804
        53.0004         48.0004
 -13406919.66948 -10441377.23047  23154424.4724   23154421.4044   23154424.2444
        51.0004         44.0004
  -1759561.84847  -1367906.78246  24775596.6904   24775597.5624   24775596.1234
        42.0004         38.0004
 -14933905.76248 -11628191.91147  22469111.3304   22469113.5824   22469111.8504
        50.0004         45.0004
 -13528791.70148 -10516597.59947  23234052.7004   23234050.4454   23234052.1824
        49.0004         43.0004
  -4358460.90047  -3392461.07947  23533848.8004   23533849.1614   23533848.9954
        47.0004         43.0004
  -3111532.38247  -2247758.93746  24351682.0534   24351683.4434   24351681.0234
        42.0004         37.0004
 15  1  1  0 29 30.0000000  0 12G14G31G06G29G20G25G23G32G03G02G12G10
  22874183.34647  17829566.66645  24994654.9524   24994654.8464   24994655.1034
        42.0004         35.0004
 -11819638.53749  -9205387.98148  21089257.8894   21089256.6154   21089258.1744
        56.0004         50.0004
  -9983973.25648  -7772136.15447  22306075.7904   22306078.9744   22306076.3964
        51.0004         46.0004
  -8172962.64948  -6189304.14247  23387081.3754   23387080.9194   23387081.6714
        48.0004         42.0004
 -17382145.64848 -13513258.39947  22024077.6894   22024076.6174   22024077.0564
        52.0004         45.0004
 -18920236.02948 -14689014.04547  21566985.1164   21566987.4094   21566984.9754
        53.0004         47.0004
 -13493682.26648 -10508984.43847  23137914.0864   23137911.0234   23137913.8594
        51.0004         44.0004
  -1649752.78447  -1282341.46746  24796492.8194   24796493.7264   24796492.2284
        42.0004         38.0004
 -14868318.49148 -11577084.98647  22481592.2134   22481594.4794   22481592.7234
        50.0004         45.0004
 -13592510.99048 -10566249.05447  23221927.3724   23221925.1324   23221926.8404
        49.0004         43.0004
  -4253830.47247  -3310930.93047  23553759.3404   23553759.7324   23553759.5474
        47.0004         43.0004
  -3220041.37746  -2332311.31346  24331033.4074   24331034.7584   24331032.3864
        41.0004         37.0004
 15  1  1  0 30  0.0000000  0 12G14G31G06G29G20G25G23G32G03G02G12G10
  22988404.25247  17918569.93946  25016390.7954   25016390.3944   25016390.6114
        42.0004         36.0004
 -11811872.02049  -9199336.14848  21090735.8024   21090734.5184   21090736.0914
        56.0004         50.0004
  -9966776.64348  -7758736.13547  22309348.1394   22309351.3104   22309348.7644
        51.0004         46.0004
  -8269888.48748  -6264830.86447  23368637.0704   23368636.6344   23368637.3624
        48.0004         42.0004
 -17351736.21148 -13489562.76747  22029864.4414   22029863.3704   22029863.8194
        52.0004         45.0004
 -18877367.17848 -14655609.74347  21575142.7724   21575145.0614   21575142.6544
        53.0004         47.0004
 -13580079.33648 -10576306.81547  23121473.2674   23121470.1904   23121473.0264
        51.0004         44.0004
  -1539781.87747  -1196649.94846  24817419.6694   24817420.5954   24817419.0844
        43.0004         38.0004
 -14802215.22348 -11525576.02147  22494171.2884   22494173.5864   22494171.8124
        50.0004         45.0004
 -13655781.88148 -10615551.01547  23209887.3004   23209885.0454   23209886.7754
        49.0004         43.0004
  -4148901.25147  -3229167.93247  23573726.7364   23573727.1394   23573726.9414
        47.0004         42.0004
  -3328259.50846  -2416637.03146  24310440.0784   24310441.4324   24310439.0564
        39.0004         37.0004
 15  1  1  0 30 30.0000000  0 12G14G31G06G29G20G25G23G32G03G02G12G10
  23102731.41547  18007656.01746  25038146.6454   25038146.2484   25038146.4524
        43.0004         36.0004
 -11803500.05949  -9192812.54648  21092328.9434   21092327.6614   21092329.2174
        56.0004         50.0004
  -9948937.61048  -7744835.44647  22312742.7004   22312745.8184   22312743.3054
        51.0004         46.0004
  -8366470.80548  -6340089.83047  23350258.0674   23350257.6524   23350258.3774
        48.0004         42.0004
 -17320703.92448 -13465381.80047  22035769.7144   22035768.6484   22035769.0834
        51.0004         45.0004
 -18833894.80848 -14621735.22147  21583415.3334   21583417.6324   21583415.2134
        53.0004         47.0004
 -13666107.25748 -10643341.53647  23105102.6724   23105099.6044   23105102.4504
        50.0004         44.0004
  -1429650.56446  -1110833.45646  24838377.0344   24838377.9914   24838376.4594
        41.0004         37.0004
 -14735596.83848 -11473665.60647  22506848.3774   22506850.6534   22506848.8764
        50.0004         45.0004
 -13718601.60448 -10664501.44147  23197933.0874   23197930.8444   23197932.5794
        49.0004         43.0004
  -4043674.48847  -3147173.03047  23593750.6994   23593751.0954   23593750.9074
        47.0004         42.0004
  -3436182.66146  -2500732.98046  24289902.9754   24289904.3104   24289901.9494
        41.0004         37.0004
 15  1  1  0 31  0.0000000  0 12G14G31G06G29G20G25G23G32G03G02G12G10
  23217161.67447  18096822.41246  25059921.9724   25059921.6394   25059921.8414
        44.0004         36.0004
 -11794523.58049  -9185817.87748  21094037.0924   21094035.8174   21094037.3754
        56.0004         50.0004
  -9930457.89048  -7730435.63547  22316259.2404   22316262.3614   22316259.8504
        50.0004         46.0004
  -8462707.67447  -6415079.72747  23331944.9004   23331944.5034   23331945.2034
        47.0004         42.0004
 -17289050.28048 -13440716.68047  22041793.2474   22041792.1944   22041792.6254
        52.0004         45.0004
 -18789820.90448 -14587391.93148  21591802.3194   21591804.6324   21591802.1914
        53.0004         48.0004
 -13751764.56448 -10710087.45547  23088802.5994   23088799.5164   23088802.3694
        51.0004         44.0004
  -1319362.11947  -1024894.64046  24859364.4154   24859365.4204   24859363.8164
        42.0004         37.0004
 -14668466.15548 -11421355.96047  22519622.8954   22519625.1764   22519623.4104
        50.0004         45.0004
 -13780968.44148 -10713098.89547  23186065.0124   23186062.7504   23186064.4844
        49.0004         43.0004
  -3938154.08747  -3064949.44046  23613830.6374   23613831.0714   23613830.8524
        47.0004         41.0004
  -3543808.26546  -2584597.16846  24269422.5454   24269423.9344   24269421.5304
        41.0004         38.0004
 15  1  1  0 31 30.0000000  0 12G14G31G06G29G20G25G23G32G03G02G12G10
  23331691.07246  18186066.08146  25081716.2714   25081715.8214   25081716.1044
        40.0004         36.0004
 -11784944.71449  -9178353.82748  21095859.8914   21095858.6204   21095860.1874
        56.0004         50.0004
  -9911339.61348  -7715538.26747  22319897.3324   22319900.4424   22319897.9384
        50.0004         46.0004
  -8558597.76748  -6489799.22247  23313697.5694   23313697.1754   23313697.8744
        48.0004         42.0004
 -17256778.15448 -13415569.60947  22047934.4624   22047933.4144   22047933.8374
        52.0004         45.0004
 -18745148.81048 -14552582.51247  21600303.1554   21600305.4474   21600303.0264
        53.0004         47.0004
 -13837050.46048 -10776543.99247  23072573.2274   23072570.1374   23072573.0024
        51.0004         44.0004
  -1208920.67847   -938836.60546  24880380.8974   24880381.9564   24880380.2974
        43.0004         36.0004
 -14600827.26848 -11368650.35347  22532494.1704   22532496.4494   22532494.6794
        50.0004         45.0004
 -13842882.50648 -10761343.64547  23174283.1714   23174280.9254   23174282.6624
        49.0004         43.0004
  -3832344.46647  -2982500.32646  23633965.5004   23633965.9154   23633965.7124
        47.0004         41.0004
  -3651134.89447  -2668228.28446  24248998.9574   24249000.3194   24248997.9284
        44.0004         39.0004
 15  1  1  0 32  0.0000000  0 12G14G31G06G29G20G25G23G32G03G02G12G10
  23446319.97047  18275387.26446  25103529.4834   25103529.0144   25103529.2714
        42.0004         36.0004
 -11774761.41749  -9170418.78448  21097797.7204   21097796.4324   21097798.0014
        56.0004         50.0004
  -9891581.26948  -7700142.19647  22323657.2324   22323660.3764   22323657.8544
        50.0004         45.0004
  -8654136.39648  -6564244.82547  23295517.1254   23295516.6944   23295517.4144
        48.0004         43.0004
 -17223886.44648 -13389939.71947  22054193.5484   22054192.5024   22054192.9164
        52.0004         45.0004
 -18699877.79948 -14517306.39347  21608917.9264   21608920.2394   21608917.8094
        53.0004         47.0004
 -13921960.22848 -10842707.43147  23056415.4224   23056412.3284   23056415.2034
        51.0004         44.0004
  -1098326.59747   -852659.66546  24901426.4524   24901427.5594   24901425.8474
        43.0004         36.0004
 -14532679.91248 -11315548.52647  22545462.1794   22545464.4794   22545462.6864
        50.0004         45.0004
 -13904339.25648 -10809231.99247  23162588.3334   23162586.0544   23162587.8044
        50.0004         44.0004
  -3726246.58947  -2899826.89946  23654155.4474   23654155.9004   23654155.6334
        47.0004         41.0004
  -3758157.16047  -2751622.22446  24228633.2834   24228634.6454   24228632.2634
        44.0004         39.0004
 15  1  1  0 32 30.0000000  0 12G14G31G06G29G20G25G23G32G03G02G12G10
  23561042.99346  18364781.78146  25125360.4994   25125360.1704   25125360.4044
        40.0004         36.0004
 -11763977.12049  -9162015.43048  21099849.8874   21099848.6004   21099850.1724
        56.0004         50.0004
  -9871186.40648  -7684250.09447  22327538.2574   22327541.3844   22327538.8634
        51.0004         46.0004
  -8749323.90448  -6638416.87147  23277403.5054   23277403.0804   23277403.7994
        48.0004         43.0004
 -17190379.50448 -13363830.45347  22060569.7384   22060568.7134   22060569.1224
        51.0004         45.0004
 -18654012.46748 -14481567.13447  21617645.7924   21617648.0864   21617645.6494
        53.0004         47.0004
 -14006494.45848 -10908578.26147  23040329.0984   23040325.9974   23040328.8734
        51.0004         44.0004
   -987585.14047   -766367.81046  24922499.9894   24922501.1434   24922499.3904
        43.0004         36.0004
 -14464029.33648 -11262054.57247  22558525.9684   22558528.2354   22558526.4734
        50.0004         45.0004
 -13965339.84948 -10856764.87047  23150980.2654   23150977.9874   23150979.7264
        49.0004         44.0004
  -3619864.73148  -2816932.05346  23674399.3224   23674399.8044   23674399.5264
        48.0004         41.0004
  -3864874.90647  -2834778.92046  24208325.5824   24208326.9534   24208324.5714
        45.0004         40.0004
 15  1  1  0 33  0.0000000  0 12G14G31G06G29G20G25G23G32G03G02G12G10
  23675863.18056  18454251.96355  25147209.9684   25147209.8094   25147209.9764
        41.0004         35.0004
 -11752586.95849  -9153139.96648  21102017.3564   21102016.0774   21102017.6434
        56.0004         50.0004
  -9850150.73848  -7667858.67947  22331541.2144   22331544.3504   22331541.8324
        50.0004         46.0004
  -8844152.04948  -6712308.97447  23259358.3394   23259357.9234   23259358.6344
        48.0004         43.0004
 -17156253.03848 -13337238.42547  22067063.8154   22067062.7734   22067063.1914
        52.0004         45.0004
 -18607549.36748 -14445362.11947  21626487.4264   21626489.7224   21626487.2894
        53.0004         47.0004
 -14090645.47548 -10974150.47147  23024315.6884   23024312.5974   23024315.4544
        51.0004         44.0004
   -876693.85947   -679959.24746  24943602.0754   24943603.2584   24943601.4824
        43.0004         36.0004
 -14394872.66748 -11208166.29147  22571686.0534   22571688.3474   22571686.5644
        49.0004         45.0004
 -14025877.22148 -10903936.94347  23139460.4654   23139458.1954   23139459.9174
        49.0004         44.0004
  -3513196.94648  -2733814.39447  23694697.6044   23694698.1034   23694697.8054
        48.0004         42.0004
  -3971279.77147  -2917691.58646  24188077.2354   24188078.5424   24188076.2304
        45.0004         39.0004
 15  1  1  0 33 30.0000000  0 11G31G06G29G20G25G23G32G03G02G12G10
 -11740596.83549  -9143796.99348  21104298.9754   21104297.7024   21104299.2634
        56.0004         50.0004
  -9828479.98648  -7650972.25047  22335664.9284   22335668.0164   22335665.5444
        50.0004         45.0004
  -8938623.69248  -6785923.21147  23241380.9554   23241380.5344   23241381.2604
        48.0004         43.0004
 -17121514.22848 -13310169.30947  22073674.4534   22073673.4414   22073673.8274
        52.0004         45.0004
 -18560495.45248 -14408696.73647  21635441.4854   21635443.7804   21635441.3614
        53.0004         47.0004
 -14174416.40148 -11039426.51047  23008374.6084   23008371.4954   23008374.3834
        51.0004         44.0004
   -765660.31847   -593439.80346  24964731.2034   24964732.4404   24964730.6034
        44.0004         37.0004
 -14325217.18648 -11153889.24847  22584941.0174   22584943.3064   22584941.5284
        50.0004         45.0004
 -14085954.19148 -10950750.23947  23128028.2394   23128026.0064   23128027.7084
        49.0004         44.0004
  -3406251.26348  -2650480.11447  23715048.7094   23715049.2124   23715048.8934
        48.0004         42.0004
  -4077374.80747  -3000363.21846  24167888.1674   24167889.5304   24167887.1574
        46.0004         39.0004
 15  1  1  0 34  0.0000000  0 11G31G06G29G20G25G23G32G03G02G12G10
 -11728003.80149  -9133984.23548  21106695.3674   21106694.0664   21106695.6464
        56.0004         50.0004
  -9806171.97648  -7633589.29447  22339909.9404   22339913.0034   22339910.5504
        51.0004         45.0004
  -9032732.11748  -6859254.36047  23223472.6564   23223472.2164   23223472.9414
        48.0004         43.0004
 -17086160.56948 -13282621.02947  22080402.0574   22080401.0394   22080401.4274
        51.0004         45.0004
 -18512849.10048 -14371569.74747  21644508.3164   21644510.6264   21644508.1894
        53.0004         47.0004
 -14257801.47248 -11104401.87647  22992506.9514   22992503.8274   22992506.7164
        52.0004         44.0004
   -654483.97647   -506809.10246  24985887.5284   24985888.8164   24985886.9344
        43.0004         37.0004
 -14255062.05248 -11099222.88347  22598291.0674   22598293.3484   22598291.5734
        50.0004         45.0004
 -14145565.69048 -10997200.67847  23116684.4804   23116682.2364   23116683.9624
        50.0004         44.0004
  -3299027.40548  -2566929.11247  23735452.7614   23735453.3014   23735452.9644
        48.0004         42.0004
  -4183152.79747  -3082787.58946  24147759.2454   24147760.6004   24147758.2694
        46.0004         38.0004
 15  1  1  0 34 30.0000000  0 11G31G06G29G20G25G23G32G03G02G12G10
 -11714810.41049  -9123703.66448  21109205.9704   21109204.6854   21109206.2544
        56.0004         50.0004
  -9783229.46448  -7615711.90647  22344275.6654   22344278.7174   22344276.2854
        50.0004         45.0004
  -9126477.21048  -6932302.45347  23205633.5264   23205633.0724   23205633.8164
        48.0004         43.0004
 -17050195.28948 -13254596.17447  22087246.0454   22087245.0504   22087245.4104
        51.0004         45.0004
 -18464613.90948 -14333983.92847  21653687.2074   21653689.5144   21653687.0624
        53.0004         47.0004
 -14340800.46748 -11169076.41147  22976712.7454   22976709.6434   22976712.5314
        51.0004         44.0004
   -543169.04647   -420070.37146  25007070.1784   25007071.5214   25007069.5764
        44.0004         38.0004
 -14184411.56348 -11044170.56147  22611735.4154   22611737.7024   22611735.9214
        50.0004         44.0004
 -14204712.15148 -11043288.84147  23105429.3074   23105427.0504   23105428.7784
        50.0004         44.0004
  -3191530.29247  -2483165.20047  23755908.8294   23755909.3934   23755909.0384
        47.0004         42.0004
  -4288613.21247  -3164964.60946  24127690.8674   24127692.2244   24127689.8774
        45.0004         38.0004
 15  1  1  0 35  0.0000000  0 11G31G06G29G20G25G23G32G03G02G12G10
 -11701015.80749  -9112954.62248  21111830.9904   21111829.7064   21111831.2674
        56.0004         50.0004
  -9759652.26748  -7597340.08247  22348762.2804   22348765.3334   22348762.8754
        50.0004         45.0004
  -9219854.69148  -7005064.09147  23187864.3674   23187863.8934   23187864.6544
        49.0004         43.0004
 -17013618.36048 -13226094.69347  22094206.4254   22094205.4214   22094205.7974
        51.0004         45.0004
 -18415790.17448 -14295939.42347  21662978.0164   21662980.3374   21662977.8814
        53.0004         47.0004
 -14423409.41348 -11233447.02147  22960992.7984   22960989.6854   22960992.5784
        52.0004         44.0004
   -431716.84847   -333224.61146  25028278.9074   25028280.2674   25028278.3184
        45.0004         39.0004
 -14113266.63648 -10988732.96447  22625273.8544   22625276.1414   22625274.3574
        50.0004         45.0004
 -14263390.54848 -11089012.31647  23094263.2104   23094260.9784   23094262.6884
        50.0004         44.0004
  -3083760.96547  -2399189.16146  23776416.6854   23776417.2684   23776416.9104
        46.0004         41.0004
  -4393751.60147  -3246890.68446  24107683.7354   24107685.1004   24107682.7414
        44.0004         37.0004
 15  1  1  0 35 30.0000000  0 11G31G06G29G20G25G23G32G03G02G12G10
 -11686622.28649  -9101738.88448  21114569.9944   21114568.6934   21114570.2614
        56.0004         50.0004
  -9735442.81548  -7578475.52747  22353369.1374   22353372.1954   22353369.7474
        50.0004         45.0004
  -9312864.02448  -7077538.85747  23170165.2494   23170164.7794   23170165.5224
        48.0004         43.0004
 -16976433.11248 -13197119.19847  22101282.5604   22101281.5664   22101281.9234
        51.0004         45.0004
 -18366381.80948 -14257439.43047  21672380.1444   21672382.4504   21672380.0114
        53.0004         47.0004
 -14505628.15348 -11297513.56147  22945347.0844   22945343.9634   22945346.8544
        51.0004         44.0004
   -320131.86547   -246275.33046  25049512.8644   25049514.2614   25049512.2704
        45.0004         39.0004
 -14041631.40448 -10932913.28647  22638905.5604   22638907.8604   22638906.0774
        49.0004         44.0004
 -14321599.84648 -11134370.21047  23083186.3534   23083184.1174   23083185.8264
        50.0004         44.0004
  -2975723.90947  -2315004.53046  23796975.5164   23796976.1324   23796975.7284
        46.0004         41.0004
  -4498566.74747  -3328564.97546  24087738.1774   24087739.6014   24087737.1874
        44.0004         36.0004
 15  1  1  0 36  0.0000000  0 11G31G06G29G20G25G23G32G03G02G12G10
 -11671630.00349  -9090056.58448  21117422.9164   21117421.6154   21117423.2024
        56.0004         50.0004
  -9710601.49248  -7559118.64447  22358096.2884   22358099.3134   22358096.8854
        50.0004         45.0004
  -9405501.55748  -7149723.89647  23152536.8774   23152536.3914   23152537.1524
        49.0004         43.0004
 -16938640.54448 -13167670.46847  22108474.2534   22108473.2674   22108473.6254
        51.0004         45.0004
 -18316389.72148 -14218484.57747  21681893.3454   21681895.6494   21681893.2114
        53.0004         47.0004
 -14587453.60348 -11361273.64847  22929776.2254   22929773.1084   22929775.9794
        52.0004         44.0004
   -208416.07147   -159224.18346  25070771.7754   25070773.1964   25070771.1834
        45.0004         40.0004
 -13969507.61248 -10876712.92747  22652630.2684   22652632.5454   22652630.7784
        49.0004         44.0004
 -14379337.96748 -11179360.95947  23072199.1604   23072196.9214   23072198.6184
        50.0004         44.0004
  -2867421.18547  -2230612.82246  23817584.8644   23817585.4644   23817585.0784
        47.0004         41.0004
  -4603054.87147  -3409984.27546  24067854.7224   24067856.1254   24067853.7314
        44.0004         36.0004
 15  1  1  0 36 30.0000000  0 11G31G06G29G20G25G23G32G03G02G12G10
 -11656014.40449  -9077888.58348  21120394.4614   21120393.1704   21120394.7464
        56.0004         50.0004
  -9685104.36548  -7539250.72547  22362948.1914   22362951.2254   22362948.8054
        50.0004         45.0004
  -9497739.97448  -7221597.98447  23134984.4834   23134983.9934   23134984.7544
        49.0004         43.0004
 -16900217.01048 -13137730.12647  22115786.0784   22115785.1044   22115785.4464
        51.0004         45.0004
 -18265790.86948 -14179056.89847  21691521.9754   21691524.2964   21691521.8454
        53.0004         47.0004
 -14668858.52648 -11424706.05547  22914285.3784   22914282.2564   22914285.1554
        51.0004         44.0004
    -96546.89347    -72053.45646  25092059.8184   25092061.2544   25092059.2234
        45.0004         39.0004
 -13896872.65048 -10820114.20847  22666452.1974   22666454.4714   22666452.7204
        49.0004         44.0004
 -14436578.68348 -11223964.15047  23061306.6294   23061304.4144   23061306.0984
        50.0004         44.0004
  -2758830.86148  -2145996.97146  23838248.9124   23838249.5104   23838249.1254
        48.0004         41.0004
  -4707188.32947  -3491127.35746  24048038.8834   24048040.3134   24048037.8904
        42.0004         36.0004
 15  1  1  0 37  0.0000000  0 12G14G31G06G29G20G25G23G32G03G02G12G10
    -43519.90856    -58733.41455  25322600.9534   25322599.7434   25322602.8914
        39.0004         34.0004
 -11639823.25049  -9065272.09248  21123475.5264   21123474.2464   21123475.8084
        55.0004         50.0004
  -9658999.63348  -7518909.32347  22367915.7264   22367918.7484   22367916.3424
        50.0004         45.0004
  -9589623.59848  -7293195.61547  23117499.6124   23117499.1404   23117499.8864
        49.0004         43.0004
 -16861211.04648 -13107335.93147  22123208.7014   22123207.7544   22123208.0834
        51.0004         45.0004
 -18214634.42448 -14139194.77047  21701256.7424   21701259.0824   21701256.6284
        53.0004         47.0004
 -14749888.04948 -11487845.97747  22898865.9944   22898862.8764   22898865.7674
        51.0004         44.0004
     15425.50047     15197.62946  25113367.5644   25113369.0324   25113366.9704
        45.0004         39.0004
 -13823776.24148 -10763155.95047  22680361.9724   22680364.2454   22680362.4814
        49.0004         44.0004
 -14493366.94148 -11268214.69647  23050500.1674   23050497.9224   23050499.6204
        50.0004         44.0004
  -2650002.32347  -2061195.53946  23858958.3334   23858958.9224   23858958.5224
        47.0004         41.0004
  -4811011.30947  -3572028.57846  24028282.1624   24028283.6494   24028281.1764
        42.0004         36.0004
 15  1  1  0 37 30.0000000  0 12G14G31G06G29G20G25G23G32G03G02G12G10
     72043.27946     31315.73445  25344591.9374   25344591.6134   25344592.6564
        40.0004         34.0004
 -11623034.46849  -9052189.91848  21126670.3364   21126669.0204   21126670.6044
        56.0004         50.0004
  -9632265.27948  -7498077.33947  22373003.0744   22373006.1024   22373003.6994
        50.0004         45.0004
  -9681126.75148  -7364496.81547  23100087.1614   23100086.7124   23100087.4424
        49.0004         43.0004
 -16821601.27748 -13076471.19347  22130746.2114   22130745.2554   22130745.5944
        51.0004         45.0004
 -18162899.05348 -14098881.56447  21711101.7204   21711104.0624   21711101.5934
        53.0004         47.0004
 -14830516.51748 -11550673.34247  22883522.8924   22883519.7804   22883522.6674
        51.0004         44.0004
    127521.71546    102545.13146  25134698.9204   25134700.4344   25134698.3194
        41.0004         38.0004
 -13750197.76948 -10705822.11647  22694363.5274   22694365.8054   22694364.0304
        49.0004         44.0004
 -14549677.58748 -11312093.08547  23039784.5794   23039782.3244   23039784.0374
        50.0004         44.0004
  -2540915.89947  -1976193.14646  23879716.8034   23879717.3754   23879717.0054
        47.0004         41.0004
  -4914496.97147  -3652666.72046  24008589.4524   24008590.9454   24008588.4784
        42.0004         36.0004
 15  1  1  0 38  0.0000000  0 12G14G31G06G29G20G25G23G32G03G02G12G10
    187680.40146    121422.68845  25366596.7354   25366596.3054   25366597.0294
        40.0004         33.0004
 -11605646.54549  -9038640.89048  21129979.1414   21129977.8464   21129979.4174
        55.0004         50.0004
  -9604900.36648  -7476754.02947  22378210.4584   22378213.4774   22378211.0664
        50.0004         45.0004
  -9772244.74548  -7435497.76847  23082747.9234   23082747.4514   23082748.2034
        49.0004         43.0004
 -16781387.12048 -13045135.54347  22138398.7584   22138397.8184   22138398.1294
        51.0004         45.0004
 -18110584.43848 -14058116.87047  21721056.8154   21721059.1434   21721056.6854
        53.0004         47.0004
 -14910739.76448 -11613184.95847  22868256.9244   22868253.8014   22868256.6884
        51.0004         44.0004
    239741.56946    189988.82046  25156053.9124   25156055.5084   25156053.3194
        39.0004         37.0004
 -13676137.52148 -10648112.88547  22708456.7644   22708459.0604   22708457.2794
        49.0004         44.0004
 -14605507.78348 -11355597.20347  23029160.5054   23029158.2594   23029159.9694
        50.0004         44.0004
  -2431572.26047  -1890990.38346  23900524.2564   23900524.8614   23900524.4614
        47.0004         40.0004
  -5017641.17546  -3733038.78446  23988961.7254   23988963.2064   23988960.7494
        41.0004         37.0004
 15  1  1  0 38 30.0000000  0 12G14G31G06G29G20G25G23G32G03G02G12G10
    303386.18746    211583.10745  25388614.6524   25388614.3644   25388614.9854
        40.0004         33.0004
 -11587662.35549  -9024627.23348  21133401.4274   21133400.1214   21133401.7034
        56.0004         50.0004
  -9576908.10148  -7454941.87047  22383537.1924   22383540.2144   22383537.8074
        50.0004         45.0004
  -9862977.33848  -7506198.45647  23065482.0774   23065481.5694   23065482.3454
        49.0004         43.0004
 -16740572.22048 -13013331.75747  22146165.5864   22146164.6694   22146164.9664
        51.0004         45.0004
 -18057694.92748 -14016904.27047  21731121.3504   21731123.6844   21731121.2244
        53.0004         47.0004
 -14990558.05548 -11675381.04347  22853068.0134   22853064.8994   22853067.7844
        51.0004         44.0004
    352080.02146    277525.00345  25177431.4134   25177433.0744   25177430.8324
        38.0004         35.0004
 -13601600.12248 -10590031.83347  22722640.7914   22722643.0844   22722641.3074
        50.0004         45.0004
 -14660857.10748 -11398726.49847  23018627.8314   23018625.5834   23018627.2984
        50.0004         44.0004
  -2321976.34447  -1805591.02346  23921379.6924   23921380.3234   23921379.9074
        46.0004         41.0004
  -5120442.56947  -3813143.64246  23969399.1614   23969400.6224   23969398.1884
        44.0004         38.0004
 15  1  1  0 39  0.0000000  0 12G14G31G06G29G20G25G23G32G03G02G12G10
    419156.84046    301793.98045  25410645.0824   25410644.9714   25410645.1704
        41.0004         32.0004
 -11569084.67449  -9010151.11748  21136936.6404   21136935.3334   21136936.9204
        56.0004         50.0004
  -9548291.74748  -7432643.35547  22388982.6624   22388985.6774   22388983.2874
        50.0004         45.0004
  -9953324.00548  -7576598.47147  23048289.6924   23048289.1834   23048289.9544
        49.0004         43.0004
 -16699160.51848 -12981062.96547  22154046.0344   22154045.1204   22154045.4074
        51.0004         45.0004
 -18004234.56848 -13975246.86247  21741294.5484   21741296.8734   21741294.4044
        53.0004         47.0004
 -15069970.93848 -11737261.22847  22837956.2494   22837953.1504   22837956.0334
        52.0004         44.0004
  20944992.68356  16323950.26955  25198830.2764   25198832.3304   25198829.2374
        39.0004         34.0004
 -13526590.13248 -10531582.49247  22736914.7184   22736917.0124   22736915.2254
        49.0004         44.0004
 -14715726.17448 -11441481.55147  23008186.5524   23008184.2824   23008186.0224
        50.0004         44.0004
  -2212132.95747  -1719998.72146  23942282.1504   23942282.7764   23942282.3534
        45.0004         41.0004
  -5222901.15747  -3892981.61146  23949902.0184   23949903.5254   23949901.0424
        44.0004         38.0004
 15  1  1  0 39 30.0000000  0 12G14G31G06G29G20G25G23G32G03G02G12G10
    534995.38146    392057.76045  25432688.7384   25432688.3924   25432688.5514
        41.0004         34.0004
 -11549908.97849  -8995209.01448  21140585.6424   21140584.3464   21140585.9364
        56.0004         50.0004
  -9519047.20848  -7409855.39347  22394547.7104   22394550.7064   22394548.3174
        50.0004         45.0004
 -10043276.69448  -7646691.51147  23031172.2724   23031171.7904   23031172.5494
        49.0004         43.0004
 -16657147.47048 -12948325.53447  22162040.8494   22162039.9384   22162040.2214
        51.0004         45.0004
 -17950199.86548 -13933141.88647  21751576.9994   21751579.3164   21751576.8704
        53.0004         47.0004
 -15148970.78348 -11798819.56047  22822923.0894   22822919.9874   22822922.8664
        52.0004         44.0004
  21057562.30246  16411666.82545  25220251.6734   25220253.5484   25220251.0944
        41.0004         35.0004
 -13451104.66448 -10472762.63947  22751279.1274   22751281.4064   22751279.6314
        50.0004         45.0004
 -14770107.74648 -11483856.65847  22997837.9784   22997835.6804   22997837.4314
        50.0004         44.0004
  -2102039.60747  -1634211.74346  23963232.2654   23963232.8924   23963232.4604
        45.0004         40.0004
  -5325008.27547  -3972545.64146  23930471.7224   23930473.2174   23930470.7414
        46.0004         39.0004
 15  1  1  0 40  0.0000000  0 12G14G31G06G29G20G25G23G32G03G02G12G10
    650897.07746    482370.66145  25454744.5244   25454743.8174   25454744.2674
        41.0004         34.0004
 -11530138.76849  -8979803.64248  21144347.7744   21144346.4744   21144348.0684
        55.0004         50.0004
  -9489177.97048  -7386580.62347  22400231.6004   22400234.5874   22400232.2204
        50.0004         45.0004
 -10132834.94848  -7716477.11247  23014129.8674   23014129.3684   23014130.1364
        49.0004         43.0004
 -16614537.86248 -12915123.23947  22170149.1944   22170148.2854   22170148.5684
        51.0004         45.0004
 -17895595.49448 -13890593.12447  21761967.9224   21761970.2804   21761967.7944
        52.0004         47.0004
 -15227557.91648 -11860056.28547  22807968.4494   22807965.3524   22807968.2334
        52.0004         45.0004
  21170243.72947  16499470.64846  25241694.1604   25241695.8304   25241693.4574
        42.0004         36.0004
 -13375148.76548 -10413576.21647  22765733.0414   22765735.3354   22765733.5534
        49.0004         44.0004
 -14824002.90648 -11525852.84447  22987582.0334   22987579.7284   22987581.5074
        50.0004         44.0004
  -1991701.12047  -1548233.66646  23984228.9424   23984229.5754   23984229.1504
        46.0004         41.0004
  -5426763.38147  -4051835.30446  23911108.3514   23911109.8264   23911107.3744
        47.0004         40.0004
 15  1  1  0 40 30.0000000  0 12G14G31G06G29G20G25G23G32G03G02G12G10
    766858.97046    572730.49045  25476811.4794   25476810.8564   25476811.1434
        40.0004         35.0004
 -11509775.39049  -8963936.07148  21148222.8044   21148221.4864   21148223.0814
        56.0004         50.0004
  -9458686.04248  -7362820.62947  22406033.9844   22406036.9564   22406034.5954
        50.0004         45.0004
 -10221997.87048  -7785954.67747  22997162.7054   22997162.1974   22997162.9784
        49.0004         44.0004
 -16571334.19848 -12881458.06947  22178370.5874   22178369.6964   22178369.9674
        51.0004         45.0004
 -17840423.99948 -13847602.45747  21772466.8064   21772469.1804   21772466.6644
        53.0004         47.0004
 -15305731.04548 -11920970.41447  22793092.5974   22793089.5024   22793092.3824
        52.0004         45.0004
  21283033.58647  16587358.91746  25263157.2464   25263158.8884   25263156.8174
        44.0004         37.0004
 -13298725.60548 -10354025.70147  22780275.8794   22780278.1704   22780276.3974
        49.0004         44.0004
 -14877410.42548 -11567469.02447  22977418.8584   22977416.5454   22977418.3314
        50.0004         44.0004
  -1881121.89447  -1462068.05646  24005271.4834   24005272.1134   24005271.6894
        47.0004         41.0004
  -5528164.25147  -4130848.98146  23891812.4164   23891813.8964   23891811.4494
        47.0004         40.0004
 15  1  1  0 41  0.0000000  0 12G14G31G06G29G20G25G23G32G03G02G12G10
    882879.38246    663135.83245  25498889.4474   25498889.0714   25498889.0064
        40.0004         34.0004
 -11488818.87949  -8947606.31148  21152210.6754   21152209.3624   21152210.9704
        56.0004         50.0004
  -9427572.02548  -7338575.91647  22411954.7564   22411957.7364   22411955.3724
        50.0004         45.0004
 -10310761.58048  -7855121.17547  22980271.5004   22980271.0034   22980271.7684
        49.0004         44.0004
 -16527537.33048 -12847330.65347  22186704.8774   22186703.9794   22186704.2534
        51.0004         45.0004
 -17784686.48748 -13804170.63247  21783073.2924   21783075.6814   21783073.1654
        53.0004         47.0004
 -15383487.30248 -11981559.71747  22778296.0934   22778292.9944   22778295.8494
        52.0004         45.0004
  21395929.77247  16675329.99746  25284640.8104   25284642.4094   25284640.2524
        43.0004         37.0004
 -13221837.10748 -10294112.60347  22794907.2994   22794909.5854   22794907.8004
        49.0004         44.0004
 -14930328.24748 -11608703.64147  22967348.9014   22967346.5624   22967348.3764
        50.0004         44.0004
  -1770303.41847  -1375716.06146  24026359.6004   24026360.2524   24026359.7984
        47.0004         41.0004
  -5629207.20347  -4209583.80146  23872584.6284   23872586.1174   23872583.6444
        47.0004         40.0004
 15  1  1  0 41 30.0000000  0 11G31G06G29G20G25G23G32G03G02G12G10
 -11467269.56449  -8930814.62048  21156311.3744   21156310.0444   21156311.6524
        56.0004         50.0004
  -9395836.39248  -7313846.85447  22417993.8494   22417996.8314   22417994.4804
        50.0004         45.0004
 -10399123.34648  -7923974.68947  22963456.9624   22963456.5014   22963457.2224
        49.0004         44.0004
 -16483147.92848 -12812741.51847  22195151.8924   22195150.9934   22195151.2704
        51.0004         45.0004
 -17728384.35248 -13760298.83447  21793787.2434   21793789.6154   21793787.0974
        53.0004         47.0004
 -15460823.60548 -12041821.78447  22763579.4834   22763576.4014   22763579.2614
        52.0004         45.0004
  21508930.90547  16763382.82546  25306144.2934   25306145.8594   25306143.7174
        44.0004         37.0004
 -13144484.89848 -10233838.14747  22809626.9244   22809629.2244   22809627.4384
        48.0004         44.0004
 -14982753.88048 -11649554.75347  22957372.6154   22957370.2584   22957372.0824
        50.0004         44.0004
  -1659247.72347  -1289179.12246  24047492.7734   24047493.4004   24047492.9804
        47.0004         41.0004
  -5729888.60647  -4288036.74446  23853425.5174   23853426.9974   23853424.5494
        46.0004         40.0004
 15  1  1  0 42  0.0000000  0 11G31G06G29G20G25G23G32G03G02G12G10
 -11445130.48149  -8913563.37448  21160524.2774   21160522.9574   21160524.5664
        55.0004         50.0004
  -9363482.62048  -7288636.09847  22424150.5484   22424153.5214   22424151.1674
        50.0004         45.0004
 -10487082.11848  -7992514.10847  22946719.0624   22946718.6234   22946719.3174
        49.0004         44.0004
 -16438169.93148 -12777693.73347  22203710.9374   22203710.0354   22203710.3054
        51.0004         45.0004
 -17671522.01548 -13715990.53647  21804607.7934   21804610.1804   21804607.6684
        53.0004         47.0004
 -15537739.81448 -12101756.48947  22748942.8194   22748939.7174   22748942.5944
        52.0004         45.0004
  21622032.18046  16851513.86346  25327666.5564   25327668.1954   25327666.0754
        41.0004         37.0004
 -13066673.90548 -10173206.19347  22824433.8424   22824436.1414   22824434.3644
        49.0004         44.0004
 -15034687.89748 -11690022.84247  22947489.9124   22947487.5724   22947489.3864
        50.0004         44.0004
  -1547960.30547  -1202461.69746  24068670.0884   24068670.7314   24068670.2974
        47.0004         41.0004
  -5830208.12747  -4366207.95146  23834335.4694   23834336.9804   23834334.4984
        45.0004         40.0004
 15  1  1  0 42 30.0000000  0 11G31G06G29G20G25G23G32G03G02G12G10
 -11422400.44149  -8895851.64448  21164849.6654   21164848.3314   21164849.9474
        55.0004         50.0004
  -9330510.08748  -7262943.21247  22430425.0194   22430427.9914   22430425.6364
        50.0004         45.0004
 -10574633.67748  -8060736.11647  22930058.5514   22930058.1384   22930058.8114
        49.0004         44.0004
 -16392603.10648 -12742187.14647  22212382.0314   22212381.1554   22212381.4054
        51.0004         45.0004
 -17614099.44248 -13671245.66147  21815534.9264   21815537.3184   21815534.7994
        52.0004         47.0004
 -15614232.04348 -12161360.83047  22734386.8434   22734383.7304   22734386.6114
        52.0004         45.0004
  21735232.76747  16939722.22345  25349207.7604   25349209.4494   25349207.3984
        42.0004         35.0004
 -12988404.72848 -10112217.24147  22839328.0004   22839330.2854   22839328.5134
        49.0004         44.0004
 -15086126.48548 -11730104.76247  22937701.4084   22937699.0314   22937700.8774
        50.0004         44.0004
  -1436441.39247  -1115563.85946  24089891.4554   24089892.1004   24089891.6644
        46.0004         41.0004
  -5930160.24347  -4444092.68546  23815315.1834   23815316.6954   23815314.2084
        45.0004         39.0004
 15  1  1  0 43  0.0000000  0 11G31G06G29G20G25G23G32G03G02G12G10
 -11399076.52949  -8877677.16448  21169288.0374   21169286.7154   21169288.3264
        55.0004         50.0004
  -9296916.30048  -7236766.17247  22436817.6404   22436820.5944   22436818.2774
        50.0004         45.0004
 -10661771.57048  -8128635.71347  22913476.7234   22913476.2884   22913476.9804
        49.0004         44.0004
 -16346445.83348 -12706220.48947  22221165.4974   22221164.6274   22221164.8714
        51.0004         45.0004
 -17556115.12548 -13626063.08347  21826568.9944   21826571.3594   21826568.8634
        53.0004         47.0004
 -15690294.41748 -12220630.21347  22719912.6594   22719909.5524   22719912.4184
        52.0004         45.0004
  21848533.45646  17028008.51245  25370768.1774   25370769.7414   25370767.7964
        41.0004         35.0004
 -12909676.24848 -10050870.42847  22854309.5664   22854311.8894   22854310.0694
        49.0004         44.0004
 -15137064.48948 -11769796.66247  22928008.1844   22928005.8014   22928007.6444
        50.0004         44.0004
  -1324690.10247  -1028484.91746  24111156.9914   24111157.6544   24111157.2054
        47.0004         41.0004
  -6029738.63147  -4521686.17646  23796365.9954   23796367.4934   23796365.0344
        45.0004         39.0004
 15  1  1  0 43 30.0000000  0 11G31G06G29G20G25G23G32G03G02G12G10
 -11375166.50749  -8859045.97948  21173837.9654   21173836.6484   21173838.2654
        56.0004         50.0004
  -9262709.11648  -7210111.17847  22443327.0144   22443329.9604   22443327.6394
        50.0004         45.0004
 -10748499.94348  -8196216.23647  22896972.8444   22896972.3904   22896973.1004
        50.0004         44.0004
 -16299706.09748 -12669799.95847  22230059.8094   22230058.9474   22230059.1934
        51.0004         45.0004
 -17497577.49848 -13580449.36847  21837708.3464   21837710.7224   21837708.2094
        52.0004         47.0004
 -15765931.27548 -12279568.02847  22705519.4354   22705516.3334   22705519.2024
        52.0004         45.0004
  21961925.45147  17116365.94045  25392345.9664   25392347.4694   25392345.5564
        42.0004         34.0004
 -12830497.39848  -9989172.70347  22869376.8604   22869379.1954   22869377.3664
        49.0004         44.0004
 -15187507.06848 -11809102.60547  22918409.3024   22918406.9424   22918408.7744
        50.0004         44.0004
  -1212716.00447   -941232.36946  24132464.9554   24132465.6194   24132465.1634
        45.0004         41.0004
  -6128946.99547  -4598991.42546  23777487.3064   23777488.7824   23777486.3344
        45.0004         38.0004
 15  1  1  0 44  0.0000000  0 11G31G06G29G20G25G23G32G03G02G12G10
 -11350669.91749  -8839957.72248  21178499.5154   21178498.1874   21178499.7934
        55.0004         50.0004
  -9227888.69548  -7182978.32647  22449953.0834   22449956.0134   22449953.7044
        50.0004         45.0004
 -10834815.04048  -8263474.73747  22880547.6074   22880547.1544   22880547.8714
        50.0004         44.0004
 -16252384.28048 -12632925.87347  22239064.8944   22239064.0594   22239064.2824
        51.0004         45.0004
 -17438487.47248 -13534405.22847  21848952.8374   21848955.2134   21848952.6924
        52.0004         47.0004
 -15841139.13648 -12338171.56047  22691207.8674   22691204.7694   22691207.6354
        52.0004         45.0004
  22075407.34347  17204793.21345  25413940.9434   25413942.5004   25413940.5314
        45.0004         35.0004
 -12750869.44348  -9927124.96747  22884529.5674   22884531.9124   22884530.0874
        48.0004         44.0004
 -15237450.85648 -11848019.80147  22908905.2964   22908902.9174   22908904.7474
        50.0004         44.0004
  -1100520.62347   -853807.41046  24153815.0294   24153815.6964   24153815.2404
        46.0004         40.0004
  -6227780.84047  -4676004.75646  23758679.8014   23758681.2834   23758678.8584
        44.0004         38.0004
 15  1  1  0 44 30.0000000  0 12G09G31G06G29G20G25G23G32G03G02G12G10
   -899224.56757   -696443.56156  24490995.0804   24490998.2474   24490997.3734
        45.0004         40.0004
 -11325509.77549  -8820352.42248  21183287.3334   21183286.0154   21183287.6294
        55.0004         50.0004
  -9192378.70548  -7155308.16547  22456710.3734   22456713.2904   22456711.0114
        50.0004         45.0004
 -10920636.63548  -8330348.68747  22864216.2864   22864215.8274   22864216.5434
        50.0004         44.0004
 -16204404.80548 -12595539.28947  22248195.1024   22248194.2594   22248194.4804
        51.0004         45.0004
 -17378769.42548 -13487871.71547  21860316.8084   21860319.2064   21860316.6834
        52.0004         47.0004
 -15915838.16848 -12396378.60447  22676993.1084   22676990.0144   22676992.8904
        52.0004         45.0004
  22189054.97947  17293349.82146  25435567.3434   25435568.8994   25435566.9544
        45.0004         36.0004
 -12670717.33548  -9864668.81147  22899782.0194   22899784.3804   22899782.5484
        48.0004         44.0004
 -15286816.76248 -11886486.79247  22899511.3034   22899508.9514   22899510.7754
        50.0004         44.0004
   -988028.52947   -766151.19546  24175221.5424   24175222.1844   24175221.7504
        45.0004         40.0004
  -6326159.69347  -4752663.55346  23739958.8774   23739960.3594   23739957.9374
        43.0004         37.0004
 15  1  1  0 45  0.0000000  0 12G09G31G06G29G20G25G23G32G03G02G12G10
  -1008728.91447   -781771.54946  24470157.8804   24470160.2734   24470158.4964
        46.0004         41.0004
 -11299750.55649  -8800280.30548  21188189.1444   21188187.8374   21188189.4394
        55.0004         50.0004
  -9156243.88248  -7127151.14147  22463586.5954   22463589.5054   22463587.2084
        50.0004         45.0004
 -11006025.61248  -8396885.56347  22847967.3194   22847966.8654   22847967.5874
        50.0004         44.0004
 -16155832.59848 -12557690.81447  22257438.0934   22257437.2544   22257437.4704
        51.0004         44.0004
 -17318488.74048 -13440899.74847  21871787.8524   21871790.2484   21871787.7144
        52.0004         46.0004
 -15990089.57348 -12454236.84447  22662863.5374   22662860.4624   22662863.3114
        52.0004         45.0004
  22302802.50647  17381984.58646  25457212.5884   25457214.0364   25457212.1594
        44.0004         37.0004
 -12590107.09048  -9801855.70447  22915121.7034   22915124.0834   22915122.2224
        49.0004         44.0004
 -15335666.45848 -11924551.47747  22890215.5064   22890213.1314   22890214.9824
        50.0004         45.0004
   -875306.10747   -678315.40846  24196671.8084   24196672.4134   24196671.9994
        46.0004         39.0004
  -6424144.21447  -4829015.11246  23721313.0204   23721314.4984   23721312.0854
        44.0004         37.0004
 15  1  1  0 45 30.0000000  0 12G09G31G06G29G20G25G23G32G03G02G12G10
  -1118270.31447   -867128.39046  24449313.3974   24449315.0544   24449313.2874
        46.0004         40.0004
 -11273651.58649  -8779943.45748  21193155.6284   21193154.3204   21193155.9244
        55.0004         50.0004
  -9119743.99948  -7098709.62947  22470532.2664   22470535.1514   22470532.8854
        50.0004         45.0004
 -11091237.80948  -8463284.64247  22831751.9484   22831751.4884   22831752.2094
        50.0004         44.0004
 -16106927.90448 -12519583.26147  22266744.3374   22266743.5024   22266743.7104
        50.0004         44.0004
 -17257906.07848 -13393692.51247  21883316.3564   21883318.7674   21883316.2324
        52.0004         46.0004
 -16064149.48648 -12511945.91847  22648770.4424   22648767.3684   22648770.2124
        52.0004         45.0004
  22416388.35047  17470493.28446  25478827.0894   25478828.5064   25478826.6684
        43.0004         37.0004
 -12509299.49948  -9738888.75547  22930498.8714   22930501.2644   22930499.3854
        48.0004         44.0004
 -15384256.66248 -11962413.80147  22880968.9564   22880966.5584   22880968.4404
        51.0004         45.0004
   -762614.29047   -590503.52646  24218116.2764   24218116.8624   24218116.4874
        45.0004         39.0004
  -6521990.00647  -4905258.62546  23702693.6074   23702695.0834   23702692.6584
        43.0004         37.0004
 15  1  1  0 46  0.0000000  0 12G09G31G06G29G20G25G23G32G03G02G12G10
  -1227442.61147   -952197.60546  24428538.4734   24428540.0754   24428538.3984
        46.0004         40.0004
 -11246810.29649  -8759028.17148  21198263.3674   21198262.0524   21198263.6404
        55.0004         50.0004
  -9082476.92748  -7069670.32347  22477623.9394   22477626.8274   22477624.5594
        50.0004         45.0004
 -11175866.84648  -8529229.25047  22815647.5104   22815647.0144   22815647.7684
        50.0004         44.0004
 -16057289.07648 -12480903.69347  22276190.3264   22276189.4934   22276189.6974
        51.0004         44.0004
 -17196619.83648 -13345937.02547  21894978.7624   21894981.1854   21894978.6414
        52.0004         46.0004
 -16137612.36748 -12569189.76247  22634790.9614   22634787.9034   22634790.7234
        53.0004         45.0004
  22530214.08446  17559188.83146  25500487.3094   25500488.6934   25500486.8904
        41.0004         37.0004
 -12427893.64948  -9675455.62747  22945989.8944   22945992.2794   22945990.4194
        48.0004         43.0004
 -15432182.72048 -11999758.71347  22871848.8964   22871846.4634   22871848.3544
        51.0004         45.0004
   -649552.80047   -502403.64046  24239631.1454   24239631.7274   24239631.3614
        45.0004         39.0004
  -6619290.04847  -4981076.74646  23684177.9444   23684179.4024   23684177.0054
        43.0004         38.0004
 15  1  1  0 46 30.0000000  0 12G09G31G06G29G20G25G23G32G03G02G12G10
  -1336397.81747  -1037097.69346  24407804.8454   24407806.5714   24407804.8904
        46.0004         40.0004
 -11219382.19849  -8737655.62948  21203482.7474   21203481.4294   21203483.0374
        55.0004         50.0004
  -9044598.58148  -7040154.71247  22484831.9334   22484834.8174   22484832.5504
        50.0004         45.0004
 -11260064.85948  -8594838.03747  22799625.1224   22799624.6144   22799625.3814
        50.0004         44.0004
 -16007072.08148 -12441773.58247  22285746.3064   22285745.4854   22285745.6954
        51.0004         44.0004
 -17134786.71848 -13297755.40347  21906745.2394   21906747.6544   21906745.1034
        52.0004         46.0004
 -16210630.50948 -12626087.07247  22620896.1084   22620893.0684   22620895.8784
        53.0004         45.0004
  22644122.09446  17647948.29846  25522163.3484   25522164.7344   25522162.9164
        40.0004         36.0004
 -12346046.69648  -9611678.81947  22961564.8764   22961567.2774   22961565.3954
        48.0004         43.0004
 -15479597.48048 -12036705.29347  22862826.1704   22862823.7524   22862825.6374
        51.0004         44.0004
   -536278.49647   -414137.87846  24261186.4794   24261187.0364   24261186.6864
        46.0004         40.0004
  -6716195.90347  -5056587.68346  23665737.2774   23665738.7154   23665736.3544
        45.0004         38.0004
 15  1  1  0 47  0.0000000  0 12G09G31G06G29G20G25G23G32G03G02G12G10
  -1445137.11947  -1121829.53046  24387112.3194   24387114.0524   24387112.3844
        44.0004         39.0004
 -11191371.84749  -8715829.37948  21208812.9404   21208811.6304   21208813.2334
        55.0004         50.0004
  -9006114.05848  -7010166.77947  22492155.2994   22492158.1724   22492155.9094
        50.0004         45.0004
 -11343833.29048  -8660112.09347  22783684.4694   22783683.9714   22783684.7374
        50.0004         44.0004
 -15956282.63148 -12402197.42447  22295411.2524   22295410.4304   22295410.6254
        51.0004         45.0004
 -17072412.54448 -13249152.21047  21918614.7054   21918617.1294   21918614.5584
        52.0004         46.0004
 -16283205.31248 -12682638.90747  22607085.6064   22607082.5714   22607085.3924
        52.0004         45.0004
  22758107.10755  17736767.86955  25543853.9544   25543855.2784   25543853.5124
        35.0004         35.0004
 -12263764.85348  -9547563.13847  22977222.6214   22977225.0204   22977223.1414
        48.0004         43.0004
 -15526502.51948 -12073254.63047  22853900.4014   22853897.9824   22853899.8754
        50.0004         45.0004
   -422797.73447   -325711.36946  24282781.1944   24282781.7774   24282781.4114
        46.0004         40.0004
  -6812708.33547  -5131792.04746  23647371.4864   23647372.8704   23647370.5564
        46.0004         39.0004
 15  1  1  0 47 30.0000000  0 11G09G31G06G29G20G25G23G03G02G12G10
  -1553655.11847  -1206388.89946  24366461.8944   24366463.6304   24366461.9804
        44.0004         38.0004
 -11162777.57649  -8693548.13048  21214254.2644   21214252.9324   21214254.5494
        55.0004         50.0004
  -8967022.01448  -6979705.45947  22499594.2724   22499597.1614   22499594.9004
        50.0004         45.0004
 -11427166.49948  -8725046.98047  22767826.6274   22767826.1134   22767826.8794
        50.0004         44.0004
 -15904919.89848 -12362174.52747  22305185.2534   22305184.4514   22305184.6414
        50.0004         44.0004
 -17009496.46548 -13200126.70047  21930587.2304   21930589.6804   21930587.1094
        52.0004         46.0004
 -16355331.88148 -12738841.53247  22593360.4624   22593357.4624   22593360.2274
        52.0004         45.0004
 -12181047.78248  -9483108.27847  22992963.1564   22992965.5594   22992963.6694
        48.0004         43.0004
 -15572894.03248 -12109403.81747  22845072.3534   22845069.9164   22845071.8254
        50.0004         45.0004
   -309110.04047   -237123.47746  24304415.1674   24304415.7384   24304415.3954
        46.0004         40.0004
  -6908821.91847  -5206685.68646  23629081.6204   23629083.0064   23629080.6994
        46.0004         39.0004
 15  1  1  0 48  0.0000000  0 11G09G31G06G29G20G25G23G03G02G12G10
  -1661954.43247  -1290777.97246  24345853.2024   24345854.8474   24345853.3094
        43.0004         38.0004
 -11133605.27349  -8670816.46648  21219805.5584   21219804.2344   21219805.8434
        55.0004         50.0004
  -8927328.81448  -6948775.68847  22507147.6484   22507150.5144   22507148.2664
        50.0004         45.0004
 -11510066.77948  -8789644.54647  22752051.1944   22752050.6454   22752051.4544
        50.0004         44.0004
 -15852990.53848 -12321710.08347  22315067.0904   22315066.2764   22315066.4514
        51.0004         44.0004
 -16946045.78148 -13150684.64947  21942661.5334   21942663.9744   21942661.4014
        52.0004         46.0004
 -16427012.63848 -12794696.69847  22579720.1044   22579717.0884   22579719.8514
        53.0004         45.0004
 -12097903.16248  -9418320.28547  23008785.0714   23008787.4814   23008785.5814
        48.0004         43.0004
 -15618775.13548 -12145155.24247  22836341.4094   22836338.9654   22836340.8794
        50.0004         45.0004
   -195223.46547   -148380.62146  24326087.0314   24326087.5694   24326087.2264
        46.0004         40.0004
  -7004538.41747  -5281269.86946  23610867.3034   23610868.6664   23610866.3794
        46.0004         40.0004
 15  1  1  0 48 30.0000000  0 11G09G31G06G29G20G25G23G03G02G12G10
  -1770027.10947  -1374990.40646  24325287.5704   24325289.1504   24325287.6754
        43.0004         37.0004
 -11103850.54149  -8647630.96148  21225467.6984   21225466.3754   21225467.9914
        55.0004         50.0004
  -8887030.77248  -6917374.68447  22514816.1494   22514819.0574   22514816.7714
        50.0004         45.0004
 -11592526.42448  -8853898.79547  22736359.6204   22736359.0814   22736359.8774
        50.0004         44.0004
 -15800491.48748 -12280801.74647  22325057.3434   22325056.5174   22325056.7104
        51.0004         44.0004
 -16882057.18948 -13100823.43347  21954838.1784   21954840.6134   21954838.0424
        52.0004         46.0004
 -16498240.52448 -12850199.00647  22566165.9104   22566162.9334   22566165.6874
        53.0004         45.0004
 -12014328.20647  -9353196.97647  23024688.8874   23024691.2984   23024689.3934
        47.0004         43.0004
 -15664139.13148 -12180503.77347  22827708.9014   22827706.4474   22827708.3704
        50.0004         45.0004
    -81135.89747    -59481.12646  24347797.1054   24347797.6144   24347797.3174
        47.0004         41.0004
  -7099849.58447  -5355538.21646  23592730.1174   23592731.4464   23592729.1894
        46.0004         40.0004
 15  1  1  0 49  0.0000000  0 12G09G31G06G29G20G25G23G32G03G02G12G10
  -1877873.26347  -1459026.30046  24304765.0214   24304766.6304   24304765.1404
        43.0004         38.0004
 -11073517.27049  -8623994.64548  21231239.9214   21231238.6114   21231240.2184
        55.0004         50.0004
  -8846131.90848  -6885505.45947  22522598.9694   22522601.8794   22522599.5714
        50.0004         45.0004
 -11674546.01048  -8917810.20547  22720751.8444   22720751.3204   22720752.1024
        50.0004         45.0004
 -15747427.10348 -12239452.90147  22335155.1814   22335154.3594   22335154.5524
        51.0004         45.0004
 -16817535.59048 -13050546.85347  21967116.2054   21967118.6574   21967116.0924
        52.0004         46.0004
 -16569015.77748 -12905348.58247  22552697.8594   22552694.8794   22552697.6244
        52.0004         45.0004
  -1015969.81856   -816689.32856  25630755.7744   25630755.6214   25630754.5594
        41.0004         37.0004
 -11930328.27048  -9287742.51647  23040673.5644   23040675.9944   23040674.0934
        48.0004         43.0004
 -15708987.01648 -12215450.13147  22819174.5934   22819172.1324   22819174.0724
        50.0004         45.0004
     33148.45347     29571.67546  24369544.6574   24369545.1454   24369544.8534
        47.0004         41.0004
  -7194755.27547  -5429490.62746  23574670.1174   23574671.4224   23574669.1814
        47.0004         40.0004
 15  1  1  0 49 30.0000000  0 12G09G31G06G29G20G25G23G32G03G02G12G10
  -1985490.98347  -1542884.23646  24284286.0374   24284287.5924   24284286.1554
        43.0004         37.0004
 -11042607.18749  -8599908.86348  21237121.9124   21237120.5994   21237122.2154
        55.0004         49.0004
  -8804634.48848  -6853169.82647  22530495.6654   22530498.5964   22530496.3004
        50.0004         45.0004
 -11756123.39148  -8981376.97547  22705228.1824   22705227.6424   22705228.4284
        50.0004         45.0004
 -15693800.01548 -12197665.57947  22345360.0864   22345359.2844   22345359.4694
        51.0004         44.0004
 -16752483.74948 -12999857.06447  21979495.1294   21979497.5724   21979495.0034
        52.0004         46.0004
 -16639337.24648 -12960144.54047  22539316.1374   22539313.1534   22539315.9074
        53.0004         45.0004
   -901634.83847   -727597.00646  25652512.1104   25652512.7554   25652511.0444
        44.0004         38.0004
 -11845906.52247  -9221959.35047  23056738.4954   23056740.9274   23056739.0254
        47.0004         43.0004
 -15753318.41448 -12249994.10647  22810738.6434   22810736.1854   22810738.0914
        51.0004         45.0004
    147625.98547    118775.03446  24391328.9454   24391329.4054   24391329.1454
        47.0004         41.0004
  -7289253.31547  -5503125.36446  23556687.6534   23556688.9444   23556686.7304
        46.0004         40.0004
 15  1  1  0 50  0.0000000  0 12G09G31G06G29G20G25G23G32G03G02G12G10
  -2092874.90647  -1626559.99346  24263851.5254   24263853.0284   24263851.6714
        42.0004         38.0004
 -11011118.50249  -8575372.22348  21243114.0204   21243112.6854   21243114.3084
        55.0004         49.0004
  -8762537.19748  -6820366.78047  22538506.5604   22538509.4804   22538507.1804
        50.0004         45.0004
 -11837253.64648  -9044595.36147  22689789.5974   22689789.0834   22689789.8504
        50.0004         44.0004
 -15639608.92648 -12155438.76547  22355672.3214   22355671.5004   22355671.6914
        51.0004         44.0004
 -16686901.26048 -12948753.91247  21991975.1334   21991977.5914   21991974.9964
        52.0004         46.0004
 -16709199.77648 -13014582.90747  22526021.7564   22526018.7854   22526021.5364
        53.0004         45.0004
   -787235.83247   -638455.18646  25674281.3394   25674282.5734   25674280.5454
        42.0004         37.0004
 -11761062.73948  -9155847.31947  23072883.7364   23072886.1674   23072884.2504
        48.0004         43.0004
 -15797128.38048 -12284131.73447  22802401.8774   22802399.4064   22802401.3374
        51.0004         45.0004
    262296.45747    208128.77546  24413149.9074   24413150.3514   24413150.1224
        47.0004         41.0004
  -7383337.95247  -5576437.98746  23538783.8874   23538785.1614   23538782.9504
        47.0004         40.0004
 15  1  1  0 50 30.0000000  0 12G09G31G06G29G20G25G23G32G03G02G12G10
  -2200025.20247  -1710053.65046  24243461.4364   24243462.9234   24243461.5824
        43.0004         38.0004
 -10979054.89949  -8550387.59648  21249215.5094   21249214.2024   21249215.7984
        55.0004         50.0004
  -8719844.34248  -6787099.62047  22546630.7324   22546633.6574   22546631.3604
        50.0004         45.0004
 -11917936.40048  -9107465.12647  22674436.2404   22674435.7384   22674436.4914
        50.0004         45.0004
 -15584858.73148 -12112776.30247  22366090.9624   22366090.1484   22366090.3204
        50.0004         44.0004
 -16620792.83148 -12897240.84647  22004555.1434   22004557.6014   22004555.0104
        52.0004         46.0004
 -16778604.15048 -13068664.25747  22512814.5654   22512811.5894   22512814.3314
        53.0004         46.0004
   -672777.02247   -549266.51846  25696062.1354   25696063.3184   25696061.4044
        44.0004         37.0004
 -11675802.42148  -9089410.73447  23089108.2644   23089110.6954   23089108.7724
        48.0004         43.0004
 -15840418.59448 -12317864.36447  22794164.0084   22794161.5544   22794163.4884
        51.0004         45.0004
    377154.56347    297628.61046  24435006.6814   24435007.1054   24435006.8824
        45.0004         40.0004
  -7477008.92147  -5649428.27446  23520958.8234   23520960.0804   23520957.8984
        46.0004         40.0004
 15  1  1  0 51  0.0000000  0 12G09G31G06G29G20G25G23G32G03G02G12G10
  -2306938.60047  -1793362.72946  24223116.4414   24223117.9294   24223116.5864
        43.0004         39.0004
 -10946417.06049  -8524955.51448  21255426.2914   21255424.9594   21255426.5824
        55.0004         50.0004
  -8676556.81348  -6753369.10047  22554868.0964   22554871.0284   22554868.7034
        50.0004         45.0004
 -11998168.43948  -9169983.57747  22659168.5764   22659168.0764   22659168.8254
        50.0004         45.0004
 -15529550.76748 -12069679.20547  22376615.7174   22376614.9184   22376615.0864
        50.0004         44.0004
 -16554159.92048 -12845319.03047  22017234.9164   22017237.3574   22017234.7914
        51.0004         46.0004
 -16847547.50248 -13122386.41647  22499695.1314   22499692.1774   22499694.9024
        53.0004         46.0004
   -558260.30647   -460032.58846  25717853.8034   25717855.0844   25717853.1114
        45.0004         36.0004
 -11590127.36848  -9022650.96647  23105411.6904   23105414.1344   23105412.2134
        48.0004         43.0004
 -15883186.74248 -12351190.18047  22786025.4954   22786023.0344   22786024.9694
        51.0004         45.0004
    492198.65747    387273.39846  24456898.8154   24456899.2214   24456899.0104
        45.0004         39.0004
  -7570262.61547  -5722093.43746  23503213.2034   23503214.4484   23503212.2844
        45.0004         40.0004
 15  1  1  0 51 30.0000000  0 12G09G31G06G29G20G25G23G32G03G02G12G10
  -2413611.84247  -1876484.71546  24202817.1844   24202818.7084   24202817.3374
        45.0004         40.0004
 -10913205.15349  -8499076.10448  21261746.3074   21261744.9754   21261746.5864
        55.0004         50.0004
  -8632675.33448  -6719175.77347  22563218.4994   22563221.4224   22563219.1134
        50.0004         45.0004
 -12077946.57848  -9232148.32647  22643987.2794   22643986.7704   22643987.5204
        50.0004         45.0004
 -15473686.24548 -12026148.41947  22387246.3954   22387245.6104   22387245.7584
        50.0004         44.0004
 -16487003.98248 -12792989.66947  22030014.2264   22030016.6414   22030014.0814
        52.0004         46.0004
 -16916026.80048 -13175746.99347  22486664.0174   22486661.0934   22486663.7894
        53.0004         46.0004
   -443687.56147   -370755.09145  25739656.2894   25739657.6644   25739655.5844
        43.0004         35.0004
 -11504039.36948  -8955569.42047  23121793.7094   23121796.1514   23121794.2264
        48.0004         43.0004
 -15925430.35948 -12384107.31047  22777986.8094   22777984.3784   22777986.2794
        51.0004         45.0004
    607426.76647    477061.58646  24478825.9514   24478826.3574   24478826.1654
        43.0004         38.0004
  -7663095.06147  -5794430.33946  23485547.7294   23485548.9544   23485546.8094
        46.0004         40.0004
 15  1  1  0 52  0.0000000  0 12G09G31G06G29G20G25G23G32G03G02G12G10
  -2520042.25947  -1959417.47846  24182564.1474   24182565.6644   24182564.2954
        46.0004         41.0004
 -10879420.45549  -8472750.36548  21268175.3104   21268174.0014   21268175.6024
        55.0004         50.0004
  -8588201.55648  -6684520.82247  22571681.5244   22571684.4504   22571682.1334
        50.0004         45.0004
 -12157268.64048  -9293957.69447  22628892.7694   22628892.2444   22628893.0094
        50.0004         45.0004
 -15417267.19448 -11982185.53647  22397982.5834   22397981.7914   22397981.9644
        50.0004         44.0004
 -16419327.50448 -12740254.73847  22042892.6234   22042895.0434   22042892.4984
        52.0004         46.0004
 -16984040.23948 -13228744.49147  22473721.4904   22473718.5724   22473721.2644
        53.0004         46.0004
   -329061.24747   -281435.96245  25761469.0224   25761470.2254   25761468.3654
        42.0004         33.0004
 -11417541.23648  -8888168.28447  23138253.7594   23138256.2084   23138254.2714
        48.0004         43.0004
 -15967148.67148 -12416615.13547  22770048.1224   22770045.6814   22770047.5854
        51.0004         45.0004
    722836.06746    566991.03646  24500787.5024   24500787.9054   24500787.7164
        40.0004         37.0004
  -7755503.74747  -5866437.12746  23467962.9424   23467964.1894   23467962.0264
        46.0004         40.0004
 15  1  1  0 52 30.0000000  0 12G09G31G06G29G20G25G23G32G03G02G12G10
  -2626226.72547  -2042158.53746  24162357.8674   24162359.3534   24162358.0014
        44.0004         41.0004
 -10845063.40049  -8445978.62548  21274713.2484   21274711.9234   21274713.5274
        55.0004         50.0004
  -8543136.59648  -6649405.21947  22580257.0664   22580259.9674   22580257.6884
        50.0004         45.0004
 -12236131.62048  -9355409.36247  22613885.6384   22613885.1204   22613885.8804
        50.0004         45.0004
 -15360294.89048 -11937791.57447  22408824.0944   22408823.3214   22408823.4634
        50.0004         44.0004
 -16351132.16848 -12687115.55147  22055869.7794   22055872.2114   22055869.6494
        52.0004         46.0004
 -17051584.89148 -13281376.74147  22460868.2224   22460865.3124   22460867.9944
        53.0004         46.0004
                   -192075.86945  25783291.627    25783292.4274
        42.000          32.0004
 -11330635.01348  -8820449.18347  23154791.4944   23154793.9414   23154791.9994
        48.0004         43.0004
 -16008339.25148 -12448711.67347  22762209.8074   22762207.3614   22762209.2784
        51.0004         45.0004
    838424.57547    657060.09846  24522783.1784   24522783.5534   24522783.4124
        43.0004         37.0004
  -7847484.98847  -5938110.83846  23450459.5044   23450460.7584   23450458.5894
        45.0004         39.0004
 15  1  1  0 53  0.0000000  0 12G09G31G06G29G20G25G23G32G03G02G12G10
  -2732166.75647  -2124709.16946  24142198.1254   24142199.6064   24142198.2544
        46.0004         41.0004
 -10810139.42149  -8418765.13148  21281359.0474   21281357.7324   21281359.3414
        55.0004         50.0004
  -8497486.16848  -6613833.43547  22588944.0464   22588946.9334   22588944.6624
        50.0004         45.0004
 -12314536.99948  -9416504.48247  22598965.5984   22598965.0844   22598965.8444
        51.0004         45.0004
 -15302775.44148 -11892971.20747  22419769.6544   22419768.8824   22419769.0414
        50.0004         44.0004
 -16282424.02248 -12633576.80547  22068944.5614   22068947.0124   22068944.4274
        51.0004         46.0004
 -17118662.28148 -13333644.83947  22448103.8164   22448100.8994   22448103.5884
        53.0004         46.0004
    -99658.50546   -102680.53045  25805122.9044   25805123.7234   25805122.2314
        40.0004         33.0004
 -11243327.32147  -8752417.30047  23171405.6524   23171408.1334   23171406.1644
        47.0004         43.0004
 -16049004.47848 -12480398.80147  22754471.4204   22754468.9714   22754470.8834
        51.0004         45.0004
    954185.75847    747263.62946  24544811.7754   24544812.1554   24544812.0064
        42.0004         37.0004
  -7939039.81847  -6009452.34046  23433037.2544   23433038.5124   23433036.3334
        45.0004         39.0004
 15  1  1  0 53 30.0000000  0 12G09G31G06G29G20G25G23G32G03G02G12G10
  -2837854.14247  -2207062.93446  24122086.4654   24122087.9364   24122086.6054
        46.0004         41.0004
 -10774643.79949  -8391106.20548  21288113.6404   21288112.3094   21288113.9334
        55.0004         50.0004
  -8451246.32548  -6577802.37747  22597743.1864   22597746.0824   22597743.8074
        50.0004         45.0004
 -12392476.52348  -9477236.56447  22584134.1934   22584133.6744   22584134.4294
        50.0004         45.0004
 -15244705.04748 -11847721.52247  22430820.0674   22430819.2794   22430819.4434
        50.0004         44.0004
 -16213199.73848 -12579635.84747  22082117.5414   22082120.0074   22082117.3984
        51.0004         46.0004
 -17185265.13448 -13385543.18147  22435429.7214   22435426.8214   22435429.4894
        53.0004         46.0004
                    -13247.04655  25826963.640    25826964.3744
        36.000          32.0004
 -11155615.19147  -8684070.27447  23188096.7714   23188099.2884   23188097.2964
        47.0004         43.0004
 -16089137.76848 -12511671.48447  22746834.2954   22746831.8394   22746833.7644
        51.0004         45.0004
   1070122.68247    837604.30846  24566873.6884   24566874.0034   24566873.9074
        43.0004         37.0004
  -8030159.26847  -6080454.14146  23415697.5224   23415698.6954   23415696.6024
        46.0004         40.0004
 15  1  1  0 54  0.0000000  0 11G09G31G06G29G20G25G23G03G02G12G10
  -2943286.97647  -2289218.35346  24102023.2364   24102024.6944   24102023.3784
        45.0004         41.0004
 -10738578.45049  -8363003.33748  21294976.6574   21294975.3204   21294976.9474
        55.0004         50.0004
  -8404419.41248  -6541313.88747  22606654.0744   22606656.9614   22606654.6694
        50.0004         45.0004
 -12469948.43648  -9537604.27347  22569391.7704   22569391.2374   22569392.0054
        51.0004         45.0004
 -15186086.52848 -11802044.74947  22441974.7914   22441974.0044   22441974.1654
        50.0004         44.0004
 -16143462.14048 -12525294.85147  22095388.1494   22095390.6224   22095388.0254
        51.0004         46.0004
 -17251392.20048 -13437070.78047  22422846.1684   22422843.2744   22422845.9454
        53.0004         46.0004
 -11067501.75848  -8615410.46447  23204864.2124   23204866.7234   23204864.7314
        48.0004         43.0004
 -16128738.05448 -12542528.80847  22739298.5954   22739296.1184   22739298.0624
        51.0004         45.0004
   1186231.86747    928079.08546  24588968.4744   24588968.7434   24588968.6834
        45.0004         37.0004
  -8120841.75547  -6151115.69946  23398441.1234   23398442.2734   23398440.2104
        46.0004         40.0004
 15  1  1  0 54 30.0000000  0 11G09G31G06G29G20G25G23G03G02G12G10
  -3048469.07247  -2371178.35546  24082007.6924   24082009.1534   24082007.8214
        45.0004         41.0004
 -10701951.14549  -8334462.58548  21301946.5954   21301945.2664   21301946.8994
        55.0004         49.0004
  -8357013.48248  -6504374.19747  22615675.1074   22615677.9894   22615675.7134
        50.0004         45.0004
 -12546957.01448  -9597610.97047  22554737.5354   22554737.0154   22554737.7794
        51.0004         45.0004
 -15126928.52348 -11755947.57847  22453232.1704   22453231.3674   22453231.5344
        50.0004         44.0004
 -16073220.12448 -12470560.82347  22108754.7774   22108757.2434   22108754.6394
        51.0004         46.0004
 -17317047.75648 -13488230.94547  22410352.3294   22410349.4204   22410352.0944
        53.0004         46.0004
 -10978996.36647  -8546445.24447  23221706.2574   23221708.7514   23221706.7604
        47.0004         43.0004
 -16167810.90948 -12572975.22747  22731863.3044   22731860.8374   22731862.7634
        51.0004         45.0004
   1302504.17547   1018680.88446  24611094.3634   24611094.6204   24611094.5764
        45.0004         38.0004
  -8211090.95847  -6221439.55746  23381267.1204   23381268.2334   23381266.2194
        46.0004         40.0004
 15  1  1  0 55  0.0000000  0 11G09G31G06G29G20G25G23G03G02G12G10
  -3153390.48247  -2452935.23046  24062041.7554   24062043.2114   24062041.8694
        45.0004         41.0004
 -10664755.56849  -8305479.02448  21309024.6814   21309023.3654   21309024.9864
        55.0004         49.0004
  -8309022.96048  -6466978.99247  22624807.4024   22624810.3034   22624808.0294
        49.0004         45.0004
 -12623492.28048  -9657248.84947  22540173.3614   22540172.8404   22540173.6074
        51.0004         45.0004
 -15067225.85848 -11709425.97747  22464593.1814   22464592.3654   22464592.5574
        50.0004         44.0004
 -16002468.48648 -12415429.67847  22122218.3644   22122220.8294   22122218.2244
        51.0004         46.0004
 -17382222.12448 -13539016.12047  22397950.0164   22397947.1174   22397949.7884
        53.0004         46.0004
 -10890094.33047  -8477171.02647  23238623.8204   23238626.3504   23238624.3354
        47.0004         43.0004
 -16206347.30348 -12603003.60047  22724530.0654   22724527.6184   22724529.5434
        51.0004         45.0004
   1418944.72147   1109413.82446  24633252.2294   24633252.4824   24633252.4334
        46.0004         39.0004
  -8300896.42447  -6291417.66746  23364177.5854   23364178.6534   23364176.6734
        46.0004         40.0004
 15  1  1  0 55 30.0000000  0 11G09G31G06G29G20G25G23G03G02G12G10
  -3258051.69247  -2534489.38746  24042125.3704   24042126.8154   24042125.4904
        46.0004         41.0004
 -10626996.14649  -8276056.11348  21316210.0874   21316208.7584   21316210.3594
        55.0004         49.0004
  -8260452.64848  -6429132.02747  22634050.0484   22634052.9534   22634050.6674
        50.0004         45.0004
 -12699555.28148  -9716518.72447  22525699.0534   22525698.5334   22525699.2864
        51.0004         45.0004
 -15006983.62848 -11662483.96047  22476056.8854   22476056.0724   22476056.2464
        50.0004         44.0004
 -15931212.74748 -12359905.80647  22135777.9284   22135780.4264   22135777.8124
        51.0004         46.0004
 -17446916.31348 -13589427.13247  22385639.0864   22385636.1634   22385638.8614
        53.0004         46.0004
 -10800801.18947  -8407592.02547  23255615.7844   23255618.3394   23255616.3024
        47.0004         43.0004
 -16244348.70848 -12632615.07647  22717298.6434   22717296.2004   22717298.1154
        51.0004         45.0004
   1535547.85947   1200273.41446  24655441.0684   24655441.3164   24655441.2764
        47.0004         40.0004
  -8390258.21047  -6361050.09646  23347172.4934   23347173.5334   23347171.5934
        46.0004         40.0004
 15  1  1  0 56  0.0000000  0 11G09G31G06G29G20G25G23G03G02G12G10
  -3362448.23447  -2615837.31546  24022259.3324   24022260.7854   24022259.4684
        45.0004         40.0004
 -10588672.16249  -8246193.28048  21323502.8964   21323501.5814   21323503.1924
        55.0004         49.0004
  -8211302.36448  -6390833.12147  22643403.0664   22643405.9614   22643403.6734
        50.0004         45.0004
 -12775141.15348  -9775416.80647  22511315.5374   22511315.0124   22511315.7744
        51.0004         45.0004
 -14946201.67448 -11615121.36047  22487623.2774   22487622.4554   22487622.6534
        50.0004         44.0004
 -15859453.21448 -12303989.37447  22149433.3784   22149435.8994   22149433.2484
        51.0004         45.0004
 -17511126.64049 -13639461.18147  22373420.2954   22373417.3714   22373420.0564
        54.0004         46.0004
 -10711117.79247  -8337708.92847  23272682.0224   23272684.5844   23272682.5304
        47.0004         42.0004
 -16281812.34748 -12661807.54447  22710169.5724   22710167.1274   22710169.0314
        51.0004         45.0004
   1652312.86247   1291259.21646  24677660.6504   24677660.8854   24677660.8664
        47.0004         40.0004
  -8479171.56847  -6430333.03546  23330252.6914   23330253.6834   23330251.7784
        47.0004         40.0004
 15  1  1  0 56 30.0000000  0 11G09G31G06G29G20G25G23G03G02G12G10
  -3466566.21047  -2696968.20146  24002446.3574   24002447.7914   24002446.4774
        46.0004         41.0004
 -10549773.65649  -8215882.76248  21330905.0374   21330903.7294   21330905.3304
        55.0004         49.0004
  -8161562.46048  -6352074.74847  22652868.2414   22652871.1334   22652868.8584
        49.0004         45.0004
 -12850236.25948  -9833932.47347  22497025.4174   22497024.8984   22497025.6454
        51.0004         45.0004
 -14884871.14648 -11567331.35347  22499294.0884   22499293.2854   22499293.4634
        49.0004         44.0004
 -15787180.72948 -12247673.17347  22163186.3994   22163188.9144   22163186.2584
        51.0004         45.0004
 -17574839.84348 -13689107.82147  22361296.0794   22361293.1474   22361295.8434
        53.0004         46.0004
 -10621035.53647  -8267515.01547  23289824.1474   23289826.7074   23289824.6634
        47.0004         42.0004
 -16318725.54548 -12690571.09247  22703145.2264   22703142.7804   22703144.6904
        51.0004         45.0004
   1769248.19547   1382377.58346  24699912.7764   24699913.0234   24699912.9904
        46.0004         40.0004
  -8567622.30147  -6499255.54646  23313420.9734   23313421.9234   23313420.0604
        46.0004         40.0004
 15  1  1  0 57  0.0000000  0 11G09G31G06G29G20G25G23G03G02G12G10
  -3570434.84547  -2777904.80146  23982680.8144   23982682.2514   23982680.9514
        46.0004         40.0004
 -10510333.67849  -8185150.31648  21338410.2264   21338408.9044   21338410.5104
        55.0004         49.0004
  -8111266.65448  -6312883.19747  22662439.2074   22662442.0944   22662439.8224
        49.0004         44.0004
 -12924870.17748  -9892088.78347  22482823.0584   22482822.5374   22482823.3004
        51.0004         45.0004
 -14823025.65648 -11519140.07347  22511062.9024   22511062.0864   22511062.2834
        49.0004         43.0004
 -15714429.54248 -12190983.95947  22177030.4974   22177033.0234   22177030.3624
        51.0004         46.0004
 -17638085.49149 -13738390.16247  22349260.8364   22349257.9184   22349260.6134
        54.0004         46.0004
 -10530588.84847  -8197037.17647  23307035.6524   23307038.2434   23307036.1634
        46.0004         42.0004
 -16355118.54248 -12718929.23647  22696219.8414   22696217.4034   22696219.3084
        51.0004         45.0004
   1886320.00347   1473602.52646  24722190.6794   24722190.8844   24722190.8974
        46.0004         40.0004
  -8655639.61947  -6567840.34846  23296671.7384   23296672.6654   23296670.8474
        47.0004         41.0004
 15  1  1  0 57 30.0000000  0 11G09G31G06G29G20G25G23G03G02G12G10
  -3674024.17447  -2858623.76646  23962968.4324   23962969.8604   23962968.5564
        45.0004         40.0004
 -10470326.21449  -8153975.67148  21346023.3864   21346022.0704   21346023.6764
        55.0004         49.0004
  -8060389.41748  -6273238.56747  22672120.7874   22672123.6774   22672121.4064
        49.0004         44.0004
 -12999013.41848  -9949862.76547  22468714.0854   22468713.5814   22468714.3294
        51.0004         45.0004
 -14760640.21548 -11470528.00847  22522934.4374   22522933.6164   22522933.8184
        50.0004         43.0004
 -15641174.75848 -12133902.34547  22190970.4534   22190972.9764   22190970.3284
        51.0004         46.0004
 -17700834.08049 -13787285.16347  22337320.1774   22337317.2554   22337319.9514
        54.0004         46.0004
 -10439753.16147  -8126256.19547  23324321.1564   23324323.7704   23324321.6784
        47.0004         42.0004
 -16390962.93548 -12746859.86147  22689398.8304   22689396.3684   22689398.2874
        51.0004         45.0004
   2003552.67847   1564952.65546  24744499.3224   24744499.5304   24744499.5364
        44.0004         39.0004
  -8743192.95447  -6636063.59246  23280010.7964   23280011.6934   23280009.8994
        47.0004         41.0004
 15  1  1  0 58  0.0000000  0 12G09G31G06G29G20G25G23G32G03G02G12G10
  -3777343.52147  -2939132.32246  23943307.3944   23943308.8284   23943307.5234
        45.0004         40.0004
 -10429764.47149  -8122369.13148  21353742.0444   21353740.7384   21353742.3444
        55.0004         49.0004
  -8008944.54448  -6233151.65147  22681910.4304   22681913.3094   22681911.0454
        49.0004         44.0004
 -13072675.34848 -10007261.67547  22454696.6964   22454696.1834   22454696.9324
        51.0004         45.0004
 -14697728.85548 -11421506.16947  22534906.0634   22534905.2554   22534905.4514
        50.0004         43.0004
 -15567430.54948 -12076439.38947  22205003.5564   22205006.1024   22205003.4204
        51.0004         46.0004
 -17763095.79049 -13835800.81547  22325472.1924   22325469.2814   22325471.9664
        54.0004         46.0004
     20286.21156    -46440.15655  26023857.2814   26023857.4664   26023855.8724
        38.0004         33.0004
 -10348542.98947  -8055183.38147  23341677.9214   23341680.5544   23341678.4284
        46.0004         42.0004
 -16426269.58648 -12774371.56047  22682680.2034   22682677.7494   22682679.6804
        51.0004         45.0004
   2120931.46847   1656416.59246  24766835.8064   24766836.0444   24766836.0174
        42.0004         39.0004
  -8830291.57647  -6703932.51446  23263436.3764   23263437.2314   23263435.4754
        47.0004         41.0004
 15  1  1  0 58 30.0000000  0 11G09G31G06G29G20G25G23G03G02G12G10
  -3880385.40847  -3019424.65946  23923699.1284   23923700.5704   23923699.2654
        44.0004         39.0004
 -10388645.20049  -8090328.14948  21361566.7944   21361565.4874   21361567.0854
        55.0004         49.0004
  -7956928.98448  -6192620.03547  22691808.6614   22691811.5224   22691809.2564
        49.0004         44.0004
 -13145848.79648 -10064279.95247  22440772.2464   22440771.7384   22440772.4844
        51.0004         45.0004
 -14634289.01848 -11372072.54747  22546978.2914   22546977.4674   22546977.6624
        49.0004         43.0004
 -15493194.35748 -12018593.03847  22219130.2614   22219132.8084   22219130.1274
        51.0004         46.0004
 -17824863.48849 -13883931.51547  22313718.2034   22313715.3064   22313717.9864
        54.0004         46.0004
 -10256956.13747  -7983817.03147  23359106.3294   23359108.9634   23359106.8544
        46.0004         42.0004
 -16461032.01448 -12801459.15147  22676065.1354   22676062.6614   22676064.5974
        51.0004         45.0004
   2238459.57347   1747997.03746  24789200.5684   24789200.7914   24789200.7924
        42.0004         38.0004
  -8916927.82947  -6771441.17146  23246949.9714   23246950.7994   23246949.0554
        46.0004         40.0004
 15  1  1  0 59  0.0000000  0 11G09G31G06G29G20G25G23G03G02G12G10
  -3983150.15047  -3099501.05546  23904143.6214   23904145.0474   23904143.7474
        44.0004         39.0004
 -10346972.25849  -8057855.74148  21369496.9034   21369495.5924   21369497.1914
        55.0004         49.0004
  -7904347.49548  -6151647.46147  22701814.5934   22701817.4704   22701815.1974
        49.0004         44.0004
 -13218534.25248 -10120917.96447  22426940.6664   22426940.1474   22426940.8944
        51.0004         45.0004
 -14570325.55748 -11322230.90747  22559150.1474   22559149.3294   22559149.5164
        49.0004         44.0004
 -15418471.43948 -11960367.42347  22233349.5884   22233352.1434   22233349.4594
        51.0004         46.0004
 -17886138.16149 -13931678.01347  22302058.0324   22302055.1354   22302057.8014
        54.0004         46.0004
 -10164998.26647  -7912161.54347  23376605.3324   23376607.9674   23376605.8474
        47.0004         42.0004
 -16495252.06948 -12828124.10947  22669553.2474   22669550.7944   22669552.7184
        51.0004         45.0004
   2356130.76747   1839688.90646  24811592.6454   24811592.8474   24811592.8434
        42.0004         38.0004
  -9003101.80847  -6838589.63446  23230551.5224   23230552.3324   23230550.6334
        46.0004         40.0004
 15  1  1  0 59 30.0000000  0 11G09G31G06G29G20G25G23G03G02G12G10
  -4085632.45547  -3179357.35146  23884641.8444   23884643.2554   23884641.9824
        44.0004         40.0004
 -10304744.45549  -8024950.96348  21377532.5774   21377531.2864   21377532.8784
        55.0004         49.0004
  -7851199.20148  -6110233.21847  22711928.3884   22711931.2534   22711928.9834
        49.0004         44.0004
 -13290726.47548 -10177171.67747  22413202.9624   22413202.4524   22413203.2074
        51.0004         45.0004
 -14505838.25548 -11271981.07447  22571421.6694   22571420.8644   22571421.0474
        50.0004         43.0004
 -15343261.54648 -11901762.37447  22247661.5974   22247664.1624   22247661.4774
        51.0004         45.0004
 -17946915.59949 -13979037.06447  22290492.4664   22290489.5754   22290492.2374
        54.0004         46.0004
 -10072669.48447  -7840217.07447  23394174.9374   23394177.5894   23394175.4634
        47.0004         42.0004
 -16528925.70948 -12854363.28647  22663145.3524   22663142.8894   22663144.8244
        51.0004         45.0004
   2473945.55147   1931492.64946  24834012.0414   24834012.2354   24834012.2474
        42.0004         38.0004
  -9088807.78947  -6905373.32746  23214242.0774   23214242.8364   23214241.1904
        47.0004         41.0004
 15  1  1  1  0  0.0000000  0 11G09G31G06G29G20G25G23G03G02G12G10
  -4187830.23147  -3258991.96746  23865194.2524   23865195.6574   23865194.3644
        45.0004         40.0004
 -10261963.71349  -7991615.32248  21385673.4934   21385672.1944   21385673.7924
        55.0004         49.0004
  -7797486.50848  -6068379.15147  22722149.5614   22722152.4254   22722150.1644
        49.0004         44.0004
 -13362423.83948 -10233039.74547  22399559.4034   22399558.9004   22399559.6364
        51.0004         46.0004
 -14440829.56848 -11221324.93647  22583792.4104   22583791.5844   22583791.7864
        50.0004         43.0004
 -15267567.52348 -11842780.08447  22262065.7544   22262068.3224   22262065.6094
        51.0004         45.0004
 -18007194.02049 -14026007.26947  22279021.8784   22279018.9824   22279021.6404
        54.0004         46.0004
  -9979973.08647  -7767986.24747  23411814.5814   23411817.2634   23411815.1074
        47.0004         42.0004
 -16562052.00648 -12880175.91447  22656841.5744   22656839.1004   22656841.0434
        51.0004         45.0004
   2591900.24347   2023405.52646  24856457.9624   24856458.1504   24856458.1764
        43.0004         38.0004
  -9174043.34047  -6971790.32646  23198022.0664   23198022.7224   23198021.1554
        47.0004         41.0004
 15  1  1  1  0 30.0000000  0 11G09G31G06G29G20G25G23G03G02G12G10
  -4289743.86047  -3338405.15746  23845800.7114   23845802.1244   23845800.8304
        45.0004         41.0004
 -10218634.37749  -7957852.20648  21393918.8004   21393917.4864   21393919.0914
        55.0004         49.0004
  -7743214.38248  -6026089.18547  22732477.1904   22732480.0684   22732477.8004
        48.0004         44.0004
 -13433627.20248 -10288522.88147  22386009.8414   22386009.3384   22386010.0934
        51.0004         46.0004
 -14375304.93748 -11170266.78347  22596261.3374   22596260.5084   22596260.7014
        50.0004         43.0004
 -15191394.72148 -11783424.70447  22276560.9804   22276563.5724   22276560.8484
        51.0004         45.0004
 -18066974.32749 -14072589.33847  22267646.0674   22267643.1854   22267645.8314
        54.0004         47.0004
  -9886914.43247  -7695473.04447  23429523.0904   23429525.7584   23429523.6084
        47.0004         42.0004
 -16594633.59648 -12905564.11547  22650641.4574   22650638.9714   22650640.9354
        51.0004         45.0004
   2709990.03147   2115423.51246  24878929.7394   24878929.9044   24878929.9364
        42.0004         38.0004
  -9258809.39147  -7037841.64246  23181891.4954   23181892.1254   23181890.5954
        47.0004         41.0004
 15  1  1  1  1  0.0000000  0 11G09G31G06G29G20G25G23G03G02G12G10
  -4391364.32547  -3417589.92846  23826462.9554   23826464.3804   23826463.1014
        46.0004         41.0004
 -10174751.33549  -7923657.63748  21402269.4764   21402268.1644   21402269.7644
        55.0004         49.0004
  -7688378.19048  -5983359.65847  22742912.1604   22742915.0094   22742912.7744
        49.0004         44.0004
 -13504327.83448 -10343614.27947  22372555.9534   22372555.4514   22372556.1884
        51.0004         46.0004
 -14309259.84448 -11118803.07147  22608829.2914   22608828.4594   22608828.6584
        49.0004         43.0004
 -15114739.09948 -11723693.12047  22291148.1194   22291150.7284   22291147.9944
        51.0004         45.0004
 -18126248.09049 -14118776.67647  22256366.6494   22256363.7564   22256366.4014
        54.0004         46.0004
  -9793489.99447  -7622674.82347  23447301.2014   23447303.8924   23447301.7134
        47.0004         42.0004
 -16626662.52748 -12930521.64747  22644546.5044   22644544.0024   22644545.9804
        51.0004         45.0004
   2828219.09747   2207550.13146  24901427.9174   24901428.0934   24901428.1334
        45.0004         38.0004
  -9343096.25147  -7103519.55346  23165852.1134   23165852.7164   23165851.2164
        47.0004         41.0004
 15  1  1  1  1 30.0000000  0 11G09G31G06G29G20G25G23G03G02G12G10
  -4492695.93147  -3496549.61146  23807180.1934   23807181.6164   23807180.3294
        47.0004         41.0004
 -10130322.82449  -7889038.02148  21410723.9434   21410722.6404   21410724.2294
        55.0004         49.0004
  -7632986.97848  -5940197.65447  22753452.7304   22753455.5844   22753453.3554
        49.0004         44.0004
 -13574530.40048 -10398317.56547  22359196.8534   22359196.3374   22359197.0794
        51.0004         46.0004
 -14242703.77048 -11066941.18447  22621494.4734   22621493.6584   22621493.8474
        49.0004         43.0004
 -15037609.96348 -11663592.54547  22305825.3404   22305827.9664   22305825.2104
        50.0004         45.0004
 -18185020.46949 -14164573.29847  22245182.6064   22245179.7094   22245182.3634
        54.0004         47.0004
  -9699709.47747  -7549599.12247  23465147.0634   23465149.7434   23465147.5704
        47.0004         42.0004
 -16658144.40848 -12955052.95247  22638555.6844   22638553.1564   22638555.1474
        51.0004         45.0004
   2946577.78547   2299777.80446  24923950.7184   24923950.8544   24923950.9384
        43.0004         37.0004
  -9426908.10147  -7168827.39046  23149903.1904   23149903.7614   23149902.2904
        47.0004         41.0004
 15  1  1  1  2  0.0000000  0 11G09G31G06G29G20G25G23G03G02G12G10
  -4593731.52047  -3575278.63547  23787953.7444   23787955.1774   23787953.8814
        46.0004         42.0004
 -10085346.08449  -7853991.21848  21419282.7394   21419281.4294   21419283.0274
        55.0004         49.0004
  -7577038.07648  -5896601.11347  22764099.4694   22764102.3124   22764100.0814
        49.0004         44.0004
 -13644227.96148 -10452627.33447  22345933.8214   22345933.3104   22345934.0684
        51.0004         46.0004
 -14175634.31248 -11014679.26547  22634257.3674   22634256.5424   22634256.7364
        49.0004         43.0004
 -14960005.15448 -11603121.30647  22320593.0724   22320595.7144   22320592.9394
        51.0004         45.0004
 -18243285.00049 -14209974.20947  22234095.2134   22234092.3074   22234094.9834
        54.0004         47.0004
  -9605571.06947  -7476244.65246  23483061.1004   23483063.8354   23483061.6294
        46.0004         41.0004
 -16689073.53548 -12979153.54947  22632670.0554   22632667.5264   22632669.5124
        51.0004         45.0004
   3065067.99247   2392107.99046  24946498.5474   24946498.6434   24946498.7694
        45.0004         37.0004
  -9510237.53247  -7233759.36246  23134046.0784   23134046.6304   23134045.1834
        47.0004         41.0004
 15  1  1  1  2 30.0000000  0 11G09G31G06G29G20G25G23G03G02G12G10
  -4694471.35847  -3653777.19246  23768783.5694   23768785.0184   23768783.7144
        46.0004         41.0004
 -10039825.15849  -7818520.37548  21427945.0874   21427943.7894   21427945.3794
        55.0004         49.0004
  -7520536.31648  -5852573.78047  22774851.4024   22774854.2524   22774852.0214
        49.0004         44.0004
 -13713420.99848 -10506543.98747  22332766.8234   22332766.3224   22332767.0604
        51.0004         46.0004
 -14108056.38048 -10962021.16447  22647117.0454   22647116.2334   22647116.4174
        49.0004         43.0004
 -14881930.06448 -11542283.64647  22335450.3144   22335452.9834   22335450.1934
        50.0004         45.0004
 -18301042.64849 -14254980.15647  22223104.2804   22223101.3884   22223104.0654
        54.0004         46.0004
  -9511080.27147  -7402615.56746  23501042.1824   23501044.9324   23501042.7024
        46.0004         41.0004
 -16719451.88648 -13002824.95147  22626889.2004   22626886.6764   22626888.6664
        51.0004         45.0004
   3183683.84147   2484536.02446  24969070.2964   24969070.3934   24969070.5364
        44.0004         37.0004
  -9593084.68647  -7298315.61646  23118280.8204   23118281.3814   23118279.9134
        46.0004         41.0004
 15  1  1  1  3  0.0000000  0 11G09G31G06G29G20G25G23G03G02G12G10
  -4794912.16447  -3732042.72946  23749670.3004   23749671.7344   23749670.4414
        46.0004         41.0004
  -9993760.87549  -7782626.12948  21436710.8294   21436709.5304   21436711.1164
        55.0004         49.0004
  -7463483.02248  -5808116.64947  22785708.2784   22785711.1134   22785708.8894
        49.0004         44.0004
 -13782106.78148 -10560065.37947  22319696.3464   22319695.8544   22319696.5864
        51.0004         46.0004
 -14039972.32248 -10908968.65947  22660073.0114   22660072.2054   22660072.4004
        49.0004         43.0004
 -14803386.34148 -11481080.79447  22350396.7334   22350399.4084   22350396.6034
        50.0004         45.0004
 -18358290.63849 -14299588.94047  22212210.3194   22212207.4194   22212210.0894
        54.0004         46.0004
  -9416239.18147  -7328713.48546  23519089.8984   23519092.6534   23519090.4104
        46.0004         41.0004
 -16749277.76448 -13026065.83547  22621213.4764   22621210.9264   22621212.9504
        51.0004         45.0004
   3302423.41347   2577060.28846  24991665.7454   24991665.8664   24991665.9854
        45.0004         37.0004
  -9675445.82947  -7362493.05746  23102607.9494   23102608.5064   23102607.0424
        47.0004         41.0004
 15  1  1  1  3 30.0000000  0 11G09G31G06G29G20G25G23G03G02G12G10
  -4895047.43147  -3810070.18547  23730615.1684   23730616.5954   23730615.3134
        46.0004         42.0004
  -9947151.08849  -7746306.82448  21445580.3784   21445579.0794   21445580.6744
        55.0004         49.0004
  -7405876.27748  -5763228.27847  22796670.4814   22796673.3084   22796671.0874
        49.0004         44.0004
 -13850278.97648 -10613186.58447  22306723.6314   22306723.1394   22306723.8634
        51.0004         46.0004
 -13971379.95848 -10855520.11847  22673125.7534   22673124.9324   22673125.1274
        49.0004         43.0004
 -14724372.48148 -11419511.59447  22365432.5964   22365435.2724   22365432.4614
        50.0004         45.0004
 -18415023.30949 -14343796.17947  22201414.4264   22201411.5164   22201414.1914
        54.0004         47.0004
  -9321046.57547  -7254537.53646  23537204.5304   23537207.3104   23537205.0454
        46.0004         41.0004
 -16778545.77248 -13048871.99647  22615643.9064   22615641.3384   22615643.3844
        51.0004         45.0004
   3421289.29847   2669683.05046  25014285.1834   25014285.2974   25014285.4224
        45.0004         38.0004
  -9757315.03547  -7426287.38846  23087028.8734   23087029.4534   23087027.9744
        47.0004         41.0004
 15  1  1  1  4  0.0000000  0 11G09G31G06G29G20G25G23G03G02G12G10
  -4994881.16947  -3887862.66647  23711617.4184   23711618.8334   23711617.5654
        46.0004         42.0004
  -9900003.63749  -7709568.57548  21454552.2534   21454550.9644   21454552.5524
        55.0004         49.0004
  -7347724.71348  -5717915.35247  22807736.3254   22807739.1594   22807736.9314
        48.0004         43.0004
 -13917942.21348 -10665911.21647  22293847.7634   22293847.2794   22293847.9924
        51.0004         46.0004
 -13902288.12448 -10801682.34247  22686273.5124   22686272.7074   22686272.8804
        49.0004         43.0004
 -14644897.68348 -11357583.24647  22380556.1904   22380558.8954   22380556.0654
        50.0004         45.0004
 -18471245.29249 -14387605.49847  22190715.7334   22190712.8134   22190715.4994
        54.0004         47.0004
  -9225511.72347  -7180094.81846  23555384.2164   23555387.0144   23555384.7494
        46.0004         41.0004
 -16807261.78148 -13071248.04447  22610179.3744   22610176.7964   22610178.8594
        51.0004         45.0004
   3540272.15747   2762397.23546  25036926.6544   25036926.7054   25036926.9014
        43.0004         38.0004
  -9838695.50247  -7489700.80646  23071542.7304   23071543.3464   23071541.8324
        47.0004         41.0004
 15  1  1  1  4 30.0000000  0 11G09G31G06G29G20G25G23G03G02G12G10
  -5094404.54347  -3965413.30547  23692678.7224   23692680.1214   23692678.8574
        46.0004         42.0004
  -9852313.82949  -7672407.69448  21463627.3434   21463626.0404   21463627.6274
        55.0004         49.0004
  -7289024.18548  -5672174.67847  22818906.6564   22818909.4864   22818907.2684
        49.0004         44.0004
 -13985087.67348 -10718232.35447  22281070.3994   22281069.9114   22281070.6494
        51.0004         46.0004
 -13832693.14248 -10747452.51147  22699517.0134   22699516.1994   22699516.3824
        49.0004         43.0004
 -14564958.01148 -11295292.61247  22395768.2264   22395770.9234   22395768.0954
        50.0004         45.0004
 -18526948.65849 -14431010.69547  22180115.7054   22180112.7924   22180115.4874
        54.0004         47.0004
  -9129631.47347  -7105383.02846  23573629.7024   23573632.5114   23573630.2184
        46.0004         41.0004
 -16835418.43348 -13093188.18747  22604821.2744   22604818.6654   22604820.7434
        51.0004         46.0004
   3659375.60647   2855205.25846  25059591.1714   25059591.1974   25059591.4304
        43.0004         38.0004
  -9919578.19247  -7552726.26446  23056151.2434   23056151.8624   23056150.3634
        47.0004         41.0004
 15  1  1  1  5  0.0000000  0 11G09G31G06G29G20G25G23G03G02G12G10
  -5193621.73347  -4042725.38747  23673798.3124   23673799.7174   23673798.4574
        46.0004         42.0004
  -9804089.93549  -7634830.64448  21472804.0484   21472802.7584   21472804.3314
        55.0004         49.0004
  -7229783.47348  -5626013.07147  22830179.7864   22830182.6224   22830180.3964
        48.0004         44.0004
 -14051720.93248 -10770154.34847  22268390.4914   22268390.0054   22268390.7224
        51.0004         46.0004
 -13762603.90448 -10692837.52547  22712854.5584   22712853.7554   22712853.9394
        49.0004         43.0004
 -14484562.67548 -11232646.90947  22411066.9664   22411069.6544   22411066.8274
        50.0004         45.0004
 -18582138.45949 -14474015.71447  22169613.4214   22169610.4844   22169613.1894
        54.0004         47.0004
  -9033415.07147  -7030409.32446  23591939.1644   23591942.0064   23591939.6704
        46.0004         41.0004
 -16863021.62448 -13114697.06547  22599568.4854   22599565.8484   22599567.9554
        52.0004         45.0004
   3778589.54547   2948099.21946  25082276.8464   25082276.8954   25082277.0974
        43.0004         38.0004
  -9999967.70947  -7615367.49746  23040853.6734   23040854.2994   23040852.7794
        47.0004         41.0004
 15  1  1  1  5 30.0000000  0 11G09G31G06G29G20G25G23G03G02G12G10
  -5292523.47047  -4119791.63247  23654977.8954   23654979.2914   23654978.0474
        46.0004         42.0004
  -9755326.87249  -7596833.45848  21482083.3554   21482082.0544   21482083.6334
        55.0004         49.0004
  -7169998.01248  -5579426.96847  22841556.5674   22841559.3764   22841557.1734
        49.0004         44.0004
 -14117832.11648 -10821669.53847  22255809.9344   22255809.4454   22255810.1714
        52.0004         46.0004
 -13692016.49548 -10637834.37347  22726286.9034   22726286.1184   22726286.2774
        49.0004         43.0004
 -14403707.60948 -11169642.96747  22426453.1704   22426455.8674   22426453.0494
        50.0004         45.0004
 -18636806.19849 -14516613.92547  22159210.4694   22159207.5374   22159210.2534
        54.0004         47.0004
  -8936858.71247  -6955170.71846  23610313.3044   23610316.1864   23610313.8374
        46.0004         41.0004
 -16890063.75448 -13135768.80047  22594422.4904   22594419.8494   22594421.9564
        51.0004         45.0004
   3897918.87846   3041083.12246  25104984.4674   25104984.4964   25104984.7074
        41.0004         37.0004
 -10079854.35147  -7677616.77446  23025651.6994   23025652.3234   23025650.8094
        47.0004         41.0004
 15  1  1  1  6  0.0000000  0 11G09G31G06G29G20G25G23G03G02G12G10
  -5391111.71947  -4196613.65147  23636217.1834   23636218.5834   23636217.3274
        45.0004         42.0004
  -9706030.62849  -7558420.79648  21491464.1054   21491462.8214   21491464.4074
        55.0004         49.0004
  -7109674.31748  -5532421.44547  22853035.7424   22853038.5444   22853036.3414
        49.0004         44.0004
 -14183423.66348 -10872779.80047  22243328.2604   22243327.7634   22243328.4944
        52.0004         46.0004
 -13620937.40948 -10582448.05947  22739812.8074   22739812.0024   22739812.1814
        49.0004         43.0004
 -14322399.72148 -11106286.20047  22441925.5764   22441928.2724   22441925.4374
        50.0004         45.0004
 -18690954.26449 -14558807.19647  22148906.4224   22148903.4764   22148906.1884
        54.0004         47.0004
  -8839969.51747  -6879672.73346  23628750.7674   23628753.6744   23628751.3004
        46.0004         41.0004
 -16916548.02648 -13156405.80447  22589382.6394   22589379.9764   22589382.1094
        51.0004         45.0004
   4017356.35646   3134151.20346  25127712.7194   25127712.7784   25127712.9784
        39.0004         37.0004
 -10159239.96047  -7739475.70346  23010545.1294   23010545.7424   23010544.2394
        47.0004         41.0004
 15  1  1  1  6 30.0000000  0 12G09G31G06G29G20G25G23G16G03G02G12G10
  -5489382.03047  -4273187.87646  23617516.9154   23617518.3194   23617517.0724
        46.0004         41.0004
  -9656201.24649  -7519592.70848  21500946.3204   21500945.0304   21500946.6224
        55.0004         49.0004
  -7048812.87948  -5484996.90047  22864617.2604   22864620.0534   22864617.8694
        49.0004         44.0004
 -14248492.03048 -10923482.38247  22230946.1244   22230945.6204   22230946.3624
        52.0004         46.0004
 -13549367.75548 -10526679.52647  22753432.0664   22753431.2844   22753431.4514
        48.0004         43.0004
 -14240639.79448 -11042577.18147  22457483.9754   22457486.6934   22457483.8574
        50.0004         45.0004
 -18744579.08149 -14600592.74447  22138701.9464   22138698.9874   22138701.7004
        54.0004         47.0004
                                  25319746.231
        44.000
  -8742748.76247  -6803916.43946  23647251.3674   23647254.3174   23647251.8864
        45.0004         41.0004
 -16942472.10848 -13176606.35947  22584449.4144   22584446.7614   22584448.8894
        51.0004         45.0004
   4136901.50146   3227303.28846  25150461.3734   25150461.4434   25150461.6324
        39.0004         37.0004
 -10238120.00047  -7800940.58546  22995534.6934   22995535.2894   22995533.8084
        47.0004         41.0004
 15  1  1  1  7  0.0000000  0 12G09G31G06G29G20G25G23G16G03G02G12G10
  -5587329.17047  -4349510.25946  23598878.1564   23598879.5444   23598878.2864
        45.0004         41.0004
  -9605837.40049  -7480348.15148  21510530.2554   21510528.9544   21510530.5474
        55.0004         49.0004
  -6987413.19248  -5437152.97947  22876301.2244   22876304.0214   22876301.8304
        49.0004         44.0004
 -14313032.37848 -10973773.54547  22218664.4964   22218663.9804   22218664.7204
        51.0004         46.0004
 -13477306.63548 -10470528.03147  22767144.8684   22767144.0804   22767144.2514
        48.0004         43.0004
 -14158427.55348 -10978515.68647  22473128.4474   22473131.1524   22473128.3154
        50.0004         45.0004
 -18797676.45849 -14641967.30047  22128597.8304   22128594.8834   22128597.5884
        54.0004         47.0004
                                  25296222.224
        43.000
  -8645196.39147  -6727901.75946  23665815.0804   23665818.0624   23665815.6014
        45.0004         41.0004
 -16967832.24248 -13196367.45247  22579623.4994   22579620.8334   22579622.9764
        51.0004         45.0004
   4256554.89546   3320539.74446  25173230.6274   25173230.6754   25173230.8754
        40.0004         37.0004
 -10316489.86848  -7862008.12146  22980621.4874   22980622.1104   22980620.6114
        48.0004         41.0004
 15  1  1  1  7 30.0000000  0 12G09G31G06G29G20G25G23G16G03G02G12G10
  -5684954.00647  -4425581.55346  23580300.7594   23580302.1514   23580300.8894
        46.0004         41.0004
  -9554944.23849  -7440691.13748  21520214.8894   21520213.6074   21520215.1724
        55.0004         49.0004
  -6925480.67848  -5388893.85847  22888086.5674   22888089.3694   22888087.1774
        48.0004         44.0004
 -14377046.15048 -11023654.35147  22206483.0434   22206482.5204   22206483.2614
        52.0004         46.0004
 -13404760.18248 -10413998.38047  22780950.0424   22780949.2754   22780949.4244
        49.0004         43.0004
 -14075769.02748 -10914106.47847  22488857.8754   22488860.5804   22488857.7394
        50.0004         44.0004
 -18850247.77449 -14682931.92447  22118593.8134   22118590.8604   22118593.5834
        54.0004         47.0004
                                  25272711.687
        45.000
  -8547318.54547  -6651633.45146  23684440.7134   23684443.7334   23684441.2414
        46.0004         41.0004
 -16992630.98548 -13215691.09347  22574904.4334   22574901.7244   22574903.9034
        52.0004         46.0004
   4376309.81147   3413855.26146  25196019.2254   25196019.2894   25196019.4794
        42.0004         38.0004
 -10394349.19348  -7922677.62746  22965805.2634   22965805.8614   22965804.3854
        48.0004         41.0004
 15  1  1  1  8  0.0000000  0 12G09G31G06G29G20G25G23G16G03G02G12G10
  -5782255.89747  -4501401.17947  23561784.7894   23561786.1884   23561784.9314
        46.0004         42.0004
  -9503524.86549  -7400624.09648  21529999.6724   21529998.3814   21529999.9734
        54.0004         49.0004
  -6863019.41348  -5340222.70547  22899972.5204   22899975.3054   22899973.1294
        48.0004         44.0004
 -14440532.97648 -11073124.58647  22194401.8894   22194401.3454   22194402.1124
        52.0004         46.0004
 -13331733.10948 -10357094.19847  22794846.6494   22794845.8934   22794846.0324
        48.0004         43.0004
 -13992668.63048 -10849352.96847  22504671.3794   22504674.1024   22504671.2564
        49.0004         44.0004
 -18902293.37549 -14723486.90347  22108689.8324   22108686.8714   22108689.5994
        54.0004         47.0004
  -1399943.57257  -1024028.61156  25249215.2944   25249214.3034   25249214.6984
        43.0004         36.0004
  -8449119.92547  -6575115.17046  23703127.3914   23703130.4374   23703127.9224
        45.0004         41.0004
 -17016869.31248 -13234578.07847  22570291.9984   22570289.3124   22570291.4864
        51.0004         45.0004
   4496162.74147   3507247.27146  25218826.3854   25218826.4284   25218826.6544
        43.0004         38.0004
 -10471697.56248  -7982948.91946  22951086.2384   22951086.7954   22951085.3654
        48.0004         41.0004
 15  1  1  1  8 30.0000000  0 12G09G31G06G29G20G25G23G16G03G02G12G10
  -5879226.54447  -4576962.74447  23543331.9094   23543333.3084   23543332.0614
        47.0004         42.0004
  -9451575.79149  -7360144.29348  21539885.2604   21539883.9524   21539885.5384
        55.0004         49.0004
  -6800025.94248  -5291136.85047  22911959.7654   22911962.5384   22911960.3734
        49.0004         44.0004
 -14503484.87848 -11122177.99347  22182422.5124   22182421.9854   22182422.7424
        52.0004         46.0004
 -13258221.48548 -10299812.39847  22808835.4274   22808834.6804   22808834.8094
        49.0004         43.0004
 -13909123.08448 -10784252.57447  22520569.5814   22520572.3154   22520569.4654
        49.0004         44.0004
 -18953805.77649 -14763626.43047  22098887.3464   22098884.3774   22098887.1204
        54.0004         47.0004
  -1523335.00847  -1120177.75946  25225734.7154   25225734.5204   25225734.2494
        43.0004         37.0004
  -8350597.84247  -6498344.92246  23721875.6714   23721878.7744   23721876.1954
        46.0004         41.0004
 -17040540.31248 -13253022.88847  22565787.4714   22565784.7364   22565786.9484
        52.0004         46.0004
   4616116.35747   3600717.65346  25241652.7694   25241652.8124   25241653.0414
        43.0004         38.0004
 -10548526.89048  -8042815.77446  22936465.9954   22936466.5004   22936465.1064
        49.0004         41.0004
 15  1  1  1  9  0.0000000  0 12G09G31G06G29G20G25G23G16G03G02G12G10
  -5975867.87047  -4652267.68047  23524941.6854   23524943.0874   23524941.8334
        47.0004         42.0004
  -9399102.81749  -7319256.26248  21549870.5214   21549869.2404   21549870.8204
        55.0004         49.0004
  -6736507.07548  -5241641.63247  22924046.9944   22924049.7874   22924047.6024
        48.0004         44.0004
 -14565904.40448 -11170816.56247  22170544.4524   22170543.9074   22170544.6794
        52.0004         46.0004
 -13184232.55748 -10242158.70747  22822915.0864   22822914.3224   22822914.4624
        48.0004         43.0004
 -13825139.52648 -10718810.85947  22536551.1504   22536553.8924   22536551.0254
        50.0004         44.0004
 -19004787.65949 -14803352.55347  22089185.8044   22089182.8214   22089185.5794
        54.0004         47.0004
  -1646644.92047  -1216263.44746  25202269.7954   25202269.6034   25202269.1954
        42.0004         37.0004
  -8251759.50447  -6421328.29646  23740684.1824   23740687.3454   23740684.7104
        45.0004         41.0004
 -17063648.14748 -13271028.93847  22561390.1564   22561387.4024   22561389.6414
        51.0004         46.0004
   4736164.34247   3694261.64946  25264497.0534   25264497.0764   25264497.3204
        44.0004         38.0004
 -10624839.23248  -8102279.84246  22921944.1584   22921944.6424   22921943.2834
        48.0004         41.0004
 15  1  1  1  9 30.0000000  0 12G09G31G06G29G20G25G23G16G03G02G12G10
  -6072172.92047  -4727310.59147  23506615.4534   23506616.8524   23506615.6124
        46.0004         42.0004
  -9346103.31949  -7277957.95248  21559955.9994   21559954.7084   21559956.2774
        55.0004         49.0004
  -6672460.49148  -5191735.19647  22936234.6634   22936237.4384   22936235.2704
        49.0004         44.0004
 -14627785.29848 -11219035.38347  22158768.8684   22158768.3254   22158769.0984
        52.0004         46.0004
 -13109763.91748 -10184131.18947  22837085.9734   22837085.2354   22837085.3644
        49.0004         42.0004
 -13740715.98448 -10653026.27247  22552616.4114   22552619.1324   22552616.2774
        49.0004         44.0004
 -19055233.05549 -14842660.66247  22079586.3644   22079583.3954   22079586.1304
        54.0004         47.0004
  -1769866.84646  -1312280.61146  25178821.4914   25178821.4314   25178820.9624
        41.0004         37.0004
  -8152603.12847  -6344063.78346  23759553.1634   23759556.3754   23759553.6934
        46.0004         41.0004
 -17086187.53248 -13288592.05447  22557101.0164   22557098.2734   22557100.4954
        51.0004         46.0004
   4856307.85047   3787879.92646  25287359.6344   25287359.6634   25287359.8984
        44.0004         38.0004
 -10700627.55148  -8161335.58447  22907522.0634   22907522.5204   22907521.1804
        48.0004         42.0004
 15  1  1  1 10  0.0000000  0 12G09G31G06G29G20G25G23G16G03G02G12G10
  -6168145.97647  -4802094.79847  23488352.3914   23488353.8054   23488352.5424
        47.0004         42.0004
  -9292585.96749  -7236256.11348  21570140.0034   21570138.7014   21570140.2964
        54.0004         49.0004
  -6607895.27548  -5141424.62447  22948521.0084   22948523.7794   22948521.6094
        48.0004         43.0004
 -14689132.59548 -11266838.46647  22147094.8684   22147094.3044   22147095.0814
        52.0004         46.0004
 -13034825.66848 -10125737.70547  22851346.2214   22851345.4614   22851345.5954
        48.0004         42.0004
 -13655861.87748 -10586906.14747  22568763.5824   22568766.2904   22568763.4474
        50.0004         44.0004
 -19105147.06949 -14881554.69647  22070088.0504   22070085.0774   22070087.8074
        54.0004         47.0004
  -1893004.69646  -1408232.14046  25155388.9654   25155389.0854   25155388.5604
        41.0004         37.0004
  -8053138.30147  -6266558.84746  23778480.7894   23778484.0064   23778481.3134
        46.0004         41.0004
 -17108164.61148 -13305717.01847  22552918.9054   22552916.1324   22552918.3844
        52.0004         46.0004
   4976538.37847   3881566.25146  25310238.6014   25310238.5814   25310238.8694
        43.0004         38.0004
 -10775895.95848  -8219986.12047  22893198.8334   22893199.2524   22893197.9484
        48.0004         42.0004
 15  1  1  1 10 30.0000000  0 12G09G31G06G29G20G25G23G16G03G02G12G10
  -6263778.19347  -4876613.45547  23470154.2184   23470155.6464   23470154.3644
        47.0004         42.0004
  -9238546.08449  -7194147.12048  21580423.4574   21580422.1574   21580423.7354
        54.0004         49.0004
  -6542807.43448  -5090706.82547  22960906.8014   22960909.5704   22960907.4104
        48.0004         43.0004
 -14749937.40748 -11314218.83747  22135524.0984   22135523.5374   22135524.3114
        52.0004         46.0004
 -12959413.78248 -10066975.21547  22865696.6344   22865695.8764   22865696.0254
        48.0004         42.0004
 -13570573.73948 -10520447.92947  22584993.4144   22584996.1604   22584993.2984
        50.0004         44.0004
 -19154521.78649 -14920028.51647  22060692.3734   22060689.3994   22060692.1314
        54.0004         47.0004
  -2016050.36746  -1504111.97646  25131974.1454   25131974.3324   25131973.7734
        41.0004         36.0004
  -7953361.73147  -6188811.00746  23797467.7524   23797471.0104   23797468.2634
        46.0004         41.0004
 -17129571.98948 -13322398.05347  22548845.1824   22548842.4074   22548844.6514
        51.0004         46.0004
   5096859.47747   3975323.12546  25333134.8014   25333134.7384   25333135.0744
        43.0004         37.0004
 -10850635.87948  -8278224.93647  22878976.2324   22878976.6284   22878975.3564
        48.0004         42.0004
 15  1  1  1 11  0.0000000  0 12G09G31G06G29G20G25G23G16G03G02G12G10
  -6359070.34647  -4950867.08947  23452020.7264   23452022.1724   23452020.8714
        46.0004         42.0004
  -9183988.89149  -7151635.03148  21590805.3464   21590804.0524   21590805.6474
        54.0004         49.0004
  -6477202.61448  -5039586.20247  22973390.9904   22973393.7714   22973391.6044
        48.0004         43.0004
 -14810201.49748 -11361177.86147  22124056.2164   22124055.6574   22124056.4274
        52.0004         46.0004
 -12883534.24248 -10007848.34447  22880136.0854   22880135.3334   22880135.4544
        49.0004         42.0004
 -13484857.22148 -10453655.86747  22601304.7544   22601307.5004   22601304.6244
        50.0004         44.0004
 -19203359.27249 -14958083.74247  22051398.9224   22051395.9784   22051398.6924
        54.0004         47.0004
  -2139004.55656  -1599920.41655  25108576.6044   25108576.8804   25108576.3334
        37.0004         35.0004
  -7853279.47947  -6110824.89346  23816512.8174   23816516.0844   23816513.3294
        45.0004         41.0004
 -17150412.23548 -13338637.17947  22544879.3904   22544876.6214   22544878.8644
        51.0004         46.0004
   5217264.90447   4069145.52846  25356047.2124   25356047.1464   25356047.4764
        44.0004         36.0004
 -10924847.84648  -8336052.36146  22864854.0934   22864854.4664   22864853.2304
        48.0004         41.0004
 15  1  1  1 11 30.0000000  0 11G09G31G06G29G20G25G23G03G02G12G10
  -6454019.61147  -5024853.55147  23433952.4894   23433953.9464   23433952.6444
        47.0004         42.0004
  -9128915.45649  -7108720.68148  21601285.4984   21601284.2014   21601285.7834
        55.0004         49.0004
  -6411082.68448  -4988064.15747  22985973.1964   22985975.9564   22985973.7944
        48.0004         43.0004
 -14869922.70248 -11407713.88347  22112691.6524   22112691.1024   22112691.8914
        52.0004         46.0004
 -12807188.84748  -9948358.43347  22894664.1224   22894663.3754   22894663.4924
        48.0004         42.0004
 -13398714.65648 -10386531.82147  22617697.1714   22617699.9224   22617697.0444
        50.0004         44.0004
 -19251656.71949 -14995718.13747  22042208.2334   22042205.2924   22042208.0094
        54.0004         47.0004
  -7752894.47547  -6032603.10346  23835615.6564   23835619.0014   23835616.1714
        45.0004         41.0004
 -17170684.75748 -13354433.89947  22541021.6294   22541018.8284   22541021.1024
        51.0004         46.0004
   5337753.05546   4163032.47645  25378975.2764   25378975.2054   25378975.5654
        41.0004         35.0004
 -10998529.09848  -8393466.27647  22850832.9904   22850833.3414   22850832.1074
        48.0004         42.0004
 15  1  1  1 12  0.0000000  0 11G09G31G06G29G20G25G23G03G02G12G10
  -6548617.41048  -5098566.13447  23415951.1334   23415952.5874   23415951.2894
        48.0004         42.0004
  -9073321.71249  -7065400.90148  21611864.6384   21611863.3604   21611864.9414
        54.0004         49.0004
  -6344444.03748  -4936137.91947  22998654.0734   22998656.8334   22998654.6854
        48.0004         43.0004
 -14929092.81848 -11453820.46447  22101431.9454   22101431.3974   22101432.1834
        52.0004         47.0004
 -12730374.71648  -9888503.35947  22909281.4414   22909280.7034   22909280.8034
        48.0004         42.0004
 -13312142.59348 -10319073.08547  22634171.2924   22634174.0394   22634171.1794
        49.0004         44.0004
 -19299406.91449 -15032926.09747  22033121.6894   22033118.7624   22033121.4604
        54.0004         47.0004
  -7652203.04147  -5954142.39646  23854776.7184   23854780.0914   23854777.2264
        45.0004         41.0004
 -17190382.43448 -13369782.68747  22537273.2364   22537270.4344   22537272.7134
        51.0004         46.0004
   5458327.06447   4256986.16645  25401919.7944   25401919.7624   25401920.0984
        42.0004         34.0004
 -11071671.18448  -8450460.04447  22836914.4624   22836914.8024   22836913.5904
        48.0004         42.0004
 15  1  1  1 12 30.0000000  0 11G09G31G06G29G20G25G23G03G02G12G10
  -6642871.04647  -5172010.55147  23398015.2854   23398016.7574   23398015.4364
        47.0004         42.0004
  -9017219.29449  -7021684.74048  21622540.5974   21622539.2914   21622540.8804
        55.0004         49.0004
  -6277298.76048  -4883816.88147  23011431.3744   23011434.1134   23011431.9894
        48.0004         43.0004
 -14987719.78948 -11499503.79947  22090275.6044   22090275.0444   22090275.8154
        52.0004         47.0004
 -12653103.81948  -9828292.30447  22923985.6344   22923984.8944   22923985.0104
        49.0004         42.0004
 -13225153.46848 -10251289.34847  22650724.7694   22650727.5244   22650724.6544
        49.0004         44.0004
 -19346618.19549 -15069714.12247  22024137.7034   22024134.7624   22024137.4644
        54.0004         47.0004
  -7551218.00247  -5875452.93146  23873993.6704   23873997.0864   23873994.1904
        45.0004         41.0004
 -17209514.65748 -13384690.85347  22533632.4484   22533629.6484   22533631.9334
        51.0004         46.0004
   5578975.10747   4350997.63445  25424878.3614   25424878.3354   25424878.6724
        42.0004         35.0004
 -11144281.51747  -8507039.43447  22823097.1074   22823097.4214   22823096.2204
        47.0004         42.0004
 15  1  1  1 13  0.0000000  0 12G09G31G06G29G20G25G23G16G03G02G12G10
  -6736770.29247  -5245178.84347  23380146.8844   23380148.3694   23380147.0494
        47.0004         42.0004
  -8960602.03349  -6977567.40948  21633314.5094   21633313.2094   21633314.8054
        54.0004         49.0004
  -6209641.46347  -4831096.89047  23024306.1074   23024308.8434   23024306.7294
        47.0004         43.0004
 -15045793.87948 -11544756.33347  22079224.4524   22079223.8984   22079224.6874
        52.0004         46.0004
 -12575370.74548  -9767721.07347  22938777.7314   22938777.0194   22938777.1054
        48.0004         42.0004
 -13137742.17548 -10183176.67447  22667358.5984   22667361.3654   22667358.4704
        49.0004         44.0004
 -19393280.89749 -15106074.68147  22015258.0914   22015255.1574   22015257.8574
        54.0004         47.0004
  -1590888.72056  -1229179.41856  25015172.5734   25015174.6614   25015173.4694
        41.0004         36.0004
  -7449934.32547  -5796530.71646  23893267.4174   23893270.8604   23893267.9184
        45.0004         40.0004
 -17228072.85548 -13399151.78947  22530100.9524   22530098.1344   22530100.4264
        51.0004         46.0004
   5699702.50346   4445070.93845  25447852.0144   25447851.9734   25447852.3154
        38.0004         35.0004
 -11216349.76347  -8563196.40846  22809382.8884   22809383.1874   22809382.0184
        47.0004         41.0004
 15  1  1  1 13 30.0000000  0 12G09G31G06G29G20G25G23G16G03G02G12G10
  -6830315.14748  -5318070.96947  23362345.9154   23362347.4074   23362346.0654
        48.0004         43.0004
  -8903474.49949  -6933052.45648  21644185.5304   21644184.2334   21644185.8084
        54.0004         48.0004
  -6141477.08948  -4777981.75047  23037277.3284   23037280.0574   23037277.9454
        48.0004         43.0004
 -15103315.99148 -11589578.74747  22068278.3564   22068277.7954   22068278.5764
        52.0004         47.0004
 -12497181.49548  -9706794.51547  22953656.7584   22953656.0724   22953656.1244
        48.0004         42.0004
 -13049913.93248 -10114739.10647  22684071.7764   22684074.5414   22684071.6514
        50.0004         44.0004
 -19439396.61749 -15142009.00047  22006482.5574   22006479.6154   22006482.3314
        54.0004         47.0004
  -1713339.80647  -1324595.90946  24991871.6864   24991872.3534   24991872.1024
        45.0004         37.0004
  -7348357.47847  -5717379.96146  23912596.8704   23912600.3344   23912597.3714
        46.0004         40.0004
 -17246059.25448 -13413167.14947  22526678.2494   22526675.4284   22526677.7234
        51.0004         46.0004
   5820504.72546   4539202.49345  25470839.9514   25470839.9174   25470840.2714
        40.0004         34.0004
 -11287876.16748  -8618931.20947  22795771.8184   22795772.1054   22795770.9474
        48.0004         42.0004
 15  1  1  1 14  0.0000000  0 12G09G31G06G29G20G25G23G16G03G02G12G10
  -6923505.79247  -5390687.04047  23344612.3154   23344613.7904   23344612.4794
        47.0004         43.0004
  -8845841.32349  -6888143.48748  21655152.7584   21655151.4634   21655153.0474
        55.0004         48.0004
  -6072810.84848  -4724475.57447  23050344.0794   23050346.8004   23050344.6784
        48.0004         43.0004
 -15160287.28348 -11633971.98047  22057437.0874   22057436.5444   22057437.3134
        52.0004         47.0004
 -12418540.58948  -9645515.90647  22968621.6414   22968620.9494   22968621.0084
        48.0004         42.0004
 -12961674.03148 -10045980.73347  22700863.2634   22700866.0264   22700863.1454
        49.0004         44.0004
 -19484966.23749 -15177517.81647  21997810.9524   21997808.0244   21997810.7324
        54.0004         47.0004
  -1835685.73147  -1419930.34646  24968590.5774   24968590.9484   24968590.5764
        46.0004         36.0004
  -7246493.22347  -5638005.27946  23931981.0444   23931984.5094   23931981.5564
        44.0004         40.0004
 -17263475.55848 -13426738.24647  22523363.9814   22523361.1774   22523363.4604
        51.0004         46.0004
  24846416.42955  19364588.14555  25493842.0194   25493841.2954   25493842.6804
        35.0004         34.0004
 -11358861.14948  -8674244.13547  22782263.7874   22782264.0814   22782262.9294
        48.0004         42.0004
 15  1  1  1 14 30.0000000  0 11G09G31G06G29G20G25G23G16G03G02G10
  -7016337.64947  -5463023.60047  23326947.0234   23326948.5324   23326947.1844
        47.0004         43.0004
  -8787701.96649  -6842840.08448  21666216.2924   21666215.0124   21666216.5804
        54.0004         48.0004
  -6003642.83248  -4670578.41847  23063506.2994   23063509.0284   23063506.9104
        48.0004         43.0004
 -15216702.92048 -11677932.19247  22046701.5264   22046700.9784   22046701.7524
        52.0004         47.0004
 -12339448.40348  -9583885.70647  22983672.4274   22983671.7664   22983671.8044
        48.0004         42.0004
 -12873023.01148  -9976902.04347  22717733.0194   22717735.7894   22717732.8984
        49.0004         44.0004
 -19529986.12749 -15212598.25247  21989243.9534   21989241.0374   21989243.7244
        54.0004         47.0004
  -1957922.01047  -1515179.36845  24945329.8204   24945330.0994   24945329.8944
        45.0004         35.0004
  -7144342.16347  -5558407.21046  23951419.8714   23951423.3704   23951420.3774
        45.0004         40.0004
 -17280319.18748 -13439863.17047  22520158.7724   22520155.9644   22520158.2404
        51.0004         46.0004
 -11429299.72148  -8729131.29247  22768859.7444   22768860.0284   22768858.8664
        48.0004         42.0004
 15  1  1  1 15  0.0000000  0 11G09G31G06G29G20G25G23G16G03G02G10
  -7108804.83648  -5535075.99347  23309351.1374   23309352.6424   23309351.2954
        48.0004         43.0004
  -8729054.96749  -6797141.11648  21677376.4504   21677375.1494   21677376.7334
        54.0004         48.0004
  -5933972.08648  -4616289.50547  23076764.1834   23076766.9254   23076764.7984
        48.0004         43.0004
 -15272558.41948 -11721455.93947  22036072.5674   22036072.0094   22036072.7954
        52.0004         47.0004
 -12259904.83348  -9521903.79047  22998809.1464   22998808.4834   22998808.5124
        48.0004         42.0004
 -12783959.99648  -9907502.30447  22734681.1504   22734683.9214   22734681.0374
        49.0004         44.0004
 -19574451.19749 -15247246.36447  21980782.5464   21980779.6174   21980782.3094
        55.0004         47.0004
  -2080042.69247  -1610338.37845  24922091.1744   24922091.0474   24922091.1494
        44.0004         34.0004
  -7041903.77647  -5478585.18346  23970913.3054   23970916.8354   23970913.8154
        45.0004         40.0004
 -17296586.17648 -13452538.74847  22517063.2734   22517060.4594   22517062.7424
        51.0004         46.0004
 -11499186.10548  -8783588.19947  22755560.7874   22755561.0624   22755559.9274
        48.0004         42.0004
 15  1  1  1 15 30.0000000  0 11G09G31G06G29G20G25G23G16G03G02G10
  -7200905.66948  -5606842.85847  23291824.9324   23291826.4334   23291825.0814
        48.0004         43.0004
  -8669902.96249  -6751048.64648  21688632.6884   21688631.4054   21688632.9874
        54.0004         48.0004
  -5863802.01048  -4561611.47147  23090117.0764   23090119.7754   23090117.6884
        48.0004         43.0004
 -15327852.45348 -11764542.16247  22025550.4314   22025549.8574   22025550.6534
        52.0004         47.0004
 -12179913.40048  -9459572.88747  23014031.0664   23014030.4424   23014030.4354
        48.0004         42.0004
 -12694488.70748  -9837784.38547  22751706.9594   22751709.7104   22751706.8184
        49.0004         44.0004
 -19618360.97049 -15281461.76447  21972426.7834   21972423.8614   21972426.5494
        54.0004         47.0004
  -2202046.54047  -1705406.31645  24898874.6744   24898874.4254   24898874.5424
        45.0004         35.0004
  -6939181.44647  -5398541.66046  23990460.6114   23990464.1004   23990461.1234
        45.0004         39.0004
 -17312276.77948 -13464765.12047  22514077.3894   22514074.5574   22514076.8654
        51.0004         46.0004
 -11568518.95148  -8837613.71147  22742367.1264   22742367.3834   22742366.2474
        48.0004         42.0004
 15  1  1  1 16  0.0000000  0 11G09G31G06G29G20G25G23G16G03G02G10
  -7292644.09347  -5678327.27747  23274367.6204   23274369.1174   23274367.7984
        47.0004         43.0004
  -8610254.44549  -6704569.27148  21699983.4274   21699982.1344   21699983.7214
        54.0004         48.0004
  -5793141.47048  -4506551.27147  23103563.3064   23103565.9924   23103563.9154
        48.0004         43.0004
 -15382590.10848 -11807194.87647  22015134.1994   22015133.6304   22015134.4184
        52.0004         47.0004
 -12099482.81548  -9396899.80547  23029336.5724   23029335.9764   23029335.9464
        49.0004         42.0004
 -12604618.31648  -9767755.57347  22768808.7654   22768811.5444   22768808.6354
        49.0004         44.0004
 -19661720.49049 -15315248.39547  21964175.7434   21964172.8114   21964175.5054
        55.0004         47.0004
  -2323937.42147  -1800386.22145  24875679.6784   24875679.2744   24875679.1514
        43.0004         35.0004
  -6836185.03247  -5318284.64146  24010060.1314   24010063.5824   24010060.6294
        43.0004         39.0004
 -17327397.17848 -13476547.19647  22511200.0294   22511197.1924   22511199.5024
        51.0004         46.0004
 -11637302.52148  -8891211.25547  22729278.0264   22729278.2544   22729277.1514
        48.0004         43.0004
 15  1  1  1 16 30.0000000  0 12G09G31G06G29G20G25G23G16G03G02G12G10
  -7384009.28748  -5749520.96647  23256981.4394   23256982.9304   23256981.5924
        48.0004         43.0004
  -8550102.78349  -6657697.83648  21711429.8884   21711428.6054   21711430.1844
        54.0004         48.0004
  -5721984.37448  -4451104.19347  23117104.0594   23117106.7564   23117104.6664
        48.0004         43.0004
 -15436761.13248 -11849406.03947  22004825.7844   22004825.2064   22004826.0034
        52.0004         47.0004
 -12018607.16648  -9333879.94147  23044726.7924   23044726.2164   23044726.1584
        48.0004         42.0004
 -12514342.70248  -9697410.94947  22785987.6574   22785990.4444   22785987.5214
        49.0004         44.0004
 -19704519.73649 -15348598.47647  21956031.3324   21956028.3994   21956031.0994
        55.0004         47.0004
  -2445703.94847  -1895269.08946  24852508.1364   24852507.6434   24852507.5384
        44.0004         36.0004
  -6732908.98447  -5237809.88246  24029712.9544   24029716.4464   24029713.4634
        42.0004         38.0004
 -17341938.16348 -13487877.75547  22508432.9164   22508430.0524   22508432.3954
        51.0004         46.0004
     19599.21756     -9856.74455  25609039.3334   25609037.7264   25609036.7854
        40.0004         35.0004
 -11705525.90448  -8944372.26147  22716295.4854   22716295.7174   22716294.6074
        49.0004         43.0004
 15  1  1  1 17  0.0000000  0 11G09G31G06G29G20G25G23G16G03G02G10
  -7475004.80947  -5820426.55947  23239665.5454   23239667.0594   23239665.7034
        47.0004         43.0004
  -8489456.01849  -6610440.60448  21722970.5734   21722969.2904   21722970.8724
        54.0004         48.0004
  -5650339.37648  -4395276.92447  23130737.6594   23130740.3454   23130738.2634
        48.0004         43.0004
 -15490369.18748 -11891178.52147  21994624.4794   21994623.8924   21994624.7054
        52.0004         47.0004
 -11937295.45748  -9270520.36747  23060200.0584   23060199.5134   23060199.4124
        48.0004         42.0004
 -12423670.84648  -9626757.56047  22803241.9374   22803244.7314   22803241.8064
        49.0004         44.0004
 -19746763.54149 -15381515.74847  21947992.6074   21947989.6994   21947992.3814
        55.0004         47.0004
  -2567350.35847  -1990058.51146  24829359.6344   24829359.1164   24829358.9864
        44.0004         36.0004
  -6629362.03047  -5157124.03946  24049417.3474   24049420.8784   24049417.8574
        43.0004         39.0004
 -17355905.56548 -13498761.38147  22505774.9534   22505772.0894   22505774.4354
        51.0004         46.0004
 -11773192.88848  -8997099.75447  22703418.8774   22703419.0794   22703417.9974
        49.0004         43.0004
 15  1  1  1 17 30.0000000  0 11G09G31G06G29G20G25G23G16G03G02G10
  -7565626.09148  -5891040.63947  23222420.9604   23222422.4864   23222421.1164
        48.0004         43.0004
  -8428313.76749  -6562797.28848  21734605.5684   21734604.2664   21734605.8504
        54.0004         48.0004
  -5578206.64948  -4339069.60847  23144464.0474   23144466.7354   23144464.6634
        48.0004         43.0004
 -15543410.73748 -11932509.58947  21984530.9984   21984530.4184   21984531.2284
        53.0004         47.0004
 -11855548.09048  -9206821.28047  23075756.1754   23075755.6854   23075755.5564
        48.0004         42.0004
 -12332603.21848  -9555795.84947  22820571.5784   22820574.3994   22820571.4604
        49.0004         43.0004
 -19788447.81149 -15413996.99147  21940060.3614   21940057.4394   21940060.1404
        54.0004         47.0004
  -2688871.39747  -2084749.98846  24806234.7864   24806234.1734   24806234.0544
        42.0004         36.0004
  -6525544.69647  -5076227.49046  24069173.1984   24069176.7234   24069173.6924
        44.0004         40.0004
 -17369296.41548 -13509195.75547  22503226.7184   22503223.8454   22503226.2034
        51.0004         46.0004
 -11840298.92448  -9049390.11347  22690648.9784   22690649.1774   22690648.1024
        49.0004         42.0004
 15  1  1  1 18  0.0000000  0 12G09G31G06G29G20G25G23G16G03G02G12G10
  -7655869.00748  -5961360.19247  23205248.6074   23205250.2334   23205248.7784
        48.0004         43.0004
  -8366675.75349  -6514767.66848  21746334.8864   21746333.5884   21746335.1694
        54.0004         48.0004
  -5505586.52348  -4282482.47847  23158283.2004   23158285.8784   23158283.8044
        48.0004         43.0004
 -15595882.30848 -11973396.50247  21974545.9694   21974545.3804   21974546.2024
        53.0004         47.0004
 -11773365.46748  -9142782.92347  23091395.0474   23091394.5734   23091394.4304
        48.0004         42.0004
 -12241140.17248  -9484525.92547  22837976.4024   22837979.2144   22837976.2894
        49.0004         43.0004
 -19829569.59049 -15446039.92747  21932235.1334   21932232.2194   21932234.9174
        55.0004         47.0004
  -2810263.36146  -2179341.04146  24783134.6034   24783133.9114   24783133.9784
        39.0004         36.0004
  -6421457.99947  -4995121.03146  24088980.2774   24088983.8334   24088980.7814
        43.0004         40.0004
 -17382108.44948 -13519179.12747  22500788.6594   22500785.7644   22500788.1314
        51.0004         46.0004
   -157083.40357   -151245.36156  25678293.6214   25678292.7104   25678292.6634
        43.0004         37.0004
 -11906839.53048  -9101239.91247  22677986.6994   22677986.8914   22677985.8244
        49.0004         43.0004
 15  1  1  1 18 30.0000000  0 12G09G31G06G29G20G25G23G16G03G02G12G10
  -7745733.33448  -6031384.48147  23188148.1044   23188149.7674   23188148.2584
        48.0004         43.0004
  -8304547.33449  -6466355.91948  21758157.5394   21758156.2434   21758157.8274
        54.0004         48.0004
  -5432484.90848  -4225520.17247  23172193.9774   23172196.6294   23172194.5814
        48.0004         43.0004
 -15647784.88448 -12013840.04747  21964669.2354   21964668.6304   21964669.4454
        53.0004         47.0004
 -11690753.84747  -9078410.35847  23107115.6084   23107115.1624   23107114.9844
        47.0004         42.0004
 -12149287.84748  -9412952.70347  22855455.3344   22855458.1454   22855455.2094
        49.0004         43.0004
 -19870130.62749 -15477645.92147  21924516.6294   21924513.7014   21924516.4054
        55.0004         47.0004
  -1356106.72156  -1046232.10955  24760059.1354   24760058.3284   24760057.6994
        40.0004         35.0004
  -6317107.86247  -4913809.22046  24108837.4374   24108840.9834   24108837.9344
        44.0004         40.0004
 -17394344.47348 -13528713.67547  22498460.2014   22498457.3064   22498459.6694
        51.0004         46.0004
    -35665.42846    -56634.07946  25701399.0324   25701397.8104   25701399.2244
        40.0004         36.0004
 -11972815.99248  -9152650.09547  22665431.7664   22665431.9364   22665430.8894
        49.0004         43.0004
 15  1  1  1 19  0.0000000  0 12G09G31G06G29G20G25G23G16G03G02G12G10
  -7835211.02148  -6101107.39647  23171121.1014   23171122.7774   23171121.2474
        48.0004         43.0004
  -8241924.66749  -6417559.03748  21770074.2294   21770072.9324   21770074.5314
        54.0004         48.0004
  -5358898.41448  -4168180.04947  23186197.0274   23186199.6754   23186197.6174
        48.0004         43.0004
 -15699111.18148 -12053834.56647  21954902.1664   21954901.5594   21954902.3904
        53.0004         47.0004
 -11607709.93747  -9013700.96547  23122918.4504   23122918.0264   23122917.8264
        47.0004         42.0004
 -12057043.06648  -9341073.66847  22873008.9374   22873011.7594   22873008.8194
        48.0004         43.0004
 -19910123.70249 -15508809.32947  21916906.1684   21916903.2434   21916905.9424
        54.0004         47.0004
  -1477232.92756  -1140615.97355  24737009.2604   24737008.6884   24737008.4814
        38.0004         34.0004
  -6212491.68447  -4832290.21546  24128745.3224   24128748.8854   24128745.8154
        44.0004         40.0004
 -17405998.13948 -13537794.42047  22496242.5574   22496239.6474   22496242.0374
        51.0004         46.0004
     85806.56646     38019.27346  25724514.6704   25724514.1754   25724514.7714
        39.0004         37.0004
 -12038219.69948  -9203613.99947  22652985.8384   22652986.0114   22652984.9534
        49.0004         43.0004
 15  1  1  1 19 30.0000000  0 11G09G31G06G29G20G25G23G16G03G02G10
  -7924308.62448  -6170534.16547  23154166.4274   23154168.1224   23154166.5894
        48.0004         43.0004
  -8178818.40249  -6368385.31548  21782082.9574   21782081.6624   21782083.2404
        54.0004         48.0004
  -5284838.43248  -4110470.99447  23200290.1834   23200292.8534   23200290.7864
        48.0004         43.0004
 -15749868.78748 -12093385.94547  21945243.2994   21945242.7064   21945243.5354
        53.0004         47.0004
 -11524245.33647  -8948663.71147  23138801.3264   23138800.9294   23138800.6984
        47.0004         42.0004
 -11964417.44248  -9268897.93247  22890635.0724   22890637.8984   22890634.9414
        49.0004         43.0004
 -19949556.01949 -15539535.77847  21909402.4364   21909399.4954   21909402.2044
        55.0004         47.0004
  -1598228.24356  -1234897.83255  24713984.2674   24713983.6834   24713983.2244
        39.0004         35.0004
  -6107620.81447  -4750572.65746  24148701.5874   24148705.1424   24148702.0774
        45.0004         40.0004
 -17417077.98448 -13546428.02047  22494134.1074   22494131.1904   22494133.5834
        51.0004         46.0004
 -12103057.64448  -9254137.03847  22640647.5464   22640647.7154   22640646.6894
        49.0004         43.0004
 15  1  1  1 20  0.0000000  0 11G09G31G06G29G20G25G23G16G03G02G10
  -8013015.21248  -6239656.34047  23137286.2524   23137287.9744   23137286.4104
        48.0004         44.0004
  -8115221.55649  -6318829.32148  21794185.0164   21794183.7184   21794185.3014
        54.0004         48.0004
  -5210298.80247  -4052388.20447  23214474.6304   23214477.3144   23214475.2414
        47.0004         43.0004
 -15800046.83348 -12132485.72947  21935694.7474   21935694.1494   21935694.9624
        53.0004         47.0004
 -11440353.95047  -8883293.93447  23154765.4134   23154765.0624   23154764.7844
        47.0004         42.0004
 -11871404.74848  -9196420.53547  22908334.8154   22908337.6584   22908334.6844
        49.0004         43.0004
 -19988417.79749 -15569817.65847  21902007.2644   21902004.3264   21902007.0374
        55.0004         47.0004
  -1719081.37646  -1329068.91946  24690986.5684   24690985.9354   24690985.6294
        40.0004         36.0004
  -6002489.59747  -4668652.23246  24168707.4034   24168710.9574   24168707.8954
        46.0004         41.0004
 -17427575.06148 -13554607.53147  22492136.5454   22492133.6314   22492136.0314
        51.0004         46.0004
 -12167318.69648  -9304210.57947  22628419.0724   22628419.2474   22628418.2054
        49.0004         43.0004
 15  1  1  1 20 30.0000000  0 12G09G31G06G29G20G25G23G16G03G02G12G10
  -8101334.30148  -6308476.42947  23120479.7184   23120481.4424   23120479.8594
        48.0004         43.0004
  -8051142.67049  -6268897.71248  21806378.8154   21806377.5194   21806379.1134
        54.0004         48.0004
  -5135288.45447  -3993938.60947  23228748.6324   23228751.3384   23228749.2464
        46.0004         42.0004
 -15849650.23848 -12171137.75047  21926255.5384   21926254.9564   21926255.7654
        53.0004         47.0004
 -11356045.01447  -8817598.78247  23170808.9684   23170808.6444   23170808.3374
        47.0004         42.0004
 -11778014.30048  -9123648.77247  22926106.4404   22926109.2724   22926106.3224
        48.0004         43.0004
 -20026714.22749 -15599659.01447  21894719.6794   21894716.7264   21894719.4484
        54.0004         47.0004
  -1839797.08746  -1423132.98546  24668015.0834   24668014.5844   24668014.2404
        41.0004         37.0004
  -5897107.31147  -4586536.15746  24188760.9824   24188764.5384   24188761.4764
        45.0004         41.0004
 -17437495.27148 -13562337.52547  22490248.7564   22490245.8404   22490248.2324
        51.0004         46.0004
   -306725.97857   -253533.67756  25793911.2914   25793912.2014   25793912.6144
        45.0004         36.0004
 -12231007.26848  -9353838.03247  22616299.5494   22616299.6924   22616298.6634
        49.0004         43.0004
 15  1  1  1 21  0.0000000  0 11G09G31G06G29G20G25G23G16G03G02G10
  -8189256.73648  -6376987.39747  23103748.6164   23103750.3424   23103748.7704
        49.0004         43.0004
  -7986577.27149  -6218587.00348  21818665.1974   21818663.9054   21818665.4854
        54.0004         48.0004
  -5059802.97347  -3935118.73447  23243113.0394   23243115.7314   23243113.6474
        47.0004         42.0004
 -15898670.64548 -12209335.45647  21916927.2594   21916926.6654   21916927.4894
        53.0004         47.0004
 -11271314.21047  -8751574.85747  23186932.7554   23186932.4474   23186932.1404
        47.0004         42.0004
 -11684241.72648  -9050579.21347  22943950.7544   22943953.5864   22943950.6164
        49.0004         43.0004
 -20064436.89049 -15629053.27747  21887541.2834   21887538.3164   21887541.0564
        55.0004         47.0004
  -1960364.97147  -1517081.91946  24645071.7784   24645071.3144   24645071.0614
        42.0004         37.0004
  -5791469.66747  -4504220.95046  24208863.0394   24208866.5534   24208863.5364
        44.0004         41.0004
 -17446831.40248 -13569612.38947  22488472.1364   22488469.1814   22488471.6034
        51.0004         46.0004
 -12294114.26148  -9403012.27847  22604290.6524   22604290.8004   22604289.7804
        49.0004         43.0004
 15  1  1  1 21 30.0000000  0 11G09G31G06G29G20G25G23G16G03G02G10
  -8276788.81948  -6445194.19647  23087091.7924   23087093.5104   23087091.9454
        48.0004         43.0004
  -7921535.85549  -6167905.38448  21831042.1674   21831040.8594   21831042.4624
        54.0004         48.0004
  -4983853.72247  -3875937.50847  23257565.7074   23257568.4084   23257566.3004
        47.0004         42.0004
 -15947115.10548 -12247084.38447  21907708.5824   21907708.0024   21907708.8174
        53.0004         47.0004
 -11186172.89747  -8685231.02747  23203134.6634   23203134.3464   23203134.0334
        47.0004         42.0004
 -11590098.53448  -8977220.90247  22961865.6284   22961868.4544   22961865.4964
        49.0004         43.0004
 -20101593.40249 -15658006.37047  21880470.6094   21880467.6484   21880470.3794
        55.0004         47.0004
  -2080791.72847  -1610920.80246  24622155.2474   24622154.7484   24622154.5384
        44.0004         38.0004
  -5685588.71747  -4421716.36946  24229011.5504   24229015.0854   24229012.0394
        44.0004         40.0004
 -17455591.97648 -13576438.79647  22486805.0454   22486802.1044   22486804.5234
        51.0004         46.0004
 -12356646.11948  -9451738.42447  22592391.2494   22592391.4044   22592390.3774
        49.0004         43.0004
 15  1  1  1 22  0.0000000  0 11G09G31G06G29G20G25G23G16G03G02G10
  -8363918.41548  -6513087.36347  23070511.5634   23070513.2724   23070511.7224
        48.0004         43.0004
  -7856010.67649  -6116846.80948  21843511.1984   21843509.8964   21843511.4844
        54.0004         48.0004
  -4907433.62347  -3816389.40047  23272107.9694   23272110.6784   23272108.5884
        47.0004         42.0004
 -15994972.30948 -12284375.69747  21898601.6434   21898601.0634   21898601.8814
        53.0004         47.0004
 -11100614.46547  -8618562.16246  23219415.9104   23219415.6324   23219415.2964
        47.0004         41.0004
 -11495577.65948  -8903568.24247  22979852.3294   22979855.1514   22979852.2084
        48.0004         43.0004
 -20138172.69649 -15686509.69747  21873509.7884   21873506.8214   21873509.5594
        54.0004         47.0004
  -2201065.45047  -1704640.48646  24599267.8194   24599267.4044   24599267.1854
        45.0004         38.0004
  -5579457.45047  -4339016.69146  24249207.6594   24249211.1974   24249208.1694
        44.0004         40.0004
 -17463766.86148 -13582808.83747  22485249.4074   22485246.4734   22485248.8784
        51.0004         46.0004
 -12418590.99248  -9500007.17147  22580603.5464   22580603.7104   22580602.6854
        49.0004         43.0004
 15  1  1  1 22 30.0000000  0 11G09G31G06G29G20G25G23G16G03G02G10
  -8450653.31448  -6580672.96147  23054006.4354   23054008.1424   23054006.5784
        48.0004         43.0004
  -7790013.80849  -6065420.68748  21856070.0024   21856068.6984   21856070.2874
        54.0004         48.0004
  -4830555.40447  -3756484.30047  23286737.4234   23286740.1334   23286738.0354
        47.0004         42.0004
 -16042251.22348 -12321216.41647  21889604.7874   21889604.1864   21889604.9954
        53.0004         47.0004
 -11014651.71447  -8551578.18446  23235774.0854   23235773.7904   23235773.4444
        47.0004         41.0004
 -11400692.04448  -8829631.36747  22997908.4334   22997911.2624   22997908.3064
        48.0004         43.0004
 -20174183.67149 -15714570.16247  21866657.1054   21866654.1224   21866656.8714
        54.0004         47.0004
  -2321193.45147  -1798246.82846  24576408.2804   24576407.9304   24576407.7074
        45.0004         38.0004
  -5473089.02947  -4256132.24646  24269448.9364   24269452.4914   24269449.4284
        44.0004         40.0004
 -17471366.21548 -13588730.34047  22483803.2414   22483800.2884   22483802.7124
        51.0004         46.0004
 -12479956.82248  -9547824.64147  22568925.9754   22568926.1144   22568925.1044
        49.0004         43.0004
 15  1  1  1 23  0.0000000  0 11G09G31G06G29G20G25G23G16G03G02G10
  -8536981.21148  -6647941.43047  23037578.7734   23037580.4644   23037578.9234
        49.0004         44.0004
  -7723537.67649  -6013621.11748  21868720.0014   21868718.7064   21868720.2904
        54.0004         48.0004
  -4753211.73247  -3696216.51047  23301455.4414   23301458.1344   23301456.0544
        47.0004         42.0004
 -16088939.82848 -12357597.14547  21880720.2214   21880719.6384   21880720.4574
        53.0004         47.0004
 -10928277.48747  -8484273.64946  23252210.5944   23252210.3014   23252209.9644
        47.0004         41.0004
 -11305434.49948  -8755404.69047  23016035.3264   23016038.1364   23016035.2074
        48.0004         43.0004
 -20209615.29949 -15742179.22247  21859914.6804   21859911.7024   21859914.4534
        55.0004         47.0004
  -2441163.67047  -1891730.16346  24553578.7274   24553578.4314   24553578.2144
        45.0004         39.0004
  -5366476.65747  -4173057.87746  24289736.7354   24289740.3554   24289737.2434
        44.0004         38.0004
 -17478379.67948 -13594195.32047  22482468.5764   22482465.6174   22482468.0524
        51.0004         46.0004
 -12540731.62248  -9595181.57347  22557360.8614   22557360.9984   22557360.0004
        49.0004         43.0004
 15  1  1  1 23 30.0000000  0 11G09G31G06G29G20G25G23G16G03G02G10
  -8622916.58448  -6714904.03247  23021225.8004   23021227.4914   23021225.9324
        48.0004         44.0004
  -7656600.66149  -5961462.41248  21881457.6964   21881456.4014   21881457.9874
        54.0004         48.0004
  -4675422.20047  -3635601.31647  23316258.3044   23316261.0214   23316258.9094
        46.0004         42.0004
 -16135053.85048 -12393530.14347  21871945.0224   21871944.4294   21871945.2404
        53.0004         47.0004
 -10841511.52947  -8416663.86046  23268721.6424   23268721.3554   23268721.0154
        47.0004         41.0004
 -11209824.71648  -8680903.55747  23034229.2684   23034232.0804   23034229.1354
        48.0004         43.0004
 -20244483.24949 -15769349.04547  21853279.5204   21853276.5424   21853279.2944
        54.0004         47.0004
  -2560990.29047  -1985101.72446  24530776.6104   24530776.3644   24530776.1184
        46.0004         39.0004
  -5259639.35047  -4089807.99446  24310067.1884   24310070.7664   24310067.6704
        42.0004         38.0004
 -17484823.94948 -13599216.76047  22481242.2294   22481239.2344   22481241.6974
        52.0004         46.0004
 -12600930.34048  -9642089.65547  22545905.4184   22545905.5484   22545904.5474
        49.0004         43.0004
 15  1  1  1 24  0.0000000  0 11G09G31G06G29G20G25G23G16G03G02G10
  -8708432.15248  -6781539.50547  23004952.6934   23004954.3814   23004952.8454
        49.0004         44.0004
  -7589180.56249  -5908927.27148  21894287.3134   21894286.0084   21894287.6024
        54.0004         48.0004
  -4597164.55347  -3574621.37647  23331150.2844   23331152.9974   23331150.8814
        47.0004         42.0004
 -16180567.09448 -12428995.03347  21863284.1604   21863283.5714   21863284.3844
        53.0004         47.0004
 -10754331.71047  -8348731.60046  23285311.4614   23285311.1924   23285310.8194
        46.0004         41.0004
 -11113840.64247  -8606110.81447  23052494.4604   23052497.2724   23052494.3364
        47.0004         43.0004
 -20278761.43649 -15796059.31547  21846756.5884   21846753.6174   21846756.3594
        54.0004         47.0004
  -2680645.82447  -2078339.93146  24508007.0544   24508006.8234   24508006.5644
        46.0004         39.0004
  -5152555.69846  -4006366.22946  24330444.5474   24330448.1484   24330445.0464
        40.0004         37.0004
 -17490674.15248 -13603775.29647  22480128.9194   22480125.9174   22480128.3984
        51.0004         46.0004
 -12660526.04648  -9688527.84147  22534564.7204   22534564.8454   22534563.8484
        49.0004         43.0004
 15  1  1  1 24 30.0000000  0 11G09G31G06G29G20G25G23G16G03G02G10
  -8793537.88648  -6847855.61447  22988757.5844   22988759.2514   22988757.7124
        49.0004         44.0004
  -7521291.44249  -5856026.64948  21907206.1704   21907204.8684   21907206.4594
        54.0004         48.0004
  -4518453.84547  -3513288.41347  23346128.4734   23346131.2024   23346129.0754
        46.0004         42.0004
 -16225490.56248 -12464000.33347  21854735.4994   21854734.9044   21854735.7324
        53.0004         47.0004
 -10666753.26747  -8280488.75046  23301977.1454   23301976.9084   23301976.5084
        47.0004         41.0004
 -11017497.22648  -8531038.07347  23070828.0464   23070830.8664   23070827.9104
        48.0004         43.0004
 -20312461.19649 -15822318.86747  21840343.7454   21840340.7694   21840343.5074
        55.0004         47.0004
  -2800139.91747  -2171452.19846  24485268.0934   24485267.8554   24485267.6184
        45.0004         38.0004
  -5045240.88546  -3922744.34346  24350865.9194   24350869.5294   24350866.4194
        41.0004         37.0004
 -17495942.32048 -13607880.29547  22479126.3814   22479123.3604   22479125.8584
        51.0004         46.0004
 -12719528.75448  -9734503.91447  22523336.8294   22523336.9264   22523335.9584
        49.0004         43.0004
 15  1  1  1 25  0.0000000  0 11G09G31G06G29G20G25G23G16G03G02G10
  -8878230.94748  -6913850.13347  22972640.9744   22972642.6154   22972641.1034
        49.0004         44.0004
  -7452935.16648  -5802762.01048  21920213.9344   21920212.6434   21920214.2154
        53.0004         48.0004
  -4439292.21247  -3451604.05547  23361192.4634   23361195.2064   23361193.0504
        47.0004         42.0004
 -16269822.18848 -12498544.45547  21846299.4764   21846298.8714   21846299.6864
        53.0004         47.0004
 -10578778.53747  -8211937.09046  23318718.2404   23318718.0314   23318717.6134
        47.0004         41.0004
 -10920796.76147  -8455687.09747  23089229.5484   23089232.3994   23089229.4284
        47.0004         43.0004
 -20345580.82249 -15848126.37747  21834041.2864   21834038.3284   21834041.0624
        55.0004         47.0004
  -2919470.65347  -2264437.41246  24462560.3894   24462560.1834   24462559.9234
        45.0004         37.0004
  -4937697.12647  -3838944.08246  24371330.8674   24371334.4884   24371331.3674
        43.0004         37.0004
 -17500628.26148 -13611531.62247  22478234.6234   22478231.5964   22478234.0964
        51.0004         46.0004
 -12777936.08748  -9780016.05447  22512222.2234   22512222.3104   22512221.3614
        49.0004         43.0004
 15  1  1  1 25 30.0000000  0 11G09G31G06G29G20G25G23G16G03G02G10
  -8962509.62048  -6979521.76747  22956603.2274   22956604.8644   22956603.3694
        49.0004         44.0004
  -7384114.34848  -5749135.39548  21933310.1024   21933308.7974   21933310.3944
        53.0004         48.0004
  -4359682.96247  -3389570.92747  23376341.6374   23376344.3924   23376342.2394
        47.0004         42.0004
 -16313560.58448 -12532626.33647  21837976.3514   21837975.7504   21837976.5724
        53.0004         47.0004
 -10490410.79847  -8143079.16146  23335534.0884   23335533.8864   23335533.4664
        47.0004         41.0004
 -10823742.57748  -8380060.48447  23107698.3584   23107701.2084   23107698.2384
        48.0004         43.0004
 -20378119.78149 -15873481.42248  21827849.3384   21827846.3774   21827849.1234
        55.0004         48.0004
  -3038635.00947  -2357292.75246  24439884.1664   24439883.9384   24439883.7274
        43.0004         37.0004
  -4829928.40047  -3754968.46646  24391838.5844   24391842.2144   24391839.0874
        42.0004         38.0004
 -17504732.19848 -13614729.50647  22477453.6824   22477450.6504   22477453.1524
        52.0004         46.0004
 -12835746.73348  -9825063.23447  22501221.1684   22501221.2284   22501220.2924
        49.0004         43.0004
 15  1  1  1 26  0.0000000  0 11G09G31G06G29G20G25G23G16G03G02G10
  -9046369.94048  -7044867.40847  22940645.0994   22940646.7094   22940645.2384
        49.0004         44.0004
  -7314829.67249  -5695147.33148  21946494.5384   21946493.2254   21946494.8174
        54.0004         48.0004
  -4279627.08948  -3327189.71247  23391575.7594   23391578.4904   23391576.3654
        48.0004         42.0004
 -16356703.45648 -12566244.13747  21829766.5214   21829765.9084   21829766.7344
        53.0004         47.0004
 -10401651.36747  -8073916.02346  23352424.5024   23352424.3114   23352423.8794
        47.0004         41.0004
 -10726335.94947  -8304159.25047  23126234.2464   23126237.1174   23126234.1234
        47.0004         42.0004
 -20410075.53549 -15898382.02147  21821768.3694   21821765.4034   21821768.1424
        55.0004         47.0004
  -3157629.32247  -2450015.71046  24417240.4104   24417240.1794   24417239.9604
        42.0004         36.0004
  -4721935.94947  -3670818.73946  24412389.0344   24412392.7134   24412389.5314
        43.0004         38.0004
 -17508252.44648 -13617472.55347  22476783.8034   22476780.7684   22476783.2764
        51.0004         46.0004
 -12892957.28448  -9869642.85947  22490334.3494   22490334.4014   22490333.4664
        49.0004         43.0004
 15  1  1  1 26 30.0000000  0 11G09G31G06G29G20G25G23G16G03G02G10
  -9129811.16948  -7109886.48947  22924766.7154   22924768.3144   22924766.8634
        49.0004         44.0004
  -7245084.75448  -5640800.63948  21959766.5414   21959765.2354   21959766.8254
        53.0004         48.0004
  -4199128.99247  -3264463.91247  23406894.0334   23406896.7744   23406894.6464
        47.0004         42.0004
 -16399251.14748 -12599398.18547  21821669.9584   21821669.3654   21821670.1764
        53.0004         47.0004
 -10312504.59647  -8004451.08846  23369388.6194   23369388.4604   23369388.0094
        47.0004         41.0004
 -10628581.08748  -8227986.63147  23144836.3754   23144839.2624   23144836.2584
        48.0004         42.0004
 -20441448.25249 -15922828.29348  21815798.3324   21815795.3684   21815798.1134
        55.0004         48.0004
  -3276452.59947  -2542605.29345  24394629.1264   24394628.8934   24394628.6704
        42.0004         35.0004
  -4613723.92347  -3586497.77346  24432981.1864   24432984.8684   24432981.6744
        43.0004         38.0004
 -17511190.58648 -13619761.99047  22476224.6614   22476221.6534   22476224.1484
        51.0004         46.0004
 -12949567.12148  -9913754.40147  22479561.8334   22479561.8864   22479560.9624
        49.0004         43.0004
 15  1  1  1 27  0.0000000  0 11G09G31G06G29G20G25G23G16G03G02G10
  -9212829.61048  -7174576.15847  22908968.8134   22908970.4134   22908968.9554
        49.0004         44.0004
  -7174879.90348  -5586095.55448  21973126.0894   21973124.7834   21973126.3724
        53.0004         48.0004
  -4118189.95547  -3201394.51547  23422296.2094   23422298.9454   23422296.8144
        47.0004         42.0004
 -16441200.33948 -12632085.86347  21813687.2954   21813686.6934   21813687.5064
        53.0004         47.0004
 -10222972.15847  -7934685.60746  23386426.1264   23386425.9644   23386425.5014
        47.0004         41.0004
 -10530479.24747  -8151543.53547  23163504.4544   23163507.3114   23163504.3404
        47.0004         42.0004
 -20472235.97449 -15946818.73048  21809939.6424   21809936.6744   21809939.4134
        55.0004         48.0004
  -3395100.76947  -2635058.28745  24372051.0604   24372050.7544   24372050.5774
        42.0004         35.0004
  -4505293.88747  -3502006.81046  24453614.7294   24453618.3744   24453615.2064
        44.0004         38.0004
 -17513545.21448 -13621596.77747  22475776.6124   22475773.5804   22475776.0844
        51.0004         46.0004
 -13005572.92848  -9957395.24347  22468904.2404   22468904.2884   22468903.3694
        49.0004         43.0004
 15  1  1  1 27 30.0000000  0 11G09G31G06G29G20G25G23G16G03G02G10
  -9295422.88248  -7238934.53147  22893251.8154   22893253.4064   22893251.9634
        49.0004         44.0004
  -7104217.88548  -5531034.24247  21986572.6274   21986571.3164   21986572.8994
        53.0004         47.0004
  -4036812.77747  -3137983.73846  23437781.7914   23437784.5194   23437782.3864
        46.0004         41.0004
 -16482550.32248 -12664306.62147  21805818.6424   21805818.0574   21805818.8564
        53.0004         47.0004
 -10133056.93547  -7864621.87446  23403536.4744   23403536.3364   23403535.8594
        47.0004         41.0004
 -10432033.55648  -8074832.61347  23182238.0664   23182240.9094   23182237.9314
        48.0004         43.0004
 -20502437.25249 -15970352.19748  21804192.5214   21804189.5604   21804192.2944
        55.0004         48.0004
  -3513572.20447  -2727373.57045  24349506.5814   24349506.2444   24349506.1044
        43.0004         35.0004
  -4396648.88047  -3417348.33646  24474289.1474   24474292.8024   24474289.6484
        44.0004         38.0004
 -17515316.22748 -13622976.78447  22475439.5894   22475436.5664   22475439.0664
        51.0004         46.0004
 -13060972.90248 -10000564.05847  22458361.9944   22458362.0304   22458361.1214
        50.0004         43.0004
 15  1  1  1 28  0.0000000  0 11G09G31G06G29G20G25G23G16G03G02G10
  -9377586.57248  -7302958.16347  22877616.5774   22877618.1684   22877616.7174
        49.0004         44.0004
  -7033098.66648  -5475616.67847  22000106.1554   22000104.8624   22000106.4494
        53.0004         47.0004
  -3954998.06847  -3074232.01446  23453350.6134   23453353.3184   23453351.2104
        47.0004         41.0004
 -16523297.82948 -12696057.91547  21798064.6474   21798064.0454   21798064.8624
        53.0004         47.0004
 -10042759.32247  -7794260.07346  23420719.5374   23420719.3704   23420718.9114
        47.0004         40.0004
 -10333244.50447  -7997854.09947  23201036.9814   23201039.8134   23201036.8374
        47.0004         43.0004
 -20532049.15649 -15993426.42148  21798557.5794   21798554.6144   21798557.3554
        55.0004         48.0004
  -3631861.81647  -2819547.56246  24326997.0254   24326996.7284   24326996.5424
        42.0004         36.0004
  -4287789.60947  -3332522.98046  24495004.4104   24495008.0944   24495004.9034
        43.0004         38.0004
 -17516501.59848 -13623900.44147  22475214.0064   22475210.9974   22475213.4884
        51.0004         46.0004
 -13115763.22048 -10043257.80447  22447935.7254   22447935.7584   22447934.8504
        49.0004         43.0004
 15  1  1  1 28 30.0000000  0 11G09G31G06G29G20G25G23G16G03G02G10
  -9459324.02948  -7366649.65747  22862062.4314   22862064.0164   22862062.5704
        49.0004         44.0004
  -6961529.83748  -5419848.75347  22013725.2404   22013723.9524   22013725.5274
        53.0004         47.0004
  -3872754.23647  -3010145.91146  23469001.0964   23469003.8044   23469001.6864
        46.0004         41.0004
 -16563446.62848 -12727342.68048  21790424.5804   21790423.9644   21790424.7964
        53.0004         48.0004
  -9952087.95647  -7723607.08446  23437973.7244   23437973.5874   23437973.1014
        46.0004         40.0004
 -10234120.74648  -7920614.86447  23219899.6404   23219902.4894   23219899.5064
        48.0004         42.0004
 -20561076.54749 -16016045.18248  21793033.8694   21793030.9024   21793033.6444
        55.0004         48.0004
  -3749973.48747  -2911583.04046  24304521.4254   24304521.2514   24304520.9244
        44.0004         37.0004
  -4178724.52647  -3247537.06346  24515758.7184   24515762.3524   24515759.2014
        43.0004         38.0004
 -17517107.04448 -13624372.21247  22475098.8024   22475095.7734   22475098.2734
        51.0004         46.0004
 -13169947.43648 -10085479.24947  22437624.8064   22437624.8274   22437623.9204
        50.0004         43.0004
 15  1  1  1 29  0.0000000  0 11G09G31G06G29G20G25G23G16G03G02G10
  -9540627.27648  -7430002.81547  22846590.9324   22846592.5064   22846591.0704
        49.0004         45.0004
  -6889508.08848  -5363727.90747  22027430.5344   22027429.2204   22027430.8144
        53.0004         47.0004
  -3790078.31247  -2945723.12546  23484733.8154   23484736.5204   23484734.4014
        46.0004         41.0004
 -16602989.75948 -12758155.48848  21782899.7434   21782899.1444   21782899.9674
        53.0004         48.0004
  -9861040.20047  -7652660.75246  23455299.5154   23455299.3674   23455298.8934
        46.0004         41.0004
 -10134659.06348  -7843112.25547  23238826.5644   23238829.4174   23238826.4504
        48.0004         42.0004
 -20589512.57449 -16038203.12848  21787622.6574   21787619.7104   21787622.4364
        55.0004         48.0004
  -3867897.61447  -3003472.34346  24282081.4904   24282081.3784   24282081.0114
        45.0004         38.0004
  -4069451.13847  -3162388.84446  24536552.6614   24536556.2484   24536553.1454
        44.0004         39.0004
 -17517126.84448 -13624387.59847  22475095.0014   22475091.9744   22475094.4814
        52.0004         46.0004
 -13223517.97448 -10127222.47447  22427430.6324   22427430.6424   22427429.7474
        49.0004         43.0004
 15  1  1  1 29 30.0000000  0 11G09G31G06G29G20G25G23G16G03G02G10
  -9621496.68948  -7493017.93147  22831201.9714   22831203.5504   22831202.1194
        49.0004         44.0004
  -6817037.99448  -5307257.70147  22041221.1254   22041219.8204   22041221.4074
        53.0004         47.0004
  -3706975.71047  -2880967.83246  23500547.6964   23500550.3864   23500548.2964
        46.0004         41.0004
 -16641929.11248 -12788497.84248  21775489.8414   21775489.2214   21775490.0544
        53.0004         48.0004
  -9769621.78647  -7581425.77546  23472695.9744   23472695.8684   23472695.3654
        46.0004         40.0004
 -10034865.07147  -7765350.71447  23257816.7344   23257819.5994   23257816.6114
        47.0004         42.0004
 -20617359.03549 -16059901.66747  21782323.6614   21782320.7124   21782323.4244
        55.0004         47.0004
  -3985634.14347  -3095214.88146  24259676.8404   24259676.6254   24259676.3134
        44.0004         38.0004
  -3959974.80347  -3077082.42846  24557385.1774   24557388.7364   24557385.6764
        45.0004         40.0004
 -17516564.07848 -13623949.09247  22475202.1064   22475199.0764   22475201.5894
        51.0004         46.0004
 -13276475.82548 -10168488.29447  22417353.0454   22417353.0564   22417352.1774
        50.0004         43.0004
 15  1  1  1 30  0.0000000  0 11G09G31G06G29G20G25G23G16G03G02G10
  -9701926.54248  -7555690.54347  22815896.6774   22815898.2734   22815896.8234
        50.0004         45.0004
  -6744118.62248  -5250437.41447  22055097.2134   22055095.9214   22055097.5054
        53.0004         47.0004
  -3623445.84747  -2815879.60246  23516442.8864   23516445.5834   23516443.4814
        46.0004         41.0004
 -16680260.13248 -12818366.17148  21768195.6764   21768195.0804   21768195.9094
        53.0004         48.0004
  -9677832.42547  -7509901.67046  23490162.9774   23490162.8804   23490162.3544
        46.0004         40.0004
  -9934738.08347  -7687329.71247  23276870.2814   23276873.1554   23276870.1654
        47.0004         42.0004
 -20644611.62749 -16081137.47148  21777137.6774   21777134.7314   21777137.4424
        55.0004         48.0004
  -4103178.20347  -3186807.41846  24237308.7574   24237308.4874   24237308.2614
        46.0004         39.0004
  -3850295.22547  -2991617.62046  24578256.3524   24578259.8604   24578256.8484
        44.0004         40.0004
 -17515415.13348 -13623053.81247  22475420.7434   22475417.7144   22475420.2254
        51.0004         46.0004
 -13328815.66748 -10209272.55647  22407393.1034   22407393.0794   22407392.2154
        50.0004         44.0004
 15  1  1  1 30 30.0000000  0 11G09G31G06G29G20G25G23G16G03G02G10
  -9781918.70048  -7618022.05247  22800674.6604   22800676.2174   22800674.7954
        49.0004         45.0004
  -6670756.43548  -5193272.07747  22069057.5904   22069056.2794   22069057.8684
        53.0004         47.0004
  -3539495.75847  -2750463.95746  23532418.0634   23532420.7564   23532418.6664
        46.0004         41.0004
 -16717985.67448 -12847762.69048  21761016.7414   21761016.1394   21761016.9624
        53.0004         48.0004
  -9585678.34047  -7438093.33646  23507699.3464   23507699.2554   23507698.7204
        46.0004         40.0004
  -9834285.22847  -7609054.82847  23295985.8914   23295988.7724   23295985.7654
        47.0004         42.0004
 -20671273.57449 -16101913.02548  21772064.0884   21772061.1454   21772063.8684
        55.0004         48.0004
  -4220531.61347  -3278251.65946  24214977.1724   24214976.9094   24214976.6914
        44.0004         39.0004
  -3740419.71747  -2906000.25346  24599164.9174   24599168.3984   24599165.3964
        43.0004         40.0004
 -17513684.54148 -13621705.31647  22475750.0814   22475747.0514   22475749.5464
        51.0004         46.0004
 -13380540.35248 -10249577.50747  22397550.2114   22397550.1964   22397549.3424
        49.0004         43.0004
 15  1  1  1 31  0.0000000  0 11G09G31G06G29G20G25G23G16G03G02G10
  -9861469.23548  -7680009.47847  22785536.6944   22785538.2504   22785536.8284
        50.0004         45.0004
  -6596951.89248  -5135762.04247  22083102.1154   22083100.8094   22083102.4014
        53.0004         47.0004
  -3455126.31047  -2684721.53646  23548473.0314   23548475.7434   23548473.6354
        45.0004         41.0004
 -16755102.79648 -12876685.11748  21753953.5924   21753952.9834   21753953.8044
        53.0004         48.0004
  -9493160.90147  -7366001.89346  23525304.8794   23525304.8184   23525304.2524
        46.0004         40.0004
  -9733507.36347  -7530526.68447  23315163.3414   23315166.2204   23315163.1964
        47.0004         42.0004
 -20697342.17249 -16122226.22548  21767103.4154   21767100.4554   21767103.1774
        55.0004         48.0004
  -4337689.67247  -3369543.52946  24192682.6174   24192682.3384   24192682.1624
        45.0004         40.0004
  -3630349.31647  -2820231.07246  24620110.5954   24620114.0664   24620111.0724
        43.0004         39.0004
 -17511370.28448 -13619901.97147  22476190.4514   22476187.4134   22476189.9274
        51.0004         46.0004
 -13431645.80348 -10289399.93947  22387825.1814   22387825.1594   22387824.3024
        50.0004         44.0004
 15  1  1  1 31 30.0000000  0 11G09G31G06G29G20G25G23G16G03G02G10
  -9940574.45748  -7741649.91947  22770483.4774   22770485.0494   22770483.6114
        50.0004         45.0004
  -6522705.71348  -5077907.89147  22097230.7154   22097229.4084   22097230.9994
        53.0004         47.0004
  -3370339.02047  -2618653.52146  23564607.5144   23564610.2304   23564608.1234
        45.0004         41.0004
 -16791608.71548 -12905131.28748  21747006.7394   21747006.1434   21747006.9524
        53.0004         48.0004
  -9400282.05647  -7293628.88846  23542979.2394   23542979.1914   23542978.6094
        46.0004         40.0004
  -9632405.61947  -7451746.03347  23334402.3074   23334405.1744   23334402.1804
        47.0004         42.0004
 -20722815.02349 -16142075.20048  21762256.0874   21762253.1284   21762255.8534
        55.0004         48.0004
  -4454648.76647  -3460680.48046  24170426.0454   24170425.7744   24170425.5814
        44.0004         39.0004
  -3520085.03046  -2734310.72746  24641093.0784   24641096.5364   24641093.5714
        40.0004         38.0004
 -17508471.52048 -13617643.19547  22476742.0564   22476739.0214   22476741.5374
        51.0004         46.0004
 -13482128.99548 -10328737.46647  22378218.5114   22378218.5134   22378217.6354
        50.0004         44.0004
 15  1  1  1 32  0.0000000  0 11G09G31G06G29G20G25G23G16G03G02G10
 -10019230.14148  -7802940.02547  22755515.7644   22755517.3204   22755515.8944
        50.0004         45.0004
  -6448018.16548  -5019709.79947  22111443.2734   22111441.9744   22111443.5574
        53.0004         47.0004
  -3285134.88447  -2552260.72746  23580821.3584   23580824.0774   23580821.9524
        46.0004         41.0004
 -16827500.62949 -12933099.01348  21740176.7394   21740176.1424   21740176.9534
        54.0004         48.0004
  -9307042.37547  -7220974.60646  23560722.1544   23560722.1224   23560721.5404
        45.0004         40.0004
  -9530981.48347  -7372714.27647  23353702.7044   23353705.5984   23353702.5674
        47.0004         42.0004
 -20747689.63349 -16161458.01448  21757522.6134   21757519.6544   21757522.3814
        55.0004         48.0004
  -4571404.80047  -3551659.24946  24148208.1104   24148207.8764   24148207.6774
        42.0004         38.0004
  -3409628.27546  -2648240.28646  24662112.1224   24662115.5214   24662112.6154
        41.0004         38.0004
 -17504986.43948 -13614927.54947  22477405.2424   22477402.2204   22477404.7314
        51.0004         46.0004
 -13531986.77648 -10367587.67947  22368730.9004   22368730.8814   22368730.0114
        50.0004         44.0004
 15  1  1  1 32 30.0000000  0 11G09G31G06G29G20G25G23G16G03G02G10
 -10097438.05948  -7863881.26647  22740633.3034   22740634.8594   22740633.4434
        50.0004         45.0004
  -6372895.32348  -4961172.51747  22125738.6824   22125737.3704   22125738.9634
        53.0004         47.0004
  -3199520.45347  -2485548.18146  23597113.2284   23597115.9704   23597113.8314
        45.0004         41.0004
 -16862781.82848 -12960590.83748  21733462.9314   21733462.3214   21733463.1564
        53.0004         48.0004
  -9213448.95947  -7148044.66146  23578532.3794   23578532.3534   23578531.7584
        45.0004         40.0004
  -9429241.38047  -7293436.33247  23373063.2284   23373066.1454   23373063.1064
        45.0004         42.0004
 -20771969.06349 -16180377.07048  21752902.3934   21752899.4614   21752902.1774
        55.0004         48.0004
  -4687958.59747  -3642480.49046  24126028.7244   24126028.5284   24126028.2834
        45.0004         39.0004
  -3298986.20046  -2562025.71446  24683166.6444   24683170.0464   24683167.1174
        39.0004         37.0004
 -17500919.16048 -13611758.22247  22478179.2044   22478176.1824   22478178.6854
        51.0004         45.0004
 -13581220.85348 -10405951.86747  22359361.9494   22359361.9124   22359361.0704
        50.0004         44.0004
 15  1  1  1 33  0.0000000  0 11G09G31G06G29G20G25G23G16G03G02G10
 -10175195.74448  -7924471.64047  22725836.4884   22725838.0374   22725836.6164
        50.0004         45.0004
  -6297339.53948  -4902297.89447  22140116.4694   22140115.1764   22140116.7574
        53.0004         47.0004
  -3113498.37947  -2418517.95147  23613482.6544   23613485.3814   23613483.2524
        46.0004         42.0004
 -16897450.40448 -12987605.30648  21726865.7154   21726865.1184   21726865.9234
        53.0004         48.0004
  -9119504.40147  -7074841.09846  23596409.4294   23596409.4044   23596408.8144
        45.0004         40.0004
  -9327188.02147  -7213914.31847  23392483.4064   23392486.3434   23392483.2744
        46.0004         42.0004
 -20795652.31249 -16198831.56448  21748395.6434   21748392.6954   21748395.4054
        55.0004         48.0004
  -4804307.26047  -3733141.77546  24103888.3054   24103888.1044   24103887.8784
        42.0004         38.0004
  -3188161.21346  -2475668.59846  24704255.9684   24704259.3584   24704256.4254
        40.0004         37.0004
 -17496269.75448 -13608135.29747  22479063.9554   22479060.9084   22479063.4414
        51.0004         46.0004
 -13629829.27448 -10443828.46747  22350111.9904   22350111.9534   22350111.1274
        50.0004         44.0004
 15  1  1  1 33 30.0000000  0 11G09G31G06G29G20G25G23G16G03G02G10
 -10252500.30548  -7984708.95247  22711125.8994   22711127.4664   22711126.0464
        50.0004         45.0004
  -6221352.33548  -4843087.09447  22154576.3654   22154575.0644   22154576.6474
        53.0004         47.0004
  -3027070.99247  -2351171.93247  23629929.2434   23629931.9704   23629929.8404
        46.0004         42.0004
 -16931504.73849 -13014141.15648  21720385.4034   21720384.7964   21720385.6034
        54.0004         48.0004
  -9025211.15547  -7001365.97446  23614352.9334   23614352.9494   23614352.3064
        46.0004         40.0004
  -9224823.50647  -7134149.90147  23411962.8344   23411965.7944   23411962.7104
        47.0004         42.0004
 -20818738.05849 -16216820.44048  21744002.5494   21743999.6184   21744002.3194
        55.0004         48.0004
  -4920448.11847  -3823641.02846  24081787.3164   24081787.1284   24081786.8944
        45.0004         38.0004
  -3077155.68846  -2389170.81746  24725379.6354   24725383.0364   24725380.1074
        41.0004         38.0004
 -17491037.90248 -13604058.54347  22480059.5544   22480056.5194   22480059.0314
        51.0004         46.0004
 -13677810.03548 -10481215.98547  22340981.4904   22340981.4334   22340980.6144
        50.0004         44.0004
 15  1  1  1 34  0.0000000  0 11G09G31G06G29G20G25G23G16G03G02G10
 -10329345.07048  -8044587.97747  22696502.8174   22696504.3684   22696502.9674
        50.0004         45.0004
  -6144931.55748  -4783538.47847  22169118.7874   22169117.4884   22169119.0754
        53.0004         47.0004
  -2940236.54147  -2283508.71447  23646453.2884   23646455.9934   23646453.8884
        47.0004         42.0004
 -16964939.40448 -13040194.15948  21714022.9974   21714022.4064   21714023.2164
        53.0004         48.0004
  -8930567.38647  -6927617.54846  23632363.0264   23632363.0224   23632362.3884
        46.0004         40.0004
  -9122146.00747  -7054141.50747  23431501.7564   23431504.7294   23431501.6274
        47.0004         42.0004
 -20841220.88749 -16234339.54748  21739724.2284   21739721.2884   21739724.0044
        55.0004         48.0004
  -5036373.99847  -3913972.66546  24059727.1734   24059726.9424   24059726.7734
        46.0004         38.0004
  -2965967.82347  -2302530.91746  24746537.9644   24746541.3774   24746538.4504
        42.0004         37.0004
 -17485219.04448 -13599524.36547  22481166.8494   22481163.8184   22481166.3254
        51.0004         46.0004
 -13725157.02948 -10518109.68847  22331971.6124   22331971.5354   22331970.7414
        50.0004         44.0004
 15  1  1  1 34 30.0000000  0 11G09G31G06G29G20G25G23G16G03G02G10
 -10405732.66648  -8104110.77047  22681966.7384   22681968.2874   22681966.8674
        50.0004         45.0004
  -6068084.14448  -4723657.40447  22183742.3884   22183741.1084   22183742.6614
        52.0004         47.0004
  -2853002.72047  -2215534.28647  23663053.3264   23663056.0244   23663053.9254
        46.0004         42.0004
 -16997758.74349 -13065767.66448  21707777.6864   21707777.0874   21707777.9024
        54.0004         48.0004
  -8835580.90747  -6853602.05946  23650438.3204   23650438.3014   23650437.6814
        46.0004         40.0004
  -9019163.05047  -6973895.02647  23451098.7484   23451101.7084   23451098.6204
        47.0004         42.0004
 -20863104.62649 -16251391.80348  21735559.8924   21735556.9404   21735559.6494
        55.0004         48.0004
  -5152087.50947  -4004138.98946  24037707.5804   24037707.3374   24037707.1814
        46.0004         38.0004
  -2854605.65847  -2215755.29346  24767729.5514   24767732.9834   24767730.0214
        42.0004         37.0004
 -17478818.54448 -13594536.96447  22482384.8224   22482381.7864   22482384.3024
        51.0004         45.0004
 -13771873.66648 -10554512.23647  22323081.7184   22323081.6434   22323080.8494
        50.0004         44.0004
 15  1  1  1 35  0.0000000  0 11G09G31G06G29G20G25G23G16G03G02G10
 -10481659.33148  -8163274.41347  22667518.3964   22667519.9304   22667518.5124
        50.0004         45.0004
  -5990811.04048  -4663444.61947  22198446.9774   22198445.7024   22198447.2774
        53.0004         47.0004
  -2765370.88947  -2147249.75547  23679729.0994   23679731.8244   23679729.7094
        46.0004         42.0004
 -17029959.63648 -13090859.27248  21701650.0534   21701649.4544   21701650.2714
        53.0004         48.0004
  -8740253.65747  -6779321.18146  23668578.5574   23668578.5644   23668577.9234
        45.0004         40.0004
  -8915876.13747  -6893411.75946  23470753.6334   23470756.5974   23470753.4924
        47.0004         41.0004
 -20884387.42049 -16267975.80648  21731509.9044   21731506.9624   21731509.6724
        55.0004         48.0004
  -5267584.27147  -4094136.33146  24015729.1764   24015728.8884   24015728.7784
        45.0004         38.0004
  -2743069.93747  -2128844.36246  24788954.1014   24788957.5404   24788954.5644
        42.0004         37.0004
 -17471835.29848 -13589095.48347  22483713.6994   22483710.6714   22483713.1744
        51.0004         46.0004
 -13817956.45548 -10590420.87747  22314312.4324   22314312.3444   22314311.5624
        50.0004         44.0004
 15  1  1  1 35 30.0000000  0 11G09G31G06G29G20G25G23G16G03G02G10
 -10557123.16048  -8222077.41347  22653158.1184   22653159.6544   22653158.2354
        49.0004         45.0004
  -5913114.74448  -4602902.06347  22213232.1084   22213230.8374   22213232.3994
        53.0004         47.0004
  -2677344.13547  -2078657.48846  23696480.0554   23696482.7654   23696480.6634
        46.0004         41.0004
 -17061541.44648 -13115468.47748  21695640.2404   21695639.6524   21695640.4654
        53.0004         48.0004
  -8644588.26747  -6704776.69846  23686783.0624   23686783.0484   23686782.4224
        46.0004         41.0004
  -8812288.31847  -6812694.03346  23490465.7694   23490468.7554   23490465.6334
        46.0004         41.0004
 -20905069.03549 -16284091.33748  21727574.3154   21727571.3844   21727574.0844
        55.0004         48.0004
  -5382862.43847  -4183963.41546  23993792.4054   23993792.1294   23993792.0234
        43.0004         39.0004
  -2631364.34346  -2041800.93446  24810210.9044   24810214.3054   24810211.3454
        41.0004         37.0004
 -17464269.82048 -13583200.31047  22485153.3744   22485150.3284   22485152.8464
        52.0004         46.0004
 -13863404.20648 -10625834.70747  22305664.0214   22305663.9354   22305663.1364
        50.0004         44.0004
 15  1  1  1 36  0.0000000  0 12G09G31G06G29G20G25G23G16G03G02G05G10
 -10632120.58348  -8280516.96247  22638886.5634   22638888.1224   22638886.7094
        50.0004         45.0004
  -5834995.84448  -4542030.21147  22228097.6504   22228096.3854   22228097.9394
        52.0004         47.0004
  -2588923.95247  -2009758.64646  23713305.8534   23713308.5804   23713306.4514
        45.0004         41.0004
 -17092501.98948 -13139593.60248  21689748.6744   21689748.0764   21689748.8934
        53.0004         48.0004
  -8548586.56347  -6629970.15146  23705051.5624   23705051.5544   23705050.9354
        47.0004         41.0004
  -8708401.04047  -6731742.94546  23510234.8964   23510237.8944   23510234.7654
        46.0004         41.0004
 -20925146.86349 -16299736.37848  21723753.6114   21723750.6864   21723753.3844
        55.0004         48.0004
  -5497917.63047  -4273616.67146  23971898.0414   23971897.7134   23971897.6344
        47.0004         39.0004
  -2519490.41747  -1954626.49946  24831499.8304   24831503.2554   24831500.2814
        42.0004         37.0004
 -17456121.13448 -13576850.68247  22486704.0094   22486700.9644   22486703.4764
        51.0004         45.0004
                                  25643027.472
        43.000
 -13908214.12148 -10660751.52347  22297136.9844   22297136.8864   22297136.1014
        50.0004         44.0004
 15  1  1  1 36 30.0000000  0 12G09G31G06G29G20G25G23G16G03G02G05G10
 -10706647.69848  -8338590.03847  22624704.5294   22624706.0834   22624704.6704
        50.0004         45.0004
  -5756455.26448  -4480829.77047  22243043.4274   22243042.1734   22243043.7094
        52.0004         47.0004
  -2500111.56347  -1940554.19846  23730206.3014   23730209.0134   23730206.9004
        46.0004         41.0004
 -17122838.65449 -13163232.57548  21683975.8064   21683975.2234   21683976.0254
        54.0004         48.0004
  -8452249.54947  -6554902.43346  23723383.9424   23723383.9614   23723383.3154
        46.0004         41.0004
  -8604215.24147  -6650559.23146  23530060.8064   23530063.8174   23530060.6834
        46.0004         41.0004
 -20944618.67149 -16314909.20248  21720048.2444   21720045.3004   21720048.0094
        55.0004         48.0004
  -5612746.08947  -4363093.31946  23950046.8444   23950046.5094   23950046.4334
        46.0004         39.0004
  -2407449.25447  -1867321.61646  24852820.4784   24852823.8824   24852820.9544
        43.0004         37.0004
 -17447387.79248 -13570045.48647  22488365.9034   22488362.8724   22488365.3894
        51.0004         46.0004
   -301184.39357   -223130.26456  25621629.7804   25621630.4914   25621630.0334
        43.0004         36.0004
 -13952382.69848 -10695168.57647  22288731.9544   22288731.8644   22288731.0794
        50.0004         44.0004
 15  1  1  1 37  0.0000000  0 12G09G31G06G29G20G25G23G16G03G02G05G10
 -10780710.08348  -8396300.98447  22610610.9194   22610612.4724   22610611.0584
        50.0004         45.0004
  -5677503.13148  -4419308.63047  22258067.5244   22258066.2594   22258067.8034
        53.0004         47.0004
  -2410917.44847  -1871052.30346  23747179.3864   23747182.1154   23747179.9874
        46.0004         41.0004
 -17152558.73849 -13186391.11348  21678320.2854   21678319.7064   21678320.4974
        54.0004         48.0004
  -8355588.28647  -6479582.07946  23741778.0594   23741778.0914   23741777.4324
        47.0004         40.0004
  -8499741.63347  -6569151.33046  23549941.5454   23549944.5714   23549941.4194
        46.0004         41.0004
 -20963491.50249 -16329615.27848  21716456.8334   21716453.8994   21716456.6174
        55.0004         48.0004
  -5727352.86947  -4452397.24546  23928237.8534   23928237.5054   23928237.4444
        43.0004         39.0004
  -2295251.11047  -1779894.37646  24874171.0074   24874174.3624   24874171.4744
        43.0004         37.0004
 -17438077.84048 -13562790.97747  22490137.5354   22490134.5024   22490137.0164
        51.0004         46.0004
   -413496.72047   -310646.26846  25600257.0364   25600257.8214   25600257.3694
        44.0004         37.0004
 -13995916.29848 -10729090.86047  22280447.7944   22280447.6864   22280446.9014
        50.0004         44.0004
 15  1  1  1 37 30.0000000  0 12G09G31G06G29G20G25G23G16G03G02G05G10
 -10854297.40948  -8453641.76147  22596607.7264   22596609.2814   22596607.8484
        50.0004         45.0004
  -5598133.58248  -4357462.23947  22273171.0674   22273169.7924   22273171.3404
        52.0004         47.0004
  -2321336.41447  -1801248.91146  23764226.1014   23764228.8244   23764226.7014
        45.0004         41.0004
 -17181652.35549 -13209061.49348  21672783.9684   21672783.4054   21672784.1974
        54.0004         48.0004
  -8258597.17847  -6404004.58946  23760234.8484   23760234.8974   23760234.2274
        46.0004         40.0004
  -8394974.58447  -6487514.67246  23569878.0694   23569881.0934   23569877.9284
        46.0004         41.0004
 -20981756.98449 -16343848.10648  21712981.0224   21712978.0734   21712980.7924
        55.0004         48.0004
  -5841727.29847  -4541520.11646  23906473.0684   23906472.7104   23906472.6624
        44.0004         39.0004
  -2182891.04747  -1692340.89546  24895552.2874   24895555.5814   24895552.7464
        43.0004         37.0004
 -17428183.73848 -13555081.29247  22492020.3194   22492017.2944   22492019.8114
        51.0004         45.0004
   -525666.27647   -398050.96746  25578911.5974   25578912.3414   25578911.9964
        43.0004         37.0004
 -14038805.46148 -10762510.96447  22272286.2234   22272286.1374   22272285.3554
        50.0004         44.0004
 15  1  1  1 38  0.0000000  0 12G09G31G06G29G20G25G23G16G03G02G05G10
 -10927408.97748  -8510611.81747  22582695.0634   22582696.6034   22582695.1804
        50.0004         45.0004
  -5518350.36648  -4295293.51347  22288353.3034   22288352.0454   22288353.6004
        52.0004         47.0004
  -2231372.73047  -1731147.32846  23781345.6094   23781348.3514   23781346.2094
        46.0004         41.0004
 -17210120.71748 -13231244.65148  21667366.6464   21667366.0654   21667366.8464
        53.0004         48.0004
  -8161280.96047  -6328173.83146  23778753.5614   23778753.6234   23778752.9424
        46.0004         40.0004
  -8289918.50447  -6405652.81746  23589869.5914   23589872.6284   23589869.4554
        46.0004         41.0004
 -20999415.75949 -16357608.18048  21709620.6634   21709617.7144   21709620.4294
        55.0004         48.0004
  -5955867.93947  -4630460.69146  23884752.6864   23884752.2864   23884752.2924
        45.0004         39.0004
  -2070373.94347  -1604665.44246  24916963.7404   24916967.0824   24916964.1974
        43.0004         38.0004
 -17417707.50048 -13546918.00847  22494013.9064   22494010.8804   22494013.3804
        51.0004         46.0004
   -637692.11347   -485343.71446  25557593.6504   25557594.3714   25557594.1074
        43.0004         38.0004
 -14081050.34848 -10795429.05147  22264247.2924   22264247.1984   22264246.4104
        50.0004         44.0004
 15  1  1  1 38 30.0000000  0 12G09G31G06G29G20G25G23G16G03G02G05G10
 -11000044.49848  -8567210.93147  22568872.9714   22568874.5434   22568873.1064
        50.0004         45.0004
  -5438157.19548  -4232805.33547  22303613.5724   22303612.3164   22303613.8524
        52.0004         47.0004
  -2141031.11747  -1660751.25546  23798537.0424   23798539.7774   23798537.6314
        45.0004         40.0004
 -17237964.21749 -13252940.87448  21662068.1864   21662067.6114   21662068.4104
        54.0004         48.0004
  -8063644.01147  -6252093.08846  23797333.2424   23797333.3004   23797332.6264
        46.0004         39.0004
  -8184578.03047  -6323569.39446  23609915.2594   23609918.3214   23609915.1344
        47.0004         41.0004
 -21016469.12549 -16370896.53748  21706375.5314   21706372.5884   21706375.2924
        55.0004         48.0004
  -6069774.59747  -4719219.19446  23863077.0104   23863076.6514   23863076.6364
        45.0004         39.0004
  -1957703.82547  -1516870.68346  24938404.2634   24938407.6294   24938404.7084
        42.0004         36.0004
 -17406651.16548 -13538302.68947  22496117.8594   22496114.8354   22496117.3444
        51.0004         46.0004
   -749573.89847   -572524.19546  25536303.2624   25536303.7304   25536303.5894
        43.0004         38.0004
 -14122650.97048 -10827845.11247  22256330.9464   22256330.8544   22256330.0744
        50.0004         44.0004
 15  1  1  1 39  0.0000000  0 12G09G31G06G29G20G25G23G16G03G02G05G10
 -11072196.56548  -8623433.33547  22555142.8994   22555144.4714   22555143.0484
        50.0004         45.0004
  -5357551.47348  -4169995.70147  22318952.3504   22318951.0934   22318952.6364
        52.0004         47.0004
  -2050309.28447  -1590058.92846  23815800.8354   23815803.5734   23815801.4264
        45.0004         40.0004
 -17265176.99949 -13274145.61148  21656889.7504   21656889.1624   21656889.9504
        54.0004         48.0004
  -7965684.40647  -6175760.97846  23815974.3824   23815974.4454   23815973.7624
        46.0004         39.0004
  -8078950.73447  -6241262.49246  23630015.5304   23630018.5964   23630015.3884
        45.0004         41.0004
 -21032911.10949 -16383708.47548  21703246.7354   21703243.7794   21703246.5064
        55.0004         48.0004
  -6183439.27747  -4807789.01046  23841447.2724   23841446.9074   23841446.8974
        44.0004         38.0004
  -1844878.27946  -1428954.64646  24959874.2324   24959877.6014   24959874.6674
        41.0004         36.0004
 -17395010.21748 -13529231.83547  22498333.0714   22498330.0484   22498332.5384
        51.0004         46.0004
   -861303.75547   -659586.27346  25515041.5654   25515041.9984   25515041.9294
        43.0004         38.0004
 -14163600.79248 -10859754.05147  22248538.4384   22248538.3394   22248537.5724
        50.0004         44.0004
 15  1  1  1 39 30.0000000  0 12G09G31G06G29G20G25G23G16G03G02G05G10
 -11143868.82348  -8679281.85047  22541504.1284   22541505.7084   22541504.2614
        50.0004         45.0004
  -5276541.39548  -4106870.98247  22334368.0614   22334366.8144   22334368.3454
        52.0004         46.0004
  -1959215.88047  -1519077.06646  23833135.3384   23833138.0924   23833135.9364
        44.0004         40.0004
 -17291764.40149 -13294863.06748  21651830.3254   21651829.7624   21651830.5434
        54.0004         48.0004
  -7867410.65647  -6099184.06646  23834675.2774   23834675.3494   23834674.6704
        45.0004         39.0004
  -7973045.13547  -6158738.75046  23650168.7794   23650171.8734   23650168.6414
        46.0004         41.0004
 -21048746.75149 -16396047.91948  21700233.2834   21700230.3354   21700233.0514
        55.0004         48.0004
  -6296865.21947  -4896172.76046  23819862.9614   23819862.5734   23819862.5954
        45.0004         39.0004
  -1731906.08346  -1340924.43546  24981372.1634   24981375.5484   24981372.6344
        40.0004         36.0004
 -17382790.71448 -13519710.15847  22500658.3814   22500655.3464   22500657.8514
        51.0004         45.0004
   -972884.94347   -746532.57546  25493808.3084   25493808.7304   25493808.6244
        43.0004         38.0004
 -14203903.93048 -10891159.09147  22240869.0164   22240868.8994   22240868.1364
        50.0004         44.0004
 15  1  1  1 40  0.0000000  0 12G09G31G06G29G20G25G23G16G03G02G05G10
 -11215058.31248  -8734754.18547  22527957.2184   22527958.7934   22527957.3544
        50.0004         45.0004
  -5195128.39148  -4043432.29947  22349860.4594   22349859.2074   22349860.7504
        52.0004         46.0004
  -1867752.99247  -1447807.32546  23850540.1734   23850542.9304   23850540.7904
        43.0004         39.0004
 -17317724.28049 -13315091.53348  21646890.3344   21646889.7414   21646890.5444
        54.0004         48.0004
  -7768824.77147  -6022363.83246  23853435.5134   23853435.5504   23853434.8824
        45.0004         39.0004
  -7866862.99347  -6075999.44946  23670374.5874   23670377.6984   23670374.4404
        46.0004         41.0004
 -21063974.93949 -16407914.03748  21697335.4694   21697332.5124   21697335.2314
        55.0004         48.0004
  -6410049.01147  -4984367.93046  23798324.8124   23798324.4174   23798324.4334
        45.0004         39.0004
  -1618789.39046  -1252781.62846  25002897.6214   25002901.0164   25002898.0904
        41.0004         36.0004
 -17369992.33848 -13509737.38947  22503093.8164   22503090.7914   22503093.2884
        51.0004         45.0004
  -1084314.48147   -833360.73546  25472603.8744   25472604.4034   25472604.2304
        43.0004         39.0004
 -14243558.63348 -10922058.84447  22233322.9504   22233322.8554   22233322.0964
        50.0004         44.0004
 15  1  1  1 40 30.0000000  0 12G09G31G06G29G20G25G23G16G03G02G05G10
 -11285759.23148  -8789845.79847  22514503.2754   22514504.8414   22514503.4074
        50.0004         45.0004
  -5113311.06748  -3979678.55747  22365429.7934   22365428.5394   22365430.0744
        52.0004         46.0004
  -1775919.75547  -1376248.97046  23868015.4694   23868018.2304   23868016.0814
        44.0004         39.0004
 -17343052.55748 -13334827.85748  21642070.5264   21642069.9384   21642070.7254
        53.0004         48.0004
  -7669926.20847  -5945300.07546  23872255.3134   23872255.3834   23872254.6964
        43.0004         38.0004
  -7760403.61047  -5993044.13646  23690633.1774   23690636.2924   23690633.0354
        46.0004         41.0004
 -21078591.64849 -16419303.67048  21694553.9944   21694551.0414   21694553.7544
        55.0004         48.0004
  -6522984.68747  -5072369.65646  23776833.7924   23776833.3594   23776833.4144
        46.0004         39.0004
  -1505527.31146  -1164525.59046  25024450.7844   25024454.1994   25024451.2514
        39.0004         36.0004
 -17356612.04648 -13499311.15747  22505639.9734   22505636.9524   22505639.4504
        51.0004         46.0004
  -1195585.84447   -920065.75746  25451429.6344   25451430.2274   25451429.9934
        43.0004         39.0004
 -14282559.75348 -10952449.31447  22225901.2924   22225901.1864   22225900.4034
        51.0004         44.0004
 15  1  1  1 41  0.0000000  0 12G09G31G06G29G20G25G23G16G03G02G05G10
 -11355972.97748  -8844557.80747  22501142.0434   22501143.6114   22501142.1714
        50.0004         46.0004
  -5031095.39448  -3915614.42547  22381074.9424   22381073.7044   22381075.2204
        52.0004         46.0004
  -1683722.56447  -1304407.02746  23885560.0324   23885562.7874   23885560.6374
        44.0004         39.0004
 -17367752.18449 -13354074.31448  21637370.3344   21637369.7414   21637370.5434
        54.0004         48.0004
  -7570721.53447  -5867997.81646  23891133.4024   23891133.4994   23891132.7794
        45.0004         38.0004
  -7653673.15447  -5909877.59746  23710943.3404   23710946.4624   23710943.1924
        45.0004         41.0004
 -21092599.73449 -16430219.03948  21691888.3274   21691885.3714   21691888.0964
        55.0004         48.0004
  -6635673.03647  -5160178.65446  23755389.8194   23755389.3854   23755389.4504
        45.0004         39.0004
  -1392125.88046  -1076160.85246  25046030.3554   25046033.7854   25046030.8184
        37.0004         36.0004
 -17342653.73948 -13488434.54247  22508296.1474   22508293.1214   22508295.6294
        51.0004         46.0004
  -1306699.66547  -1006647.80246  25430285.2854   25430285.8274   25430285.6234
        43.0004         38.0004
 -14320909.43148 -10982332.17747  22218603.5774   22218603.4764   22218602.7024
        50.0004         44.0004
 15  1  1  1 41 30.0000000  0 11G09G31G06G29G20G25G23G16G02G05G10
 -11425694.95948  -8898886.59747  22487874.3824   22487875.9294   22487874.5004
        51.0004         46.0004
  -4948481.26148  -3851239.78347  22396795.8764   22396794.6584   22396796.1764
        52.0004         46.0004
  -1591161.90347  -1232281.85746  23903173.7574   23903176.5134   23903174.3564
        44.0004         39.0004
 -17391820.68749 -13372828.99448  21632790.2464   21632789.6654   21632790.4614
        54.0004         48.0004
  -7471211.01647  -5790457.12746  23910069.6124   23910069.6794   23910068.9934
        43.0004         38.0004
  -7546671.81847  -5826499.90746  23731304.9994   23731308.1294   23731304.8644
        47.0004         41.0004
 -21105996.05549 -16440657.72548  21689339.0704   21689336.1304   21689338.8454
        55.0004         48.0004
  -6748109.19847  -5247791.15646  23733993.8524   23733993.3974   23733993.4784
        47.0004         39.0004
 -17328115.61948 -13477106.13047  22511062.6634   22511059.6264   22511062.1314
        52.0004         45.0004
  -1417651.42946  -1093103.69446  25409171.8154   25409172.3754   25409172.1614
        41.0004         38.0004
 -14358604.06148 -11011704.61147  22211430.5274   22211430.4284   22211429.6584
        50.0004         44.0004
 15  1  1  1 42  0.0000000  0 11G09G31G06G29G20G25G23G16G02G05G10
 -11494924.24848  -8952831.50147  22474700.4884   22474702.0514   22474700.6124
        51.0004         46.0004
  -4865472.05648  -3786557.29347  22412592.0164   22412590.7764   22412592.2934
        52.0004         46.0004
  -1498241.73747  -1159876.54346  23920855.8874   23920858.6484   23920856.4764
        45.0004         40.0004
 -17415256.54149 -13391090.69948  21628330.5484   21628329.9624   21628330.7544
        54.0004         48.0004
  -7371398.96247  -5712681.56946  23929063.2664   23929063.3474   23929062.6464
        43.0004         37.0004
  -7439403.66747  -5742914.39946  23751717.5014   23751720.6464   23751717.3564
        46.0004         41.0004
 -21118781.33749 -16450620.26748  21686906.1104   21686903.1594   21686905.8784
        55.0004         48.0004
  -6860291.65447  -5335205.99446  23712646.1874   23712645.7204   23712645.8294
        45.0004         39.0004
 -17312999.13748 -13465327.04947  22513939.2294   22513936.1884   22513938.6954
        51.0004         45.0004
  -1528439.49646  -1179432.00146  25388089.5594   25388090.0504   25388089.8814
        39.0004         37.0004
 -14395643.43948 -11040566.46547  22204382.1744   22204382.0564   22204381.3004
        50.0004         44.0004
 15  1  1  1 42 30.0000000  0 11G09G31G06G29G20G25G23G16G02G05G10
 -11563656.08748  -9006388.76747  22461621.2514   22461622.8004   22461621.3744
        51.0004         46.0004
  -4782067.41248  -3721566.66147  22428463.3914   22428462.1694   22428463.6814
        52.0004         46.0004
  -1404962.36147  -1087191.34046  23938606.3824   23938609.1574   23938606.9784
        45.0004         40.0004
 -17438057.27349 -13408857.50848  21623991.7164   21623991.1354   21623991.9344
        54.0004         48.0004
  -7271285.40747  -5634671.12146  23948114.3224   23948114.4414   23948113.7124
        44.0004         38.0004
  -7331868.79147  -5659121.05446  23772180.7494   23772183.9204   23772180.6214
        46.0004         41.0004
 -21130952.67049 -16460104.41548  21684589.9764   21684587.0204   21684589.7514
        55.0004         48.0004
  -6972214.76747  -5422418.70046  23691347.8474   23691347.3634   23691347.4814
        47.0004         39.0004
 -17297302.51748 -13453095.92347  22516926.2064   22516923.1704   22516925.6834
        51.0004         46.0004
  -1639058.79356  -1265628.88555  25367039.3584   25367039.9524   25367039.7724
        37.0004         35.0004
 -14432023.47248 -11068914.53947  22197459.2844   22197459.1674   22197458.4014
        50.0004         44.0004
 15  1  1  1 43  0.0000000  0 10G09G31G06G29G20G25G23G16G02G10
 -11631897.93048  -9059564.21447  22448635.2364   22448636.8054   22448635.3664
        50.0004         46.0004
  -4698279.05748  -3656277.02247  22444407.7744   22444406.5324   22444408.0624
        52.0004         46.0004
  -1311336.21147  -1014235.91246  23956422.8534   23956425.6344   23956423.4564
        45.0004         41.0004
 -17460232.01749 -13426136.51548  21619771.9904   21619771.4044   21619772.2154
        54.0004         48.0004
  -7170882.92147  -5556435.48246  23967220.3324   23967220.4744   23967219.7204
        44.0004         38.0004
  -7224079.38347  -5575129.31146  23792692.4014   23792695.5514   23792692.2664
        45.0004         41.0004
 -21142519.00249 -16469117.15248  21682388.9794   21682386.0294   21682388.7604
        55.0004         48.0004
  -7083886.27347  -5509435.52146  23670097.5234   23670097.0514   23670097.1384
        46.0004         40.0004
 -17281035.97748 -13440420.70047  22520021.6184   22520018.5814   22520021.1104
        51.0004         45.0004
 -14467752.50448 -11096755.33147  22190660.2544   22190660.1514   22190659.3904
        50.0004         44.0004
 15  1  1  1 43 30.0000000  0 10G09G31G06G29G20G25G23G16G02G10
 -11699630.27048  -9112342.64947  22435746.1904   22435747.7584   22435746.3254
        50.0004         46.0004
  -4614091.90948  -3590676.64747  22460428.0504   22460426.8204   22460428.3444
        52.0004         46.0004
  -1217348.69847   -940998.91246  23974308.1034   23974310.8784   23974308.7074
        46.0004         41.0004
 -17481762.74849 -13442913.71748  21615674.8354   21615674.2654   21615675.0564
        54.0004         48.0004
  -7070177.01347  -5477963.42546  23986384.0624   23986384.2294   23986383.4614
        44.0004         38.0004
  -7116020.77747  -5490927.83746  23813255.2874   23813258.4644   23813255.1584
        45.0004         40.0004
 -21153462.42549 -16477644.49048  21680306.5224   21680303.5624   21680306.2924
        55.0004         48.0004
  -7195285.80147  -5596240.34346  23648898.8944   23648898.4144   23648898.5054
        46.0004         40.0004
 -17264182.43148 -13427288.05347  22523228.7274   22523225.7074   22523228.2054
        51.0004         45.0004
 -14502811.76448 -11124074.22747  22183988.6994   22183988.5834   22183987.8264
        50.0004         44.0004
 15  1  1  1 44  0.0000000  0 10G09G31G06G29G20G25G23G16G02G10
 -11766865.64948  -9164733.84347  22422951.7174   22422953.2634   22422951.8414
        50.0004         46.0004
  -4529523.22748  -3524778.96647  22476520.9444   22476519.7044   22476521.2304
        52.0004         46.0004
  -1123017.37047   -867494.00646  23992258.7824   23992261.5604   23992259.3654
        45.0004         41.0004
 -17502663.18349 -13459199.78248  21611697.6224   21611697.0494   21611697.8344
        54.0004         48.0004
  -6969185.23147  -5399268.64746  24005602.2494   24005602.4494   24005601.6464
        45.0004         39.0004
  -7007710.33647  -5406530.13246  23833866.1174   23833869.3004   23833865.9644
        45.0004         40.0004
 -21163797.11149 -16485697.49548  21678339.9074   21678336.9474   21678339.6594
        55.0004         48.0004
  -7306425.23647  -5682842.45546  23627749.7324   23627749.2454   23627749.3484
        47.0004         40.0004
 -17246757.39248 -13413710.09647  22526544.6074   22526541.5584   22526544.0864
        51.0004         45.0004
 -14537214.70648 -11150881.71847  22177442.0514   22177441.9214   22177441.1694
        50.0004         44.0004
 15  1  1  1 44 30.0000000  0 11G09G31G06G29G20G25G23G16G03G02G10
 -11833596.38648  -9216731.80447  22410253.2714   22410254.8154   22410253.4044
        51.0004         46.0004
  -4444569.88448  -3458581.54247  22492687.0184   22492685.7624   22492687.2904
        52.0004         46.0004
  -1028339.50447   -793719.07846  24010275.3984   24010278.1814   24010275.9894
        45.0004         41.0004
 -17522927.48549 -13474990.14848  21607841.4704   21607840.8794   21607841.6674
        54.0004         48.0004
  -6867905.05847  -5320349.17246  24024875.3444   24024875.5734   24024874.7394
        45.0004         39.0004
  -6899145.16847  -5321933.94946  23854525.4124   23854528.6234   23854525.2624
        45.0004         40.0004
 -21173517.22749 -16493271.61048  21676490.2274   21676487.2534   21676489.9934
        55.0004         48.0004
  -7417296.31947  -5769235.42946  23606651.6074   23606651.0984   23606651.2144
        46.0004         40.0004
                                  25197793.974
        44.000
 -17228755.81548 -13399682.88547  22529970.1884   22529967.1404   22529969.6744
        51.0004         45.0004
 -14570954.67748 -11177172.59747  22171021.5294   22171021.4184   22171020.6524
        50.0004         44.0004
 15  1  1  1 45  0.0000000  0 12G09G31G06G29G20G25G23G16G03G02G05G10
 -11899822.48348  -9268336.53347  22397650.8574   22397652.3954   22397650.9694
        51.0004         46.0004
  -4359235.96348  -3392087.57047  22508925.5124   22508924.2744   22508925.8044
        52.0004         46.0004
   -933319.98847   -719677.92046  24028357.0454   24028359.8384   24028357.6204
        46.0004         41.0004
 -17542556.71649 -13490285.65448  21604106.1554   21604105.5584   21604106.3534
        54.0004         48.0004
  -6766340.84947  -5241208.29046  24044202.4024   24044202.6654   24044201.8084
        45.0004         40.0004
  -6790329.90747  -5237142.84146  23875232.2524   23875235.4814   23875232.1154
        45.0004         40.0004
 -21182624.75049 -16500368.38248  21674757.1094   21674754.1634   21674756.8804
        55.0004         48.0004
  -7527898.75047  -5855418.99446  23585604.5334   23585604.0114   23585604.1634
        46.0004         40.0004
   -559259.18757   -455873.58056  25219569.4194   25219573.1914   25219570.5174
        44.0004         38.0004
 -17210180.14948 -13385208.33647  22533505.0214   22533501.9784   22533504.5024
        51.0004         45.0004
   -933615.57857   -717332.48355  25262281.0164   25262282.0594   25262280.5634
        42.0004         35.0004
 -14604032.35548 -11202947.41347  22164727.0634   22164726.9344   22164726.1924
        51.0004         44.0004
 15  1  1  1 45 30.0000000  0 12G09G31G06G29G20G25G23G16G03G02G05G10
 -11965536.39048  -9319542.16547  22385145.8964   22385147.4514   22385146.0354
        51.0004         46.0004
  -4273517.96248  -3325294.32347  22525237.1044   22525235.8604   22525237.3954
        51.0004         46.0004
   -837956.28547   -645368.56446  24046504.1824   24046506.9674   24046504.7504
        45.0004         41.0004
 -17561544.74349 -13505081.51348  21600492.8334   21600492.2644   21600493.0434
        54.0004         48.0004
  -6664490.93547  -5161844.91946  24063583.9554   24063584.2644   24063583.3444
        45.0004         40.0004
  -6681261.84647  -5152154.69646  23895987.1754   23895990.3854   23895987.0424
        46.0004         40.0004
 -21191113.64649 -16506983.14348  21673141.7694   21673138.8144   21673141.5324
        55.0004         48.0004
  -7638224.39647  -5941386.92746  23564610.1904   23564609.6344   23564609.8174
        47.0004         40.0004
   -444710.50447   -366614.82246  25241367.5294   25241370.7674   25241368.4534
        42.0004         36.0004
 -17191025.80748 -13370282.86547  22537149.9604   22537146.9044   22537149.4384
        51.0004         45.0004
  -1043177.21447   -802705.22345  25241431.8404   25241432.4144   25241430.7794
        44.0004         35.0004
 -14636441.13348 -11228201.00047  22158559.8714   22158559.7574   22158559.0004
        50.0004         44.0004
 15  1  1  1 46  0.0000000  0 12G09G31G06G29G20G25G23G16G03G02G05G10
 -12030742.91648  -9370352.42247  22372737.4874   22372739.0344   22372737.6124
        51.0004         46.0004
  -4187425.60948  -3258209.36847  22541619.9334   22541618.6824   22541620.2254
        52.0004         46.0004
   -742258.09147   -570798.56946  24064714.9644   24064717.7454   24064715.5444
        45.0004         41.0004
 -17579898.23849 -13519382.94948  21597000.2914   21596999.7184   21597000.4994
        54.0004         48.0004
  -6562364.33347  -5082265.79246  24083018.0404   24083018.3404   24083017.4404
        46.0004         40.0004
  -6571950.73947  -5066977.24346  23916788.4244   23916791.6364   23916788.2884
        47.0004         40.0004
 -21198990.15849 -16513120.70148  21671642.9194   21671639.9824   21671642.6904
        55.0004         48.0004
  -7748277.76447  -6027142.82446  23543667.7544   23543667.1974   23543667.3764
        47.0004         40.0004
   -330050.99347   -277269.60546  25263186.3244   25263189.4294   25263186.9664
        42.0004         36.0004
 -17171300.29248 -13354912.30747  22540903.5714   22540900.5174   22540903.0684
        51.0004         45.0004
  -1152555.83547   -887935.39446  25220617.3094   25220617.9264   25220617.4074
        46.0004         36.0004
 -14668186.82248 -11252937.89547  22152518.8744   22152518.7274   22152517.9954
        50.0004         44.0004
 15  1  1  1 46 30.0000000  0 12G09G31G06G29G20G25G23G16G03G02G05G10
 -12095435.19648  -9420761.96447  22360426.9414   22360428.4784   22360427.0584
        50.0004         46.0004
  -4100956.63548  -3190830.93147  22558074.4284   22558073.1724   22558074.7114
        51.0004         46.0004
   -646223.55147   -495966.49446  24082989.7454   24082992.5474   24082990.3304
        45.0004         40.0004
 -17597612.30449 -13533186.12648  21593629.4174   21593628.8574   21593629.6364
        54.0004         48.0004
  -6459959.64747  -5002470.05846  24102505.1064   24102505.4454   24102504.4934
        46.0004         40.0004
  -6462394.16947  -4981608.43446  23937636.3224   23937639.5074   23937636.1804
        46.0004         40.0004
 -21206249.05049 -16518776.97948  21670261.6034   21670258.6584   21670261.3704
        55.0004         48.0004
  -7858050.99147  -6112680.24546  23522778.4754   23522777.8954   23522778.0984
        45.0004         40.0004
   -215278.87346   -187836.71946  25285026.4664   25285029.8894   25285027.1414
        41.0004         36.0004
 -17150999.89848 -13339093.82447  22544766.6194   22544763.5764   22544766.0964
        51.0004         45.0004
  -1261744.16547   -973017.23546  25199839.1744   25199839.9114   25199839.6544
        45.0004         37.0004
 -14699263.65248 -11277153.60547  22146605.1324   22146605.0124   22146604.2614
        51.0004         44.0004
 15  1  1  1 47  0.0000000  0 12G09G31G06G29G20G25G23G16G03G02G05G10
 -12159614.19948  -9470771.57347  22348214.0814   22348215.6244   22348214.1934
        51.0004         46.0004
  -4014115.85248  -3123162.78247  22574599.6674   22574598.4224   22574599.9664
        51.0004         46.0004
   -549858.43647   -420876.85346  24101327.4744   24101330.2854   24101328.0544
        44.0004         40.0004
 -17614688.24549 -13546492.06148  21590379.9934   21590379.4044   21590380.1984
        54.0004         48.0004
  -6357282.30147  -4922461.86846  24122044.0454   24122044.4174   24122043.4364
        46.0004         40.0004
  -6352597.85847  -4896052.79246  23958529.8054   23958532.9764   23958529.6684
        45.0004         40.0004
 -21212893.24449 -16523954.27148  21668997.2604   21668994.3054   21668997.0264
        55.0004         48.0004
  -7967544.43747  -6197999.60946  23501942.3944   23501941.7674   23501942.0354
        46.0004         40.0004
   -100399.62246    -98320.40245  25306886.9954   25306890.5164   25306887.7194
        37.0004         35.0004
 -17130127.86748 -13322829.93547  22548738.4424   22548735.4224   22548737.9464
        51.0004         45.0004
  -1370742.66847  -1057951.02846  25179097.3874   25179097.9384   25179097.8084
        47.0004         38.0004
 -14729673.08948 -11300849.25947  22140818.4034   22140818.2724   22140817.5474
        50.0004         44.0004
 15  1  1  1 47 30.0000000  0 12G09G31G06G29G20G25G23G16G03G02G05G10
 -12223276.29448  -9520378.39247  22336099.5734   22336101.1224   22336099.6924
        51.0004         46.0004
  -3926903.94248  -3055205.44847  22591195.5464   22591194.2864   22591195.8384
        51.0004         46.0004
   -453164.01747   -345530.61246  24119727.8414   24119730.6644   24119728.4294
        43.0004         39.0004
 -17631124.36649 -13559299.42248  21587252.2884   21587251.7174   21587252.4934
        54.0004         48.0004
  -6254333.67947  -4842242.32646  24141634.6474   24141635.0654   24141634.0444
        46.0004         40.0004
  -6242563.20247  -4810311.57246  23979468.7734   23979471.9404   23979468.6264
        46.0004         40.0004
 -21218920.93649 -16528651.15748  21667850.2154   21667847.2524   21667849.9724
        55.0004         48.0004
  -8076754.37747  -6283098.19646  23481160.3974   23481159.7464   23481160.0214
        47.0004         41.0004
     14585.74256     -8721.55155  25328767.8384   25328771.5894   25328768.5714
        41.0004         34.0004
 -17108683.22448 -13306119.82047  22552819.2324   22552816.1854   22552818.7164
        51.0004         45.0004
  -1479547.08047  -1142733.70946  25158392.6064   25158393.1234   25158393.0714
        46.0004         38.0004
 -14759412.77448 -11324023.02547  22135159.1214   22135158.9884   22135158.2524
        51.0004         44.0004
 15  1  1  1 48  0.0000000  0 12G09G31G06G29G20G25G23G16G03G02G05G10
 -12286418.50448  -9569580.09447  22324084.0044   22324085.5264   22324084.1184
        51.0004         46.0004
  -3839322.43048  -2986960.11547  22607861.7524   22607860.4884   22607862.0344
        51.0004         45.0004
   -356142.21947   -269929.22946  24138190.4864   24138193.3214   24138191.0824
        43.0004         39.0004
 -17646919.31649 -13571607.18248  21584246.6204   21584246.0474   21584246.8264
        54.0004         48.0004
  -6151115.89447  -4761812.90246  24161276.3614   24161276.7664   24161275.7474
        45.0004         39.0004
  -6132291.63347  -4724385.69346  24000452.7694   24000455.9444   24000452.6214
        45.0004         40.0004
 -21224330.84549 -16532866.66948  21666820.7484   21666817.7794   21666820.5134
        55.0004         48.0004
  -8185677.03747  -6367972.90246  23460433.0224   23460432.3504   23460432.6554
        47.0004         40.0004
    129675.13746     80958.56846  25350668.6204   25350672.2964   25350669.2644
        41.0004         36.0004
 -17086666.12548 -13288963.63847  22557008.9404   22557005.9104   22557008.4184
        51.0004         45.0004
  -1588153.58747  -1227362.13846  25137725.4764   25137725.9614   25137725.9284
        45.0004         40.0004
 -14788480.88948 -11346673.51547  22129627.6584   22129627.5144   22129626.7884
        51.0004         44.0004
 15  1  1  1 48 30.0000000  0 12G09G31G06G29G20G25G23G16G03G02G05G10
 -12349039.34848  -9618375.52747  22312167.6284   22312169.1464   22312167.7474
        51.0004         46.0004
  -3751374.20748  -2918429.03847  22624597.7424   22624596.4884   22624598.0284
        51.0004         45.0004
   -258796.52247   -194075.48546  24156714.7974   24156717.6384   24156715.3724
        43.0004         39.0004
 -17662073.28649 -13583415.47548  21581362.9074   21581362.3514   21581363.1194
        54.0004         48.0004
  -6047632.29647  -4681176.27346  24180968.5894   24180968.9914   24180967.9714
        45.0004         39.0004
  -6021786.30347  -4638277.65946  24021481.2334   24021484.4214   24021481.0924
        45.0004         40.0004
 -21229123.23049 -16536600.99348  21665908.7844   21665905.8284   21665908.5464
        55.0004         48.0004
  -8294310.33447  -6452622.15346  23439760.7314   23439760.0484   23439760.3794
        47.0004         40.0004
    244865.55546    170717.26246  25372588.7754   25372592.4184   25372589.3804
        40.0004         36.0004
 -17064077.92648 -13271362.47147  22561307.3434   22561304.3154   22561306.8454
        50.0004         45.0004
  -1696559.98447  -1311834.57346  25117096.4034   25117096.9014   25117096.7944
        45.0004         40.0004
 -14816876.65248 -11368800.07247  22124224.1104   22124223.9644   22124223.2444
        51.0004         45.0004
 15  1  1  1 49  0.0000000  0 12G09G31G06G29G20G25G23G16G03G02G05G10
 -12411137.50248  -9666763.66647  22300350.7194   22300352.2424   22300350.8324
        51.0004         46.0004
  -3663062.42948  -2849614.66347  22641402.9094   22641401.6564   22641403.2014
        51.0004         46.0004
   -161130.42847   -117972.08946  24175300.0754   24175302.9154   24175300.6694
        43.0004         39.0004
 -17676586.30449 -13594724.32848  21578601.1824   21578600.6264   21578601.3924
        54.0004         48.0004
  -5943886.66647  -4600335.57046  24200710.7704   24200711.1844   24200710.1384
        43.0004         38.0004
  -5911050.64747  -4551990.12146  24042553.5084   24042556.6964   24042553.3744
        45.0004         40.0004
 -21233298.55549 -16539854.48748  21665114.2404   21665111.2864   21665114.0024
        55.0004         48.0004
  -8402652.33647  -6537044.47946  23419143.9334   23419143.2324   23419143.5614
        47.0004         40.0004
    360153.70146    260552.13745  25394527.4254   25394531.0734   25394528.1204
        40.0004         35.0004
 -17040919.99248 -13253317.34247  22565714.1634   22565711.1384   22565713.6474
        51.0004         45.0004
  -1804764.47747  -1396149.65546  25096505.6914   25096506.1594   25096506.0774
        43.0004         39.0004
 -14844599.63548 -11390402.39747  22118948.6074   22118948.4684   22118947.7444
        50.0004         44.0004
 15  1  1  1 49 30.0000000  0 12G09G31G06G29G20G25G23G16G03G02G05G10
 -12472710.18448  -9714742.34947  22288633.8044   22288635.3064   22288633.9184
        51.0004         46.0004
  -3574388.34648  -2780517.97347  22658277.0264   22658275.7794   22658277.3094
        51.0004         46.0004
    -63145.99547    -41620.63546  24193945.9224   24193948.7974   24193946.5144
        43.0004         39.0004
 -17690457.82949 -13605533.31748  21575961.5314   21575960.9554   21575961.7304
        54.0004         48.0004
  -5839880.89547  -4519292.24146  24220502.5094   24220502.9574   24220501.8804
        42.0004         37.0004
  -5800086.51547  -4465524.55446  24063669.2654   24063672.4674   24063669.1384
        43.0004         40.0004
 -21236855.64149 -16542626.23548  21664437.3334   21664434.3874   21664437.1084
        55.0004         48.0004
  -8510699.54247  -6621236.96346  23398583.1284   23398582.3834   23398582.7534
        47.0004         40.0004
    475537.48647    350461.44345  25416484.3844   25416488.0174   25416485.0794
        42.0004         35.0004
 -17017192.21048 -13234828.18147  22570229.4184   22570226.4114   22570228.9074
        50.0004         45.0004
  -1912763.51547  -1480304.78046  25075954.1084   25075954.6804   25075954.5894
        42.0004         39.0004
 -14871648.36648 -11411479.32747  22113801.4014   22113801.2464   22113800.5344
        51.0004         44.0004
