     2.11           OBSERVATION DATA    G (GPS)             RINEX VERSION / TYPE
teqc  2013Mar15     gpsops              20150102 00:12:09UTCPGM / RUN BY / DATE
Linux 2.4.21-27.ELsmp|Opteron|gcc -static|Linux x86_64|=+   COMMENT
BIT 2 OF LLI FLAGS DATA COLLECTED UNDER A/S CONDITION       COMMENT
BOGT                                                        MARKER NAME
41901M001                                                   MARKER NUMBER
GGN                 JPL                                     OBSERVER / AGENCY
UC120031609         ASHTECH UZ-12       CQ00                REC # / TYPE / VERS
CR620024311         ASH701945E_M    NONE                    ANT # / TYPE
  1744399.0397 -6116037.5577   512731.7532                  APPROX POSITION XYZ
        0.0610        0.0000        0.0000                  ANTENNA: DELTA H/E/N
     1     1                                                WAVELENGTH FACT L1/2
     7    L1    L2    P1    P2    C1    S1    S2            # / TYPES OF OBSERV
    30.0000                                                 INTERVAL
                                                            COMMENT
This data is provided as a public service by NASA/JPL.      COMMENT
No warranty is expressed or implied regarding suitability   COMMENT
for use.  For further information, contact:                 COMMENT
Dave Stowers, NASA/JPL m/s 238-600                          COMMENT
4800 Oak Grove Drive, Pasadena CA 91109 USA                 COMMENT
                                                            COMMENT
Forced Modulo Decimation to 30 seconds                      COMMENT
 SNR is mapped to RINEX snr flag value [0-9]                COMMENT
  L1 & L2: min(max(int(snr_dBHz/6), 0), 9)                  COMMENT
pseudorange smoothing corrections not applied               COMMENT
  2015     1     1     0     0    0.0000000     GPS         TIME OF FIRST OBS
                                                            END OF HEADER
 15  1  1  0  0  0.0000000  0  9G18G04G27G22G31G16G08G14G32
  -5746582.28047  -4354531.06146  23607290.9034   23607302.0224   23607293.108
        43.0004         39.0004
  -1474196.67747  -1141581.99246  24540601.1894   24540612.6744   24540601.524
        42.0004         38.0004
  -2488474.16347  -1890354.39846  23961100.8964   23961117.4724   23961100.378
        45.0004         40.0004
 -18857743.88649 -14640970.08248  20977722.6224   20977729.8094   20977723.470
        54.0004         49.0004
  -7299012.84548  -5627961.85747  22862051.2444   22862056.2364   22862050.606
        49.0004         44.0004
 -18225312.24349 -14128267.11248  21103280.3254   21103287.7144   21103280.029
        54.0004         49.0004
  -4577672.02947  -3558893.96746  23211940.1084   23211948.3884   23211939.977
        44.0004         39.0004
 -10471548.98948  -8114971.63047  22032821.8304   22032830.2644   22032822.305
        50.0004         46.0004
 -12092944.73948  -9374770.81147  22317814.8904   22317822.6604   22317815.056
        51.0004         47.0004
 15  1  1  0  0 30.0000000  0  9G18G04G27G22G31G16G08G14G32
  -5640478.78447  -4271852.61746  23627484.9774   23627491.8714   23627482.897
        43.0004         38.0004
  -1461374.22847  -1131590.50846  24543041.8364   24543049.9514   24543041.116
        42.0004         37.0004
  -2562770.42447  -1948247.44346  23946960.5304   23946978.4144   23946959.985
        45.0004         40.0004
 -18788663.27549 -14587141.25148  20990868.1244   20990876.0224   20990869.130
        54.0004         49.0004
  -7255319.14648  -5593914.78547  22870365.8054   22870369.4634   22870365.552
        49.0004         44.0004
 -18290363.23649 -14178956.11948  21090901.5524   21090909.5744   21090901.858
        54.0004         49.0004
  -4566220.21047  -3549970.46446  23214120.8424   23214129.0794   23214119.981
        43.0004         39.0004
 -10496449.92948  -8134375.03947  22028083.9274   22028091.4334   22028084.098
        50.0004         46.0004
 -12158050.74148  -9425502.74247  22305425.8434   22305433.6124   22305426.587
        51.0004         46.0004
 15  1  1  0  1  0.0000000  0 10G18G04G27G22G31G29G16G08G14G32
  -5534284.05047  -4189103.08446  23647691.4704   23647700.8984   23647691.336
        43.0004         38.0004
  -1448493.64747  -1121553.74346  24545492.7504   24545502.9384   24545493.325
        42.0004         37.0004
  -2637238.35847  -2006274.28346  23932790.4384   23932807.3294   23932790.925
        45.0004         40.0004
 -18719206.01749 -14533018.92548  21004085.3924   21004093.6434   21004086.076
        54.0004         49.0004
  -7211761.41248  -5559973.65147  22878654.0344   22878659.8234   22878653.673
        49.0004         44.0004
  -1282816.21148   -999428.16645  24543014.5514   24543025.8464   24543012.337
        53.0004         35.0004
 -18354915.11549 -14229256.21048  21078617.6594   21078625.6704   21078618.001
        54.0004         49.0004
  -4554686.30847  -3540982.98346  23216314.2664   23216321.5514   23216315.508
        43.0004         39.0004
 -10521166.03448  -8153634.42147  22023379.9234   22023388.2194   22023380.182
        50.0004         45.0004
 -12222792.38748  -9475950.73847  22293105.3424   22293113.8924   22293105.801
        51.0004         46.0004
 15  1  1  0  1 30.0000000  0  9G18G04G27G22G31G16G08G14G32
  -5427996.58547  -4106281.30046  23667916.9334   23667928.5544   23667917.404
        43.0004         38.0004
  -1435552.44547  -1111469.72746  24547955.4154   24547965.9734   24547954.827
        42.0004         37.0004
  -2711871.95947  -2064430.19946  23918588.2244   23918605.3574   23918588.270
        45.0004         41.0004
 -18649370.46249 -14478601.83048  21017375.0744   21017382.8014   21017375.432
        54.0004         49.0004
  -7168336.76848  -5526136.21147  22886918.2814   22886922.4424   22886916.740
        49.0004         44.0004
 -18418961.09749 -14279162.10748  21066429.6584   21066438.0324   21066430.085
        54.0004         49.0004
  -4543068.19747  -3531929.87946  23218524.8974   23218532.0684   23218525.390
        44.0004         39.0004
 -10545690.49348  -8172744.45947  22018712.5594   22018721.3264   22018713.580
        50.0004         45.0004
 -12287163.48548  -9526109.98747  22280856.3754   22280863.8014   22280856.433
        51.0004         46.0004
 15  1  1  0  2  0.0000000  0  9G18G04G27G22G31G16G08G14G32
  -5321621.94747  -4023391.63446  23688159.5164   23688168.0074   23688159.760
        43.0004         38.0004
  -1422555.81447  -1101342.51846  24550429.0744   24550440.2484   24550427.880
        42.0004         37.0004
  -2786672.40847  -2122716.15246  23904353.4504   23904371.3504   23904353.973
        46.0004         41.0004
 -18579161.81649 -14423894.01948  21030735.3914   21030743.5004   21030736.108
        54.0004         49.0004
  -7125049.50948  -5492405.82747  22895155.2704   22895159.8104   22895154.721
        49.0004         44.0004
 -18482502.25949 -14328674.63248  21054338.0644   21054346.0324   21054338.376
        54.0004         49.0004
  -4531370.95747  -3522815.09846  23220751.9674   23220758.5634   23220753.403
        44.0004         40.0004
 -10570023.89248  -8191705.62447  22014083.5134   22014090.5934   22014083.159
        50.0004         46.0004
 -12351165.23848  -9575981.42347  22268676.8384   22268684.7734   22268677.043
        51.0004         46.0004
 15  1  1  0  2 30.0000000  0 10G18G04G27G22G31G29G16G08G14G32
  -5215159.09847  -3940433.22346  23708418.0824   23708428.4764   23708419.560
        43.0004         38.0004
  -1409502.46946  -1091171.18246  24552913.2614   24552920.6454   24552910.454
        41.0004         36.0004
  -2861634.29647  -2181127.90746  23890090.2534   23890106.5954   23890089.675
        46.0004         41.0004
 -18508579.08049 -14368894.71648  21044166.8164   21044175.4624   21044167.638
        54.0004         49.0004
  -7081897.18948  -5458780.58347  22903366.1794   22903371.2304   22903366.239
        49.0004         44.0004
  -1196475.12749   -932084.26346  24558046.0594   24558059.8624   24558045.600
        54.0004         38.0004
 -18545532.70949 -14377789.20248  21042343.7714   21042351.7514   21042344.258
        54.0004         49.0004
  -4519593.21047  -3513637.59346  23222993.3944   23223000.9764   23222993.624
        45.0004         40.0004
 -10594160.23948  -8210513.24247  22009489.7504   22009498.7454   22009489.819
        50.0004         46.0004
 -12414792.24248  -9625560.86647  22256569.3364   22256576.7074   22256569.272
        51.0004         46.0004
 15  1  1  0  3  0.0000000  0 10G18G04G27G22G31G29G16G08G14G32
  -5108613.68947  -3857410.49446  23728693.2964   23728702.2264   23728694.075
        43.0004         39.0004
  -1396397.25646  -1080959.40346  24555405.2544   24555417.5494   24555404.896
        41.0004         36.0004
  -2936758.79647  -2239666.34246  23875793.9174   23875811.0764   23875793.043
        46.0004         41.0004
 -18437627.92949 -14313608.33548  21057668.2084   21057676.8924   21057668.915
        54.0004         49.0004
  -7038884.24448  -5425263.95647  22911551.9864   22911557.1474   22911550.807
        49.0004         44.0004
  -1169456.09248   -911029.36246  24563187.7884   24563201.9594   24563185.233
        48.0004         37.0004
 -18608053.76749 -14426506.84448  21030446.6974   21030454.7434   21030446.779
        54.0004         49.0004
  -4507739.76947  -3504401.10046  23225248.5214   23225255.7004   23225248.220
        45.0004         40.0004
 -10618100.22848  -8229167.84447  22004934.3234   22004942.2234   22004934.017
        50.0004         45.0004
 -12478045.69748  -9674849.21547  22244531.9084   22244539.5914   22244532.729
        51.0004         46.0004
 15  1  1  0  3 30.0000000  0 10G18G04G27G22G31G29G16G08G14G32
  -5001987.59247  -3774324.86846  23748983.6774   23748992.2764   23748983.481
        43.0004         39.0004
  -1383241.06046  -1070707.90045  24557909.2514   24557920.1984   24557910.300
        40.0004         35.0004
  -3012042.69347  -2298328.97746  23861467.6834   23861485.6054   23861467.261
        46.0004         41.0004
 -18366309.68349 -14258035.91048  21071240.6054   21071248.6684   21071241.277
        54.0004         49.0004
  -6996010.33648  -5391855.67947  22919710.5314   22919714.9914   22919709.971
        49.0004         44.0004
  -1142094.57847   -889707.95146  24568394.5944   24568407.0874   24568392.016
        44.0004         37.0004
 -18670061.94649 -14474824.84848  21018646.2564   21018654.6074   21018646.647
        54.0004         49.0004
  -4495811.30847  -3495106.15746  23227518.3754   23227526.7024   23227517.495
        44.0004         40.0004
 -10641839.92948  -8247666.38947  22000416.3934   22000424.2524   22000416.394
        50.0004         45.0004
 -12540922.27848  -9723843.88747  22232566.8334   22232574.5984   22232567.718
        51.0004         46.0004
 15  1  1  0  4  0.0000000  0 10G18G04G27G22G31G29G16G08G14G32
  -4895283.42447  -3691178.42646  23769287.7174   23769296.9894   23769288.440
        43.0004         39.0004
  -1370036.27046  -1060418.57545  24560424.4144   24560430.4774   24560421.686
        39.0004         34.0004
  -3087484.57747  -2357114.72346  23847111.4484   23847128.3664   23847110.498
        45.0004         40.0004
 -18294627.12048 -14202179.60648  21084880.9394   21084889.2894   21084882.201
        53.0004         49.0004
  -6953277.51848  -5358557.32947  22927842.5304   22927846.8354   22927841.232
        48.0004         44.0004
  -1114390.99947   -868120.54946  24573663.2874   24573677.0734   24573663.128
        42.0004         37.0004
 -18731555.61149 -14522741.92748  21006944.5154   21006952.6364   21006945.013
        54.0004         49.0004
  -4483810.17847  -3485754.59046  23229801.5334   23229808.6724   23229802.261
        44.0004         39.0004
 -10665377.32148  -8266007.28647  21995938.1104   21995946.5384   21995937.835
        50.0004         45.0004
 -12603420.66748  -9772543.88247  22220674.2354   22220681.5224   22220674.388
        51.0004         46.0004
 15  1  1  0  4 30.0000000  0 10G18G04G27G22G31G29G16G08G14G32
  -4788504.42047  -3607973.72146  23789606.1144   23789615.6404   23789606.684
        43.0004         39.0004
  -1356785.48346  -1050093.37945  24562947.5764   24562957.6194   24562945.758
        38.0004         33.0004
  -3163082.96247  -2416022.41546  23832725.2734   23832742.6844   23832723.795
        45.0004         40.0004
 -18222583.09548 -14146041.64148  21098590.5634   21098598.9874   21098591.609
        53.0004         49.0004
  -6910687.00248  -5325369.87547  22935946.7914   22935951.2974   22935945.223
        48.0004         44.0004
  -1086342.27247   -846263.48346  24579000.1394   24579014.3224   24579000.681
        42.0004         38.0004
 -18792533.22649 -14570256.89148  20995341.5604   20995349.2904   20995341.794
        54.0004         49.0004
  -4471738.83247  -3476348.31346  23232099.6014   23232106.0304   23232100.384
        44.0004         40.0004
 -10688710.22548  -8284188.85047  21991498.0674   21991506.4294   21991498.504
        50.0004         46.0004
 -12665539.46048  -9820948.08847  22208853.8694   22208860.4864   22208853.648
        51.0004         47.0004
 15  1  1  0  5  0.0000000  0 10G18G04G27G22G31G29G16G08G14G32
  -4681652.25947  -3524711.99746  23809938.9754   23809948.5074   23809940.112
        44.0004         39.0004
  -1343490.02646  -1039733.39445  24565480.0064   24565487.7814   24565473.121
        38.0004         33.0004
  -3238835.18147  -2475049.99246  23818310.4824   23818326.1364   23818310.018
        45.0004         40.0004
 -18150179.64448 -14089623.59648  21112368.9094   21112377.1904   21112369.484
        53.0004         49.0004
  -6868239.50048  -5292293.85847  22944023.0774   22944028.7734   22944023.063
        48.0004         44.0004
  -1057948.36547   -824137.65746  24584403.2934   24584417.1934   24584403.424
        42.0004         37.0004
 -18852991.59749 -14617367.24748  20983835.9684   20983843.9024   20983836.308
        54.0004         49.0004
  -4459598.48747  -3466888.24846  23234409.7684   23234417.9094   23234409.774
        44.0004         39.0004
 -10711835.67548  -8302208.76447  21987097.3374   21987105.3634   21987098.017
        50.0004         46.0004
 -12727276.13548  -9869054.52847  22197104.8094   22197111.8514   22197105.701
        51.0004         47.0004
 15  1  1  0  5 30.0000000  0 10G18G04G27G22G31G29G16G08G14G32
  -4574731.57147  -3441396.84346  23830285.0454   23830294.1704   23830285.072
        44.0004         39.0004
  -1330154.06246  -1029341.85645  24568012.2564   24568026.9954   24568012.447
        37.0004         33.0004
  -3314741.42647  -2534197.58446  23803865.5864   23803882.3174   23803865.128
        45.0004         41.0004
 -18077421.40248 -14032929.10048  21126214.2744   21126223.0904   21126215.260
        53.0004         49.0004
  -6825938.05048  -5259331.63847  22952073.6064   22952078.8144   22952073.682
        48.0004         44.0004
  -1029210.08746                  24589871.8454                   24589871.307
        41.0004
 -18912930.99149 -14664073.20648  20972429.9494   20972437.7474   20972430.145
        54.0004         49.0004
  -4447393.31747  -3457377.67846  23236731.7984   23236739.0894   23236732.837
        44.0004         39.0004
 -10734753.25148  -8320066.70947  21982737.1494   21982744.3584   21982737.390
        50.0004         46.0004
 -12788630.95648  -9916863.43747  22185429.9474   22185436.9924   22185429.672
        51.0004         47.0004
 15  1  1  0  6  0.0000000  0 10G18G04G27G22G31G29G16G08G14G32
  -4467740.79047  -3358026.99346  23850644.1814   23850653.7504   23850644.117
        43.0004         38.0004
  -1316775.31646  -1018916.98045  24570561.2984   24570573.9054   24570558.613
        38.0004         33.0004
  -3390795.63347  -2593460.48047  23789392.6324   23789409.6104   23789393.013
        46.0004         42.0004
 -18004306.48849 -13975956.68148  21140127.7014   21140136.9334   21140128.405
        54.0004         49.0004
  -6783779.58048  -5226480.84747  22960095.8154   22960100.9874   22960095.590
        48.0004         44.0004
  -1000123.09947   -779076.35046  24595407.3364   24595420.9104   24595406.197
        42.0004         38.0004
 -18972345.39549 -14710370.08148  20961123.8584   20961131.2904   20961123.960
        54.0004         49.0004
  -4435121.12447  -3447814.89246  23239067.8054   23239073.5494   23239066.563
        44.0004         39.0004
 -10757456.48148  -8337757.61547  21978416.8644   21978424.2984   21978416.297
        50.0004         46.0004
 -12849598.05048  -9964370.21747  22173828.3004   22173835.7144   22173829.186
        51.0004         47.0004
 15  1  1  0  6 30.0000000  0 10G18G04G27G22G31G29G16G08G14G32
  -4360689.20447  -3274609.72846  23871016.4804   23871023.4374   23871016.855
        43.0004         38.0004
                  -1008465.69445                  24573123.1634   24573111.560
                        32.0004
  -3467002.48847  -2652842.34147  23774890.3574   23774907.9254   23774889.626
        46.0004         42.0004
 -17930844.38649 -13918713.72048  21154107.3554   21154116.0864   21154107.642
        54.0004         49.0004
  -6741772.03448  -5193747.66447  22968088.6584   22968094.9944   22968089.318
        48.0004         44.0004
   -970693.17847   -756142.47946  24601004.3244   24601019.7084   24601006.195
        42.0004         38.0004
 -19031239.83849 -14756261.79248  20949917.0874   20949924.3404   20949917.174
        54.0004         49.0004
  -4422790.42447  -3438206.51446  23241411.8464   23241420.9264   23241414.106
        43.0004         38.0004
 -10779949.43048  -8355284.66947  21974136.0574   21974144.1194   21974136.329
        50.0004         46.0004
 -12910182.26948 -10011578.65947  22162299.3024   22162306.5194   22162299.367
        51.0004         47.0004
 15  1  1  0  7  0.0000000  0  9G18G27G22G31G29G16G08G14G32
  -4253566.86647  -3191137.30846  23891398.8254   23891409.7484   23891400.396
        42.0004         37.0004
  -3543347.36247  -2712331.72947  23760362.8634   23760379.5984   23760362.415
        46.0004         42.0004
 -17857024.71348 -13861192.13448  21168155.3104   21168164.1984   21168156.368
        53.0004         49.0004
  -6699903.86348  -5161123.06647  22976057.6414   22976061.7034   22976057.514
        48.0004         44.0004
   -940909.81446                  24606675.2214                   24606673.997
        41.0004
 -19089599.57849 -14801736.84148  20938811.1564   20938818.7694   20938811.261
        54.0004         49.0004
  -4410390.55347  -3428544.24646  23243774.1524   23243780.2924   23243773.317
        43.0004         38.0004
 -10802216.58348  -8372635.77147  21969899.0024   21969906.8734   21969898.578
        50.0004         46.0004
 -12970369.13148 -10058477.48047  22150846.4904   22150853.0944   22150847.140
        51.0004         47.0004
 15  1  1  0  7 30.0000000  0  9G18G27G22G31G29G16G08G14G32
  -4146394.03046  -3107625.54046  23911795.8064   23911799.9154   23911794.655
        41.0004         36.0004
  -3619845.91147  -2771940.84247  23745804.3714   23745821.9244   23745804.437
        46.0004         42.0004
 -17782867.86748 -13803407.82148  21182267.1004   21182275.1634   21182267.754
        53.0004         49.0004
  -6658193.93448  -5128621.78247  22983993.6024   22983998.1974   22983994.261
        48.0004         44.0004
                                                                  24612403.953

 -19147440.27749 -14846807.44148  20927804.4654   20927811.7154   20927804.486
        54.0004         49.0004
  -4397941.40747  -3418843.56246  23246141.8674   23246148.1874   23246141.593
        43.0004         38.0004
 -10824273.64448  -8389823.16347  21965701.7524   21965709.8764   21965701.867
        50.0004         46.0004
 -13030174.57948 -10105079.09947  22139465.3284   22139472.5824   22139465.823
        51.0004         47.0004
 15  1  1  0  8  0.0000000  0  9G18G27G22G31G29G16G08G14G32
  -4039162.83446  -3024068.33846  23932202.4204   23932208.5564   23932199.615
        40.0004         36.0004
  -3696485.62147  -2831659.96547  23731221.3844   23731238.1774   23731221.379
        46.0004         42.0004
 -17708365.92948 -13745354.60648  21196444.5314   21196453.2434   21196445.498
        53.0004         49.0004
  -6616632.65748  -5096236.34347  22991902.8914   22991907.4294   22991902.561
        48.0004         44.0004
   -878326.15658   -684664.79846  24618204.1155   24618214.0884   24618202.955
        50.0004         36.0004
 -19204749.33749 -14891463.77548  20916898.6004   20916906.2084   20916899.010
        54.0004         50.0004
  -4385434.24247  -3409097.66746  23248522.6344   23248530.3604   23248521.486
        43.0004         38.0004
 -10846107.77648  -8406836.86647  21961546.3774   21961554.7144   21961546.968
        50.0004         46.0004
 -13089586.34248 -10151373.94747  22128159.2464   22128167.1344   22128160.347
        51.0004         47.0004
 15  1  1  0  8 30.0000000  0  9G18G27G22G31G29G16G08G14G32
  -3931878.76746  -2940469.97345  23952616.1544   23952621.3934   23952614.661
        40.0004         35.0004
  -3773267.54347  -2891489.91547  23716610.9564   23716627.0924   23716611.399
        47.0004         42.0004
 -17633524.54348 -13687036.88548  21210686.5724   21210695.2264   21210687.347
        53.0004         49.0004
  -6575224.11748  -5063969.90647  22999782.3404   22999787.4414   22999781.371
        48.0004         44.0004
                                                                  24624064.284

 -19261528.16349 -14935706.93748  20906094.3204   20906101.2544   20906094.419
        54.0004         50.0004
  -4372873.93547  -3399310.38146  23250912.5514   23250918.9864   23250913.427
        43.0004         39.0004
 -10867719.04848  -8423676.90847  21957434.2514   21957442.4414   21957434.358
        51.0004         46.0004
 -13148605.72248 -10197363.05247  22116928.1244   22116936.2244   22116929.180
        52.0004         47.0004
 15  1  1  0  9  0.0000000  0  8G18G27G22G31G16G08G14G32
  -3824542.70446  -2856831.10045  23973037.4844   23973048.1844   23973040.992
        40.0004         35.0004
  -3850187.92047  -2951427.73447  23701972.3824   23701990.7674   23701971.853
        47.0004         42.0004
 -17558344.46548 -13628455.26448  21224993.0964   21225001.7164   21224993.799
        53.0004         49.0004
  -6533967.87048  -5031822.14347  23007633.4844   23007638.8664   23007633.741
        48.0004         44.0004
 -19317773.23249 -14979534.17648  20895390.8154   20895398.8464   20895391.234
        54.0004         50.0004
  -4360260.80747  -3389481.94846  23253313.4044   23253319.3994   23253314.428
        43.0004         39.0004
 -10889103.59748  -8440340.26947  21953364.7344   21953373.7864   21953365.287
        51.0004         46.0004
 -13207229.35348 -10243043.77347  22105773.2694   22105780.3654   22105773.328
        52.0004         47.0004
 15  1  1  0  9 30.0000000  0  8G18G27G22G31G16G08G14G32
  -3717160.71846  -2773156.34345  23993474.3704   23993479.8354   23993473.388
        40.0004         35.0004
  -3927248.40147  -3011474.72847  23687308.3694   23687325.6154   23687308.426
        47.0004         42.0004
 -17482832.22548 -13569614.80648  21239362.6964   21239371.6284   21239363.329
        53.0004         49.0004
  -6492868.44348  -4999796.59147  23015455.3824   23015458.9124   23015454.765
        48.0004         44.0004
 -19373486.57749 -15022947.07648  20884788.7424   20884796.4344   20884788.948
        54.0004         50.0004
  -4347600.66747  -3379616.85846  23255721.2354   23255728.0074   23255722.461
        43.0004         38.0004
 -10910262.73948  -8456827.98747  21949339.2344   21949346.5634   21949338.905
        51.0004         46.0004
 -13265459.16748 -10288417.61947  22094692.2934   22094699.8334   22094692.760
        52.0004         47.0004
 15  1  1  0 10  0.0000000  0  9G18G27G22G31G29G16G08G14G32
  -3609730.77846  -2689444.30945  24013914.8724   24013921.3374   24013916.355
        40.0004         35.0004
  -4004442.07747  -3071625.50347  23672618.6684   23672636.4184   23672618.996
        46.0004         42.0004
 -17406985.30648 -13510513.56348  21253796.1844   21253805.5354   21253796.972
        53.0004         49.0004
  -6451921.90748  -4967890.14347  23023246.5154   23023251.8634   23023244.900
        48.0004         43.0004
   -764499.67148   -596049.19445  24642054.2094   24642069.7604   24642058.459
        53.0004         35.0004
 -19428660.96849 -15065940.02548  20874289.6334   20874297.3894   20874290.011
        54.0004         50.0004
  -4334890.70747  -3369712.94346  23258140.0284   23258146.1654   23258139.648
        42.0004         37.0004
 -10931189.11348  -8473134.33247  21945355.6674   21945364.4794   21945356.676
        50.0004         46.0004
 -13323288.60948 -10333479.48647  22083687.8954   22083695.0714   22083688.638
        52.0004         47.0004
 15  1  1  0 10 30.0000000  0  8G18G27G22G31G16G08G14G32
  -3502258.43946  -2605699.25446  24034367.6634   24034373.2544   24034366.731
        40.0004         36.0004
  -4081769.90247  -3131880.84446  23657903.8374   23657920.4254   23657903.578
        46.0004         41.0004
 -17330809.49948 -13451156.05648  21268292.4754   21268300.9764   21268292.794
        53.0004         49.0004
  -6411132.32148  -4936106.01447  23031008.6564   23031012.3024   23031009.204
        48.0004         44.0004
 -19483298.12149 -15108514.34748  20863892.2304   20863900.2464   20863892.567
        54.0004         50.0004
  -4322135.82547  -3359774.00446  23260566.8794   23260576.2614   23260565.810
        42.0004         37.0004
 -10951883.29148  -8489259.73947  21941418.4964   21941427.2784   21941418.272
        50.0004         46.0004
 -13380719.06048 -10378230.45747  22072758.7624   22072765.9324   22072759.196
        52.0004         47.0004
 15  1  1  0 11  0.0000000  0  8G18G27G22G31G16G08G14G32
  -3394744.38646  -2521921.66645  24054827.0144   24054831.6214   24054826.277
        40.0004         35.0004
  -4159228.25747  -3192237.89446  23643163.6434   23643180.4484   23643163.245
        46.0004         41.0004
 -17254305.53548 -13391542.83048  21282850.5394   21282860.2034   21282851.287
        53.0004         49.0004
  -6370499.22348  -4904443.81247  23038739.7074   23038744.3734   23038739.888
        48.0004         43.0004
 -19537394.51049 -15150667.29848  20853598.0284   20853605.8104   20853598.317
        55.0004         50.0004
  -4309336.13547  -3349800.15046  23263002.9224   23263011.2374   23263001.499
        42.0004         38.0004
 -10972341.09448  -8505200.95847  21937526.1294   21937533.8854   21937525.756
        50.0004         46.0004
 -13437747.23948 -10422667.96947  22061906.8004   22061913.8344   22061907.299
        52.0004         47.0004
 15  1  1  0 11 30.0000000  0  9G18G27G22G31G29G16G08G14G32
  -3287193.88846  -2438115.67745  24075292.1144   24075298.1144   24075293.131
        40.0004         35.0004
  -4236817.68547  -3252697.10146  23628399.6944   23628415.6794   23628398.524
        46.0004         41.0004
 -17177478.95548 -13331678.22848  21297470.5204   21297479.7584   21297470.898
        53.0004         49.0004
  -6330026.26848  -4872906.41347  23046442.9424   23046447.0374   23046442.612
        48.0004         44.0004
                                                                  24660652.751

 -19590950.91949 -15192399.48048  20843406.4594   20843413.4764   20843406.502
        55.0004         50.0004
  -4296496.32447  -3339795.08246  23265445.1394   23265454.4014   23265447.286
        42.0004         37.0004
 -10992562.78348  -8520958.19547  21933677.7774   21933686.2134   21933677.951
        51.0004         46.0004
 -13494374.21048 -10466792.84747  22051131.1304   22051138.0984   22051130.987
        52.0004         47.0004
 15  1  1  0 12  0.0000000  0  9G18G27G22G31G29G16G08G14G32
  -3179608.11046  -2354282.29945  24095764.0364   24095771.6974   24095766.156
        39.0004         34.0004
  -4314534.56547  -3313255.59347  23613609.9644   23613626.6184   23613610.471
        46.0004         42.0004
 -17100330.66048 -13271562.93448  21312151.7344   21312160.2154   21312152.043
        53.0004         49.0004
  -6289712.78548  -4841493.25747  23054112.5154   23054118.0614   23054111.988
        48.0004         44.0004
                                                                  24666982.263

 -19643964.36649 -15233708.57848  20833318.4904   20833325.8804   20833318.851
        55.0004         50.0004
  -4283616.65046  -3329758.95446  23267895.9854   23267904.0034   23267896.956
        41.0004         36.0004
 -11012544.54648  -8536528.47047  21929875.0424   21929882.9824   21929875.277
        50.0004         46.0004
 -13550596.73548 -10510602.58547  22040432.4284   22040439.8394   22040432.688
        52.0004         47.0004
 15  1  1  0 12 30.0000000  0  9G18G27G22G31G29G16G08G14G32
  -3071992.43046  -2270425.67345  24116242.1334   24116253.0874   24116242.081
        39.0004         34.0004
  -4392379.56047  -3373913.93847  23598795.8664   23598813.1124   23598795.882
        47.0004         42.0004
 -17022866.30048 -13211201.35648  21326892.2204   21326901.5544   21326892.840
        53.0004         49.0004
  -6249562.74948  -4810207.46547  23061753.8024   23061758.2614   23061752.480
        48.0004         43.0004
   -623189.79459   -485970.81456  24673381.3985   24673392.6685   24673382.152
        56.0004         37.0004
 -19696435.99549 -15274595.48248  20823333.7004   20823340.7664   20823333.830
        55.0004         50.0004
  -4270702.10246  -3319695.61146  23270353.0714   23270361.8124   23270355.626
        41.0004         36.0004
 -11032286.27548  -8551911.71547  21926118.9964   21926126.5394   21926118.770
        51.0004         46.0004
 -13606416.00648 -10554098.08647  22029810.2674   22029816.9154   22029810.730
        52.0004         47.0004
 15  1  1  0 13  0.0000000  0  9G18G27G22G31G29G16G08G14G32
                  -2186541.73245                  24136731.0724   24136728.126
                        33.0004
  -4470342.64247  -3434664.27147  23583960.4304   23583977.3664   23583959.971
        47.0004         43.0004
 -16945081.06248 -13150589.74048  21341695.0844   21341703.7464   21341695.975
        53.0004         49.0004
  -6209569.17948  -4779043.62247  23069364.4324   23069368.3374   23069364.812
        48.0004         43.0004
                                                                  24679847.698

 -19748355.89549 -15315052.46248  20813453.2394   20813460.5714   20813453.668
        55.0004         50.0004
  -4257746.79646  -3309600.50146  23272819.9954   23272827.7764   23272821.655
        41.0004         37.0004
 -11051778.45148  -8567100.49447  21922409.4374   21922418.3484   21922409.480
        51.0004         46.0004
 -13661822.59648 -10597272.02847  22019265.9554   22019274.0184   22019266.983
        52.0004         47.0004
 15  1  1  0 13 30.0000000  0  8G18G27G22G31G16G08G14G32
                  -2102638.66745                  24157228.8964   24157219.665
                        31.0004
  -4548430.64147  -3495511.93247  23569100.8844   23569117.6444   23569100.565
        47.0004         43.0004
 -16866985.97048 -13089736.68848  21356556.1484   21356565.2694   21356557.042
        53.0004         49.0004
  -6169741.64048  -4748009.14247  23076943.4924   23076948.2644   23076942.532
        48.0004         43.0004
 -19799731.82149 -15355085.57648  20803676.5204   20803684.1384   20803676.669
        55.0004         50.0004
  -4244761.34946  -3299481.92746  23275291.8964   23275299.0944   23275290.919
        41.0004         37.0004
 -11071027.16648  -8582099.56747  21918746.7844   21918755.4234   21918746.834
        51.0004         46.0004
 -13716823.91148 -10640130.16847  22008800.3104   22008807.1394   22008800.800
        52.0004         47.0004
 15  1  1  0 14  0.0000000  0  8G18G27G22G31G16G08G14G32
                                                                  24177709.276

  -4626656.40147  -3556466.98047  23554214.4894   23554231.9104   23554214.414
        47.0004         42.0004
 -16788598.53448 -13028655.84048  21371472.7534   21371482.2874   21371473.212
        53.0004         49.0004
  -6130096.08448  -4717116.48747  23084486.6034   23084492.7284   23084485.161
        48.0004         43.0004
 -19850577.27949 -15394705.33548  20794000.7764   20794008.4234   20794000.968
        55.0004         50.0004
  -4231762.85346  -3289353.19446  23277763.8894   23277773.0454   23277765.755
        41.0004         37.0004
 -11090045.02448  -8596918.76247  21915128.0484   21915136.1634   21915127.896
        51.0004         46.0004
 -13771433.28748 -10682682.89647  21998408.5984   21998415.1674   21998409.064
        52.0004         47.0004
 15  1  1  0 14 30.0000000  0  8G18G27G22G31G16G08G14G32
                                                                  24198208.244

  -4704979.33147  -3617497.74347  23539310.0794   23539327.4754   23539309.345
        47.0004         42.0004
 -16709882.79948 -12967319.17848  21386452.4144   21386461.8014   21386452.949
        53.0004         48.0004
  -6090594.87648  -4686336.29947  23092004.0134   23092008.7634   23092003.974
        48.0004         44.0004
 -19900851.77249 -15433880.20048  20784434.1504   20784441.1724   20784434.571
        55.0004         50.0004
  -4218714.70646  -3279185.69446  23280245.7614   23280253.2964   23280246.033
        41.0004         37.0004
 -11108790.87248  -8611525.99747  21911560.8694   21911569.8914   21911561.062
        51.0004         46.0004
 -13825610.74248 -10724899.05847  21988098.4394   21988106.2304   21988098.958
        52.0004         47.0004
 15  1  1  0 15  0.0000000  0  7G27G22G31G16G08G14G32
  -4783418.71447  -3678619.24347  23524382.9834   23524400.5284   23524384.039
        47.0004         42.0004
 -16630863.27948 -12905745.79948  21401489.1744   21401499.1954   21401489.930
        53.0004         48.0004
  -6051260.51448  -4655686.13847  23099489.5934   23099494.0794   23099489.396
        48.0004         44.0004
 -19950575.33149 -15472625.75448  20774971.5124   20774979.5934   20774971.627
        55.0004         50.0004
  -4205640.27646  -3268997.76646  23282734.6054   23282743.6504   23282735.448
        41.0004         37.0004
 -11127284.07548  -8625936.37047  21908041.9324   21908050.3174   21908041.869
        51.0004         46.0004
 -13879376.18048 -10766794.16947  21977867.0304   21977874.2254   21977867.582
        52.0004         47.0004
 15  1  1  0 15 30.0000000  0  7G27G22G31G16G08G14G32
  -4861971.20647  -3739828.86247  23509435.0644   23509452.5944   23509434.739
        47.0004         42.0004
 -16551541.54948 -12843936.94548  21416583.4044   21416593.3694   21416584.325
        53.0004         48.0004
  -6012092.75748  -4625165.79147  23106942.0654   23106947.5474   23106942.365
        48.0004         43.0004
 -19999745.17549 -15510939.85448  20765615.2584   20765622.6044   20765615.830
        55.0004         50.0004
  -4192540.25146  -3258789.83546  23285227.6144   23285236.6334   23285229.001
        41.0004         37.0004
 -11145521.06148  -8640147.10447  21904571.1294   21904579.0594   21904571.704
        51.0004         46.0004
 -13932726.86848 -10808366.09747  21967715.1234   21967722.0694   21967715.430
        52.0004         47.0004
 15  1  1  0 16  0.0000000  0  8G27G22G31G29G16G08G14G32
  -4940633.72047  -3801124.22647  23494465.9394   23494483.3704   23494466.298
        47.0004         43.0004
 -16471919.26348 -12781893.87048  21431735.8374   21431745.1904   21431737.231
        53.0004         48.0004
  -5973091.99948  -4594775.56547  23114364.3594   23114368.3164   23114363.409
        48.0004         43.0004
                                                                  24720055.130

 -20048359.22149 -15548820.86448  20756364.1964   20756371.4824   20756364.294
        55.0004         50.0004
  -4179415.86546  -3248563.00346  23287726.7974   23287734.0214   23287726.727
        41.0004         37.0004
 -11163498.86348  -8654155.88047  21901149.5744   21901158.4564   21901150.099
        51.0004         46.0004
 -13985660.60448 -10849613.13147  21957642.0914   21957649.0064   21957642.259
        52.0004         47.0004
 15  1  1  0 16 30.0000000  0  7G27G22G31G16G08G14G32
  -5019408.50647  -3862507.07947  23479475.7614   23479493.0514   23479476.502
        47.0004         43.0004
 -16392003.69848 -12719622.28248  21446942.6504   21446953.0174   21446943.805
        53.0004         48.0004
  -5934263.34448  -4564519.46247  23121752.2204   23121757.7824   23121752.807
        48.0004         43.0004
 -20096420.45649 -15586271.10848  20747218.3924   20747225.7914   20747218.834
        55.0004         50.0004
  -4166273.52546  -3238322.11846  23290226.0414   23290231.5114   23290226.982
        41.0004         37.0004
 -11181219.35348  -8667964.15047  21897779.0464   21897786.6974   21897778.167
        51.0004         46.0004
 -14038180.28648 -10890537.53347  21947647.8284   21947655.0524   21947648.446
        52.0004         47.0004
 15  1  1  0 17  0.0000000  0  7G27G22G31G16G08G14G32
  -5098287.77648  -3923971.35947  23464466.4704   23464482.3394   23464466.049
        48.0004         43.0004
 -16311791.62648 -12657119.64548  21462207.1764   21462217.3564   21462208.303
        53.0004         48.0004
  -5895601.71948  -4534393.52647  23129110.6444   23129115.9584   23129110.566
        48.0004         44.0004
 -20143921.62349 -15623284.93848  20738178.7864   20738186.5114   20738178.870
        55.0004         50.0004
  -4153109.29546  -3228064.17346  23292731.5404   23292738.7044   23292733.590
        41.0004         37.0004
 -11198674.20548  -8681565.44647  21894456.9894   21894465.5624   21894457.564
        51.0004         46.0004
 -14090278.76548 -10931133.72247  21937733.5814   21937741.0174   21937733.800
        52.0004         47.0004
 15  1  1  0 17 30.0000000  0  8G03G27G22G31G16G08G14G32
   -671408.87548   -465955.32946  24750485.8684   24750495.9864   24750484.441
        48.0004         37.0004
  -5177272.39548  -3985517.72347  23449436.2734   23449451.6144   23449435.660
        48.0004         43.0004
 -16231289.06548 -12594390.65348  21477526.4264   21477536.3924   21477527.216
        53.0004         48.0004
  -5857111.06948  -4504400.79647  23136435.2264   23136439.2074   23136433.784
        48.0004         43.0004
 -20190863.99849 -15659863.33948  20729246.0934   20729253.2384   20729246.514
        55.0004         50.0004
  -4139928.39147  -3217793.29446  23295239.7664   23295244.4404   23295241.323
        42.0004         37.0004
 -11215864.38748  -8694960.49347  21891185.9004   21891194.1764   21891185.484
        51.0004         46.0004
 -14141957.73348 -10971403.01447  21927899.1804   21927907.0724   21927900.037
        52.0004         47.0004
 15  1  1  0 18  0.0000000  0  8G03G27G22G31G16G08G14G32
   -763852.15947   -537989.00246  24732896.1074   24732902.4284   24732895.818
        44.0004         38.0004
  -5256359.54647  -4047144.01047  23434385.9684   23434401.8454   23434385.293
        47.0004         43.0004
 -16150498.55448 -12531437.29048  21492900.5744   21492911.1694   21492901.384
        52.0004         48.0004
  -5818791.79848  -4474541.61447  23143727.2814   23143731.2364   23143726.468
        48.0004         43.0004
 -20237245.98349 -15696005.06848  20720419.8054   20720427.2034   20720420.294
        55.0004         50.0004
  -4126732.08947  -3207510.38046  23297749.5274   23297757.7664   23297750.275
        42.0004         37.0004
 -11232787.06648  -8708147.09047  21887965.9274   21887973.8044   21887966.090
        51.0004         46.0004
 -14193215.11848 -11011343.80347  21918145.7054   21918152.5044   21918146.092
        52.0004         47.0004
 15  1  1  0 18 30.0000000  0  9G03G27G22G31G29G16G08G14G32
   -856065.90747   -609843.82446  24715348.1344   24715354.8524   24715347.371
        43.0004         38.0004
  -5335548.63248  -4108849.71547  23419317.4944   23419332.3374   23419317.287
        48.0004         43.0004
 -16069423.98748 -12468262.57948  21508329.2714   21508338.9404   21508329.539
        52.0004         48.0004
  -5780646.40148  -4444817.92747  23150984.4594   23150989.8994   23150984.895
        48.0004         43.0004
                                                                  24755416.781

 -20283068.30549 -15731710.71248  20711700.0074   20711707.3284   20711700.456
        55.0004         50.0004
  -4113523.90447  -3197218.22846  23300263.3314   23300269.0334   23300263.209
        42.0004         37.0004
 -11249441.56148  -8721124.72047  21884795.2714   21884805.2534   21884796.350
        51.0004         46.0004
 -14244051.35048 -11050956.41847  21908472.0234   21908478.7314   21908472.795
        52.0004         47.0004
 15  1  1  0 19  0.0000000  0  8G03G27G22G31G16G08G14G32
   -948045.57247   -681516.22246  24697844.1494   24697852.0074   24697844.475
        43.0004         38.0004
  -5414835.16047  -4170631.34047  23404228.4594   23404244.0084   23404228.181
        47.0004         43.0004
 -15988065.76948 -12404866.83948  21523810.8524   21523820.9654   21523811.724
        52.0004         48.0004
  -5742673.18848  -4415228.40047  23158211.6214   23158215.9214   23158212.265
        48.0004         44.0004
 -20328327.08149 -15766977.21948  20703087.6504   20703094.9184   20703088.111
        55.0004         50.0004
  -4100303.26347  -3186916.31546  23302779.3774   23302786.2284   23302780.141
        43.0004         38.0004
 -11265822.95648  -8733889.53947  21881679.2664   21881688.5104   21881679.573
        51.0004         46.0004
 -14294462.62948 -11090237.90947  21898878.8934   21898885.7994   21898878.832
        52.0004         47.0004
 15  1  1  0 19 30.0000000  0  8G03G27G22G31G16G08G14G32
  -1039789.10647   -753004.62446  24680386.3314   24680392.8424   24680385.380
        43.0004         38.0004
  -5494217.24247  -4232487.39047  23389122.6534   23389139.3734   23389121.789
        47.0004         43.0004
 -15906426.91648 -12341252.43948  21539346.9464   21539357.6554   21539347.934
        52.0004         48.0004
  -5704873.48448  -4385774.07147  23165405.2584   23165410.4544   23165403.931
        48.0004         43.0004
 -20373021.17449 -15801803.72348  20694582.9964   20694589.8944   20694583.061
        55.0004         50.0004
  -4087072.66647  -3176606.69046  23305297.2954   23305304.7494   23305297.870
        43.0004         39.0004
 -11281929.62948  -8746440.29047  21878614.0534   21878623.1014   21878614.200
        51.0004         46.0004
 -14344448.12548 -11129187.62048  21889366.5574   21889373.9744   21889367.174
        52.0004         48.0004
 15  1  1  0 20  0.0000000  0  8G03G27G22G31G16G08G14G32
  -1131294.82547   -824307.73946  24662973.6874   24662979.7914   24662973.616
        43.0004         38.0004
  -5573693.25548  -4294416.63047  23373998.3044   23374014.7774   23373998.134
        48.0004         43.0004
 -15824510.89148 -12277422.04748  21554934.6964   21554945.2524   21554935.451
        52.0004         48.0004
  -5667248.61248  -4356455.98447  23172564.7554   23172567.7754   23172564.283
        48.0004         43.0004
 -20417149.89149 -15836189.66348  20686185.1944   20686192.3594   20686185.349
        55.0004         50.0004
  -4073834.64647  -3166291.25646  23307816.8914   23307822.5474   23307816.631
        43.0004         39.0004
 -11297759.67348  -8758775.49847  21875602.4084   21875610.4144   21875602.166
        51.0004         46.0004
 -14394006.90048 -11167804.82848  21879935.9814   21879943.4304   21879936.580
        52.0004         48.0004
 15  1  1  0 20 30.0000000  0  9G03G27G22G31G29G16G08G14G32
  -1222563.65547   -895426.29546  24645605.9424   24645612.9264   24645605.246
        43.0004         38.0004
  -5653264.11448  -4356419.78347  23358857.5614   23358873.7614   23358856.877
        48.0004         44.0004
 -15742323.66548 -12213380.34547  21570574.7664   21570585.2444   21570575.381
        52.0004         47.0004
  -5629802.47048  -4327277.18047  23179690.4374   23179693.7184   23179690.878
        48.0004         43.0004
                                                                  24784926.005

 -20460715.44849 -15870136.78248  20677895.4694   20677901.9504   20677895.431
        55.0004         50.0004
  -4060594.13847  -3155973.87746  23310334.7344   23310341.2694   23310334.892
        43.0004         38.0004
 -11313314.05148  -8770895.89247  21872642.2214   21872650.4074   21872642.209
        51.0004         46.0004
 -14443140.99948 -11206091.12748  21870586.4104   21870593.2004   21870586.505
        53.0004         48.0004
 15  1  1  0 21  0.0000000  0  8G03G27G22G31G16G08G14G32
  -1313586.92147   -966353.52046  24628284.4214   24628291.6164   24628282.536
        43.0004         39.0004
  -5732921.26848  -4418490.18747  23343698.5714   23343714.3724   23343698.089
        48.0004         43.0004
 -15659861.74748 -12149124.58148  21586266.8744   21586277.6874   21586267.755
        52.0004         48.0004
  -5592529.77948  -4298233.51347  23186782.3624   23186787.0744   23186782.521
        48.0004         43.0004
 -20503710.25449 -15903639.15448  20669712.9854   20669720.2194   20669713.041
        55.0004         50.0004
  -4047346.88247  -3145651.22646  23312856.3174   23312863.9014   23312856.081
        43.0004         38.0004
 -11328584.33148  -8782794.91747  21869736.2304   21869745.1724   21869737.430
        51.0004         47.0004
 -14491842.75548 -11244040.54148  21861318.6684   21861326.4444   21861318.974
        53.0004         48.0004
 15  1  1  0 21 30.0000000  0  8G03G27G22G31G16G08G14G32
  -1404364.14047  -1037089.02946  24611010.1604   24611017.2884   24611008.820
        43.0004         39.0004
  -5812664.27048  -4480627.51047  23328524.4994   23328539.8654   23328524.193
        48.0004         43.0004
 -15577129.74948 -12084658.36747  21602010.2954   21602020.7154   21602011.264
        52.0004         47.0004
  -5555433.05548  -4269326.95647  23193842.2494   23193847.6604   23193842.101
        48.0004         43.0004
 -20546134.66449 -15936697.06448  20661639.7754   20661647.3004   20661640.022
        55.0004         50.0004
  -4034096.53147  -3135326.15646  23315378.7914   23315385.9964   23315378.894
        43.0004         39.0004
 -11343569.95048  -8794472.12947  21866884.6284   21866892.6594   21866885.065
        51.0004         46.0004
 -14540112.69248 -11281653.47848  21852133.3414   21852140.2204   21852133.683
        53.0004         48.0004
 15  1  1  0 22  0.0000000  0  8G03G27G22G31G16G08G14G32
  -1494899.72147  -1107636.32946  24593781.2814   24593788.8474   24593780.351
        44.0004         39.0004
  -5892497.45048  -4542835.08347  23313332.6214   23313348.5024   23313332.765
        48.0004         43.0004
 -15494136.84348 -12019988.84147  21617803.8074   21617814.4864   21617804.620
        52.0004         47.0004
  -5518519.57348  -4240563.19647  23200866.2494   23200870.7274   23200865.679
        48.0004         43.0004
 -20587994.60449 -15969315.13148  20653674.1614   20653681.3774   20653673.969
        55.0004         50.0004
  -4020851.71947  -3125005.40246  23317898.1914   23317906.2254   23317899.973
        44.0004         39.0004
 -11358275.10348  -8805930.80147  21864086.7294   21864095.0724   21864086.604
        51.0004         46.0004
 -14587956.33148 -11318934.23448  21843028.7054   21843035.8844   21843029.299
        53.0004         48.0004
 15  1  1  0 22 30.0000000  0  8G03G27G22G31G16G08G14G32
  -1585183.07847  -1177987.05946  24576601.1404   24576609.5714   24576599.644
        43.0004         39.0004
  -5972410.32948  -4605104.75347  23298125.5954   23298140.5814   23298124.836
        48.0004         44.0004
 -15410877.94248 -11955112.04847  21633647.9864   21633658.4024   21633648.603
        52.0004         47.0004
  -5481781.84348  -4211936.38047  23207857.2774   23207861.9014   23207857.471
        48.0004         44.0004
 -20629280.54449 -16001485.92848  20645817.7644   20645824.6534   20645818.008
        55.0004         50.0004
  -4007606.23447  -3114684.15346  23320418.8234   23320426.5254   23320419.172
        44.0004         39.0004
 -11372689.54348  -8817162.94547  21861343.9204   21861352.4084   21861343.970
        51.0004         46.0004
 -14635364.05948 -11355875.31048  21834007.4124   21834014.4394   21834008.058
        53.0004         48.0004
 15  1  1  0 23  0.0000000  0  8G03G27G22G31G16G08G14G32
  -1675213.18347  -1248140.43846  24559468.9424   24559476.8024   24559468.374
        43.0004         39.0004
  -6052401.80048  -4667435.66547  23282903.5764   23282919.5144   23282903.075
        48.0004         44.0004
 -15327356.97848 -11890031.05948  21649541.5574   21649552.6134   21649541.931
        52.0004         48.0004
  -5445221.85548  -4183448.06947  23214814.3164   23214820.2614   23214814.435
        48.0004         43.0004
 -20669992.51949 -16033209.48048  20638070.6964   20638077.6684   20638070.949
        55.0004         50.0004
  -3994362.92947  -3104364.63346  23322938.7574   23322946.2404   23322938.892
        43.0004         38.0004
 -11386812.45348  -8828167.94147  21858656.2054   21858665.5264   21858656.291
        51.0004         46.0004
 -14682335.84748 -11392476.69648  21825069.0174   21825075.7924   21825069.209
        53.0004         48.0004
 15  1  1  0 23 30.0000000  0  8G03G27G22G31G16G08G14G32
  -1764993.04147  -1318098.83146  24542383.6344   24542391.8454   24542383.174
        44.0004         39.0004
  -6132474.85548  -4729830.17147  23267665.7974   23267682.1204   23267665.460
        48.0004         44.0004
 -15243581.84148 -11824752.01447  21665483.3454   21665494.4044   21665484.349
        52.0004         47.0004
  -5408845.83448  -4155103.11147  23221737.3784   23221740.1504   23221737.006
        48.0004         43.0004
 -20710134.86949 -16064489.16848  20630431.4854   20630438.7164   20630431.644
        55.0004         50.0004
  -3981129.37047  -3094052.68146  23325456.7184   23325463.9954   23325457.466
        43.0004         39.0004
 -11400646.55748  -8838947.89147  21856023.8754   21856032.9344   21856023.584
        51.0004         46.0004
 -14728875.95348 -11428741.71148  21816212.7034   21816220.0084   21816212.980
        53.0004         48.0004
 15  1  1  0 24  0.0000000  0  8G03G27G22G31G16G08G14G32
  -1854516.86147  -1387857.70246  24525348.9704   24525355.4814   24525348.656
        44.0004         39.0004
  -6212623.67948  -4792283.74247  23252414.1874   23252428.8194   23252414.141
        48.0004         43.0004
 -15159551.46848 -11759274.09247  21681474.9334   21681485.1524   21681475.300
        52.0004         47.0004
  -5372650.30748  -4126898.79947  23228624.0464   23228629.3564   23228623.957
        48.0004         43.0004
 -20749703.14849 -16095321.53648  20622901.8624   20622908.9034   20622901.847
        55.0004         50.0004
  -3967903.74347  -3083746.91746  23327973.2604   23327981.9594   23327973.200
        44.0004         39.0004
 -11414185.68748  -8849497.99847  21853447.6554   21853457.0134   21853448.117
        51.0004         47.0004
 -14774979.61648 -11464666.64148  21807439.7104   21807446.1904   21807439.670
        53.0004         48.0004
 15  1  1  0 24 30.0000000  0  8G03G27G22G31G16G08G14G32
  -1943782.25747  -1457415.21346  24508361.0794   24508368.8964   24508362.032
        43.0004         38.0004
  -6292845.82648  -4854794.44147  23237148.0944   23237163.1574   23237146.857
        48.0004         43.0004
 -15075269.19048 -11693599.89947  21697512.8584   21697523.2584   21697513.183
        52.0004         47.0004
  -5336636.35448  -4098835.98547  23235477.2654   23235481.6504   23235476.478
        48.0004         43.0004
 -20788696.20249 -16125705.66548  20615481.8624   20615488.8124   20615482.070
        55.0004         50.0004
  -3954687.79847  -3073448.70446  23330489.4544   23330494.5584   23330488.025
        44.0004         40.0004
 -11427427.97648  -8859816.81747  21850927.1734   21850937.5694   21850927.242
        51.0004         46.0004
 -14820645.52648 -11500250.44748  21798749.3784   21798756.4654   21798749.863
        53.0004         48.0004
 15  1  1  0 25  0.0000000  0  8G03G27G22G31G16G08G14G32
  -2032789.20947  -1526771.33746  24491424.1084   24491432.2054   24491423.672
        43.0004         38.0004
  -6373141.16448  -4917362.17647  23221868.9714   23221884.3734   23221868.845
        48.0004         43.0004
 -14990739.69348 -11627733.06247  21713598.9094   21713609.0644   21713599.167
        52.0004         47.0004
  -5300806.77548  -4070916.82547  23242295.7324   23242300.6994   23242295.336
        48.0004         44.0004
 -20827115.28149 -16155642.54148  20608170.9804   20608177.8904   20608171.025
        55.0004         50.0004
  -3941485.65947  -3063161.23646  23333000.9244   23333008.3604   23332999.830
        44.0004         40.0004
 -11440373.65848  -8869904.52047  21848464.4814   21848473.1384   21848464.822
        51.0004         46.0004
 -14865874.81548 -11535494.02948  21790142.8054   21790149.9804   21790142.895
        53.0004         48.0004
 15  1  1  0 25 30.0000000  0  8G03G27G22G31G16G08G14G32
  -2121531.95247  -1595921.56446  24474536.9754   24474545.1274   24474534.568
        43.0004         38.0004
  -6453503.76348  -4979982.31047  23206576.2714   23206591.0604   23206575.912
        48.0004         43.0004
 -14905962.20148 -11561672.98147  21729731.2184   21729742.1344   21729732.585
        52.0004         47.0004
  -5265158.88548  -4043139.23647  23249080.1364   23249084.3754   23249079.713
        48.0004         44.0004
 -20864955.75749 -16185128.55548  20600970.1904   20600976.8304   20600970.397
        55.0004         50.0004
  -3928295.43147  -3052883.05746  23335510.7824   23335517.9724   23335510.768
        44.0004         40.0004
 -11453016.68648  -8879756.37647  21846058.1044   21846067.8664   21846058.659
        51.0004         46.0004
 -14910662.74448 -11570393.68448  21781619.7474   21781626.8374   21781620.578
        53.0004         49.0004
 15  1  1  0 26  0.0000000  0  8G03G27G22G31G16G08G14G32
  -2210010.17747  -1664865.61846  24457699.7844   24457707.5994   24457701.464
        43.0004         38.0004
  -6533933.25448  -5042654.57647  23191270.1084   23191285.6924   23191270.493
        48.0004         43.0004
 -14820941.62048 -11495423.46247  21745909.9504   21745921.5774   21745910.797
        52.0004         47.0004
  -5229695.29248  -4015505.25947  23255828.7854   23255832.4164   23255827.367
        48.0004         43.0004
 -20902218.73449 -16214164.58048  20593878.7174   20593885.7344   20593878.950
        55.0004         50.0004
  -3915121.23947  -3042617.41446  23338016.9594   23338024.0574   23338017.874
        45.0004         40.0004
 -11465357.13548  -8889372.47647  21843710.9094   21843719.0454   21843711.273
        51.0004         46.0004
 -14955010.20948 -11604950.12648  21773180.6664   21773187.9224   21773181.109
        53.0004         49.0004
 15  1  1  0 26 30.0000000  0  8G03G27G22G31G16G08G14G32
  -2298222.88647  -1733602.82746  24440914.7174   24440921.7184   24440912.590
        43.0004         39.0004
  -6614428.47848  -5105378.07847  23175952.5654   23175967.7024   23175952.245
        48.0004         43.0004
 -14735681.81048 -11428987.52447  21762135.5364   21762145.8324   21762135.913
        52.0004         47.0004
  -5194417.47548  -3988016.03247  23262539.6564   23262545.1904   23262540.589
        48.0004         43.0004
 -20938904.73549 -16242751.00748  20586897.8274   20586904.8244   20586898.126
        55.0004         50.0004
  -3901966.22347  -3032366.68746  23340521.1644   23340528.0654   23340521.108
        45.0004         41.0004
 -11477393.77748  -8898751.85647  21841419.9534   21841428.6924   21841420.401
        51.0004         46.0004
 -14998917.36048 -11639163.45548  21764825.0824   21764832.6984   21764826.099
        53.0004         48.0004
 15  1  1  0 27  0.0000000  0  8G03G27G22G31G16G08G14G32
  -2386164.27147  -1802128.58146  24424177.0594   24424186.2904   24424179.415
        43.0004         38.0004
  -6694983.43647  -5168148.14447  23160623.5764   23160639.4014   23160622.673
        47.0004         43.0004
 -14650181.92848 -11362364.49847  21778405.0694   21778416.5034   21778405.220
        52.0004         47.0004
  -5159322.68748  -3960669.43347  23269219.3484   23269224.3544   23269217.452
        48.0004         43.0004
 -20975009.06049 -16270884.18748  20580027.3704   20580034.4954   20580027.740
        55.0004         50.0004
  -3888828.68847  -3022129.58747  23343020.9024   23343027.9694   23343020.001
        46.0004         42.0004
 -11489120.92048  -8907890.05747  21839187.8014   21839197.1474   21839187.631
        51.0004         46.0004
 -15042379.59148 -11673030.10248  21756554.7604   21756562.2354   21756554.997
        53.0004         48.0004
 15  1  1  0 27 30.0000000  0  8G03G27G22G31G16G08G14G32
  -2473837.80347  -1870445.61746  24407496.2214   24407503.7254   24407496.016
        43.0004         38.0004
  -6775601.38348  -5230967.30447  23145282.8614   23145297.8074   23145282.844
        48.0004         43.0004
 -14564450.43048 -11295560.98547  21794720.1144   21794731.3134   21794720.871
        52.0004         47.0004
  -5124417.16748  -3933470.30947  23275862.5074   23275865.9954   23275861.578
        48.0004         44.0004
 -21010536.52549 -16298567.85948  20573266.8724   20573273.6234   20573267.175
        55.0004         50.0004
  -3875715.83247  -3011911.71647  23345516.4234   23345522.5224   23345516.338
        46.0004         42.0004
 -11500541.78348  -8916789.61147  21837015.4964   21837024.3024   21837015.626
        51.0004         46.0004
 -15085401.38948 -11706553.56048  21748368.3764   21748374.7714   21748368.971
        53.0004         48.0004
 15  1  1  0 28  0.0000000  0  8G03G27G22G31G16G08G14G32
  -2561236.50147  -1938548.56546  24390864.2844   24390871.8014   24390864.618
        43.0004         39.0004
  -6856275.17648  -5293829.98747  23129930.8374   23129946.0064   23129931.130
        48.0004         43.0004
 -14478485.71848 -11228575.75847  21811078.6534   21811090.1724   21811079.903
        52.0004         47.0004
  -5089696.68148  -3906415.40147  23282469.3644   23282473.7914   23282468.372
        48.0004         43.0004
 -21045481.57349 -16325797.69648  20566616.5874   20566623.8364   20566616.697
        55.0004         50.0004
  -3862624.61147  -3001710.73647  23348006.5054   23348013.9214   23348007.654
        46.0004         42.0004
 -11511649.77048  -8925445.37847  21834900.9264   21834910.5514   21834901.196
        51.0004         46.0004
 -15127977.06648 -11739729.38348  21740265.8364   21740272.8804   21740266.706
        53.0004         48.0004
 15  1  1  0 28 30.0000000  0  8G03G27G22G31G16G08G14G32
  -2648359.77147  -2006436.85846  24374286.1074   24374293.3774   24374284.579
        44.0004         39.0004
  -6937004.01448  -5356735.55847  23114569.1304   23114584.1974   23114568.375
        48.0004         43.0004
 -14392292.03148 -11161412.09647  21827480.2834   21827491.9794   21827481.488
        52.0004         47.0004
  -5055163.67848  -3879506.54247  23289039.5454   23289044.8534   23289039.927
        48.0004         43.0004
 -21079844.88849 -16352574.24148  20560077.9534   20560084.5724   20560078.462
        55.0004         50.0004
  -3849558.84247  -2991529.60746  23350494.0784   23350498.2254   23350493.109
        46.0004         41.0004
 -11522444.43148  -8933856.98947  21832847.1864   21832856.4984   21832847.897
        51.0004         46.0004
 -15170107.16248 -11772558.01248  21732249.1004   21732256.0494   21732249.410
        53.0004         49.0004
 15  1  1  0 29  0.0000000  0  8G03G27G22G31G16G08G14G32
  -2735207.53747  -2074110.54646  24357758.0834   24357766.8734   24357758.357
        44.0004         39.0004
  -7017787.51248  -5419683.72447  23099196.7414   23099212.4144   23099196.755
        48.0004         43.0004
 -14305874.29148 -11094073.87847  21843925.5434   21843936.8854   21843926.567
        51.0004         47.0004
  -5020820.63147  -3852745.74047  23295575.6754   23295579.4624   23295576.032
        47.0004         43.0004
 -21113628.10649 -16378898.75248  20553648.6384   20553655.9824   20553649.160
        55.0004         50.0004
  -3836522.45447  -2981371.34147  23352973.7984   23352979.5724   23352974.495
        46.0004         42.0004
 -11532925.72748  -8942024.43747  21830853.0984   21830862.6824   21830853.449
        51.0004         46.0004
 -15211792.90548 -11805040.39048  21724316.5014   21724323.7864   21724316.836
        53.0004         49.0004
 15  1  1  0 29 30.0000000  0  8G03G27G22G31G16G08G14G32
  -2821774.07047  -2141565.04546  24341285.6714   24341294.0854   24341285.298
        44.0004         39.0004
  -7098619.72348  -5482669.87447  23083814.9464   23083830.3204   23083813.574
        48.0004         43.0004
 -14219231.47248 -11026560.27847  21860413.7994   21860424.7054   21860414.066
        51.0004         47.0004
  -4986664.50447  -3826130.58247  23302074.7204   23302079.3454   23302073.381
        47.0004         43.0004
 -21146826.96849 -16404767.92348  20547331.0504   20547338.0884   20547331.472
        55.0004         50.0004
  -3823513.59247  -2971234.51847  23355449.9094   23355456.5444   23355449.316
        47.0004         42.0004
 -11543087.62948  -8949943.00847  21828919.7604   21828929.2674   21828920.129
        51.0004         46.0004
 -15253029.64548 -11837172.91048  21716469.5284   21716476.6424   21716469.619
        53.0004         49.0004
 15  1  1  0 30  0.0000000  0  8G03G27G22G31G16G08G14G32
  -2908058.91947  -2208800.03446  24324867.1354   24324873.8224   24324867.275
        44.0004         39.0004
  -7179499.95848  -5545693.45647  23068423.3354   23068439.5984   23068421.831
        48.0004         43.0004
 -14132367.88448 -10958874.66647  21876943.1774   21876954.6434   21876943.511
        51.0004         47.0004
  -4952697.23047  -3799662.55547  23308539.0004   23308544.0494   23308537.960
        47.0004         43.0004
 -21179442.29849 -16430182.39948  20541124.8014   20541131.6884   20541124.864
        55.0004         50.0004
  -3810535.81647  -2961121.91747  23357918.3394   23357926.2194   23357920.323
        47.0004         43.0004
 -11552929.41948  -8957612.14747  21827045.8374   21827056.6344   21827046.789
        51.0004         46.0004
 -15293818.27448 -11868956.26548  21708707.5914   21708714.5904   21708708.077
        53.0004         48.0004
 15  1  1  0 30 30.0000000  0  8G03G27G22G31G16G08G14G32
  -2994061.36547  -2275815.00846  24308498.9254   24308508.2414   24308501.150
        43.0004         38.0004
  -7260427.17348  -5608753.62747  23053023.1874   23053039.5444   23053023.084
        48.0004         43.0004
 -14045288.24048 -10891020.70047  21893514.3594   21893525.9084   21893514.795
        51.0004         47.0004
  -4918921.24247  -3773343.59747  23314965.8404   23314970.4184   23314965.144
        47.0004         43.0004
 -21211475.16149 -16455142.99848  20535028.5614   20535035.7344   20535029.335
        55.0004         50.0004
  -3797592.45447  -2951036.14847  23360381.7974   23360388.9684   23360382.788
        47.0004         43.0004
 -11562450.95548  -8965031.74247  21825234.9494   21825244.5154   21825235.374
        51.0004         46.0004
 -15334159.28248 -11900390.83348  21701031.1024   21701037.2174   21701031.643
        53.0004         48.0004
 15  1  1  0 31  0.0000000  0  8G03G27G22G31G16G08G14G32
  -3079777.41047  -2342606.77246  24292189.0554   24292197.2894   24292190.206
        43.0004         38.0004
  -7341397.03548  -5671847.00847  23037615.6714   23037631.2684   23037615.619
        48.0004         44.0004
 -13957993.53548 -10822999.15547  21910126.5944   21910138.2064   21910127.462
        51.0004         47.0004
  -4885335.12447  -3747172.60247  23321357.5454   23321362.5684   23321357.687
        47.0004         43.0004
 -21242923.00849 -16479647.74648  20529044.5434   20529051.1754   20529044.835
        55.0004         50.0004
  -3784683.44047  -2940977.13047  23362839.4174   23362845.8204   23362839.182
        47.0004         43.0004
 -11571648.59248  -8972198.96747  21823485.3514   21823495.5744   21823485.980
        51.0004         46.0004
 -15374049.86248 -11931474.42148  21693439.9874   21693446.4254   21693440.917
        53.0004         49.0004
 15  1  1  0 31 30.0000000  0  8G03G27G22G31G16G08G14G32
  -3165202.99147  -2409172.21146  24275933.5834   24275940.9804   24275934.448
        43.0004         39.0004
  -7422405.11848  -5734970.16847  23022200.0464   23022215.1404   23022199.714
        48.0004         43.0004
 -13870484.62848 -10754810.70047  21926778.5374   21926789.9624   21926779.115
        51.0004         46.0004
  -4851937.54647  -3721148.50747  23327711.8594   23327716.2274   23327712.267
        47.0004         42.0004
 -21273783.09049 -16503694.48948  20523172.3594   20523178.6594   20523172.402
        55.0004         50.0004
  -3771808.66947  -2930944.77447  23365288.5254   23365295.9314   23365288.723
        47.0004         43.0004
 -11580518.24948  -8979110.63047  21821797.9514   21821806.9614   21821797.386
        51.0004         46.0004
 -15413487.24048 -11962204.87448  21685935.9254   21685942.5044   21685935.923
        53.0004         49.0004
 15  1  1  0 32  0.0000000  0  8G03G27G22G31G16G08G14G32
  -3250340.78147  -2475513.34146  24259734.1234   24259739.7924   24259732.840
        43.0004         38.0004
  -7503453.72748  -5798124.88647  23006777.3894   23006792.1544   23006776.525
        48.0004         43.0004
 -13782768.90548 -10686461.07747  21943471.1584   21943482.8604   21943471.683
        51.0004         46.0004
  -4818733.69747  -3695275.35247  23334030.6484   23334035.7954   23334030.324
        47.0004         42.0004
 -21304059.62149 -16527286.50548  20517410.1474   20517417.1194   20517410.221
        55.0004         50.0004
  -3758974.71548  -2920944.24547  23367730.9584   23367737.9844   23367731.346
        48.0004         43.0004
 -11589062.35548  -8985768.62447  21820171.4804   21820181.0824   21820172.291
        51.0004         46.0004
 -15452475.26648 -11992585.18748  21678516.2644   21678522.7574   21678516.714
        53.0004         48.0004
 15  1  1  0 32 30.0000000  0  8G03G27G22G31G16G08G14G32
  -3335185.59447  -2541626.16346  24243587.9244   24243594.0224   24243586.734
        42.0004         37.0004
  -7584537.38848  -5861306.92947  22991346.7664   22991362.3154   22991347.161
        48.0004         43.0004
 -13694846.34048 -10617950.26047  21960201.7974   21960214.1554   21960202.426
        51.0004         46.0004
  -4785721.05247  -3669551.19447  23340313.8684   23340317.5684   23340312.989
        47.0004         42.0004
 -21333748.95749 -16550420.97048  20511760.7004   20511767.6124   20511761.298
        55.0004         50.0004
  -3746180.28048  -2910974.51447  23370165.7784   23370173.1754   23370165.534
        48.0004         43.0004
 -11597275.93248  -8992169.07947  21818609.1604   21818618.2584   21818609.810
        51.0004         46.0004
 -15491010.15348 -12022612.40748  21671183.2144   21671190.3454   21671184.153
        53.0004         48.0004
 15  1  1  0 33  0.0000000  0  8G03G27G22G31G16G08G14G32
  -3419737.05947  -2607510.45746  24227498.8264   24227506.8984   24227496.588
        42.0004         37.0004
  -7665655.39848  -5924515.71347  22975911.1144   22975925.9594   22975910.452
        48.0004         43.0004
 -13606721.72348 -10549281.97847  21976971.7144   21976983.9464   21976972.617
        51.0004         46.0004
  -4752901.83447  -3643977.79047  23346557.8934   23346563.2064   23346556.730
        47.0004         43.0004
 -21362853.06149 -16573099.40648  20506222.3084   20506229.2824   20506222.607
        55.0004         50.0004
  -3733428.86548  -2901038.29047  23372591.7894   23372599.6064   23372593.090
        48.0004         43.0004
 -11605158.71748  -8998311.77147  21817109.6414   21817118.7614   21817110.375
        51.0004         46.0004
 -15529092.82348 -12052287.25448  21663936.4134   21663943.1664   21663936.541
        53.0004         48.0004
 15  1  1  0 33 30.0000000  0  8G03G27G22G31G16G08G14G32
  -3503991.54547  -2673163.31546  24211463.9634   24211472.4754   24211461.263
        42.0004         37.0004
  -7746803.56548  -5987747.98347  22960469.0364   22960483.0034   22960467.953
        48.0004         43.0004
 -13518395.67448 -10480456.74147  21993779.8114   21993791.5864   21993780.925
        51.0004         46.0004
  -4720275.09447  -3618554.39047  23352767.8074   23352772.4874   23352767.137
        47.0004         43.0004
 -21391369.38749 -16595319.83048  20500796.0784   20500802.7224   20500796.286
        55.0004         50.0004
  -3720720.65448  -2891135.72947  23375011.3654   23375017.2254   23375011.374
        48.0004         43.0004
 -11612707.04648  -9004193.83847  21815672.9854   21815682.9324   21815673.017
        51.0004         47.0004
 -15566720.81048 -12081607.79948  21656776.1054   21656782.8734   21656776.278
        53.0004         48.0004
 15  1  1  0 34  0.0000000  0  8G03G27G22G31G16G08G14G32
  -3587946.56847  -2738582.82346  24195488.6504   24195494.7304   24195487.361
        42.0004         38.0004
  -7827979.07548  -6051001.53747  22945021.0334   22945037.0174   22945021.794
        48.0004         43.0004
 -13429870.92748 -10411476.66047  22010625.0324   22010637.9194   22010625.666
        51.0004         46.0004
  -4687840.72647  -3593280.90947  23358939.3524   23358943.9054   23358937.983
        47.0004         43.0004
 -21419296.94349 -16617081.47848  20495481.6544   20495488.2094   20495481.802
        55.0004         51.0004
  -3708057.33747  -2881268.14747  23377420.3574   23377425.0474   23377421.225
        47.0004         43.0004
 -11619918.54748  -9009813.45247  21814300.4114   21814310.6654   21814300.794
        51.0004         47.0004
 -15603893.03348 -12110573.20748  21649702.2864   21649708.8664   21649702.769
        53.0004         48.0004
 15  1  1  0 34 30.0000000  0  8G03G27G22G31G16G08G14G32
  -3671600.83547  -2803767.98246  24179568.9324   24179577.4974   24179569.451
        42.0004         37.0004
  -7909180.12448  -6114275.00647  22929569.1894   22929584.7734   22929569.469
        48.0004         44.0004
 -13341151.18448 -10342344.62747  22027508.6304   22027521.2294   22027509.157
        51.0004         46.0004
  -4655600.00247  -3568158.33247  23365074.5264   23365078.3864   23365075.079
        47.0004         42.0004
 -21446635.93449 -16638384.49348  20490278.9384   20490285.3674   20490279.056
        55.0004         51.0004
  -3695441.29747  -2871437.42047  23379819.5624   23379828.4644   23379821.746
        47.0004         43.0004
 -11626791.71248  -9015169.41347  21812993.1314   21813003.0794   21812993.191
        51.0004         47.0004
 -15640609.45748 -12139183.42948  21642715.6474   21642722.2914   21642716.183
        53.0004         48.0004
 15  1  1  0 35  0.0000000  0  8G03G27G22G31G16G08G14G32
  -3754955.56147  -2868719.70646  24163708.4784   24163715.0104   24163707.566
        42.0004         37.0004
  -7990407.47048  -6177568.97147  22914112.1824   22914127.2404   22914112.524
        48.0004         44.0004
 -13252242.40948 -10273065.30847  22044428.0624   22044439.6374   22044429.030
        51.0004         46.0004
  -4623556.52247  -3543189.44047  23371173.4164   23371176.5974   23371173.580
        47.0004         43.0004
 -21473389.91449 -16659231.65748  20485187.4474   20485194.8254   20485187.445
        55.0004         51.0004
  -3682877.86847  -2861647.68747  23382212.4634   23382218.3414   23382211.159
        47.0004         42.0004
 -11633327.85048  -9020262.74447  21811749.7634   21811759.8624   21811749.769
        51.0004         47.0004
 -15676872.56048 -12167440.42048  21635815.0214   21635822.3354   21635815.375
        53.0004         48.0004
 15  1  1  0 35 30.0000000  0  8G03G27G22G31G16G08G14G32
  -3838002.43147  -2933431.57946  24147905.3434   24147912.6264   24147903.880
        42.0004         38.0004
  -8071652.40448  -6240876.64347  22898651.8334   22898667.4864   22898651.350
        48.0004         44.0004
 -13163141.06548 -10203635.91947  22061383.1744   22061395.3854   22061384.001
        51.0004         46.0004
  -4591704.42647  -3518369.67747  23377234.1544   23377237.9194   23377234.194
        47.0004         43.0004
 -21499551.85849 -16679617.49648  20480209.1944   20480215.7374   20480209.422
        55.0004         51.0004
  -3670362.31247  -2851895.27047  23384593.2304   23384599.0384   23384594.186
        47.0004         42.0004
 -11639518.99148  -9025087.22547  21810571.0204   21810581.4054   21810571.882
        51.0004         47.0004
 -15712675.45448 -12195338.78848  21629001.4544   21629009.2544   21629002.528
        53.0004         48.0004
 15  1  1  0 36  0.0000000  0  8G03G27G22G31G16G08G14G32
  -3920743.63347  -2997905.22646  24132157.8014   24132166.8454   24132157.697
        42.0004         37.0004
  -8152916.56048  -6304199.32847  22883187.9634   22883203.5744   22883186.939
        48.0004         44.0004
 -13073854.52848 -10134062.18147  22078374.4434   22078386.5504   22078376.175
        51.0004         46.0004
  -4560048.58648  -3493702.85147  23383257.8634   23383262.4264   23383258.132
        48.0004         43.0004
 -21525125.67849 -16699545.04948  20475342.5854   20475349.1104   20475342.442
        55.0004         51.0004
  -3657900.93347  -2842185.05247  23386964.2684   23386969.1164   23386964.487
        47.0004         42.0004
 -11645367.48648  -9029644.70247  21809458.5764   21809468.6484   21809459.142
        51.0004         46.0004
 -15748021.66048 -12222881.29448  21622275.6794   21622282.7764   21622275.925
        53.0004         49.0004
 15  1  1  0 36 30.0000000  0  8G03G27G22G31G16G08G14G32
  -4003178.54947  -3062140.29346  24116472.3094   24116480.4054   24116472.056
        42.0004         37.0004
  -8234198.80748  -6367536.12547  22867720.3594   22867736.3344   22867719.558
        48.0004         44.0004
 -12984386.44848 -10064346.94647  22095399.1834   22095411.2194   22095399.857
        51.0004         46.0004
  -4528590.44948  -3469190.06347  23389243.8144   23389248.3314   23389242.903
        48.0004         43.0004
 -21550112.40649 -16719015.12848  20470587.8214   20470594.3504   20470587.963
        55.0004         51.0004
  -3645496.39047  -2832519.14847  23389324.7074   23389329.5374   23389324.976
        47.0004         42.0004
 -11650872.64948  -9033934.62747  21808411.3614   21808421.7494   21808411.500
        51.0004         46.0004
 -15782911.90348 -12250068.49948  21615636.2814   21615643.3594   21615637.104
        53.0004         49.0004
 15  1  1  0 37  0.0000000  0  8G03G27G22G31G16G08G14G32
  -4085300.80647  -3126131.71446  24100843.4734   24100854.2304   24100844.131
        42.0004         37.0004
  -8315492.23948  -6430881.65147  22852250.8394   22852266.8544   22852250.370
        49.0004         44.0004
 -12894735.59448  -9994489.25647  22112459.5284   22112472.6594   22112460.489
        51.0004         46.0004
  -4497325.94647  -3444828.21047  23395193.5794   23395197.0614   23395193.691
        47.0004         43.0004
 -21574507.60449 -16738024.27148  20465945.0214   20465951.8424   20465945.044
        55.0004         51.0004
  -3633146.22847  -2822895.60347  23391673.8294   23391682.0824   23391675.003
        47.0004         42.0004
 -11656027.91948  -9037951.87047  21807430.4124   21807440.5124   21807430.741
        51.0004         46.0004
 -15817341.17348 -12276896.49848  21609084.4924   21609091.4054   21609085.213
        53.0004         49.0004
 15  1  1  0 37 30.0000000  0  8G03G27G22G31G16G08G14G32
  -4167110.63047  -3189879.67546  24085279.3144   24085284.3414   24085276.882
        42.0004         37.0004
  -8396796.47548  -6494235.63347  22836779.5974   22836794.2324   22836779.533
        49.0004         44.0004
 -12804906.82148  -9924492.88147  22129553.6254   22129565.3824   22129554.476
        50.0004         46.0004
  -4466258.11247  -3420619.59147  23401104.7754   23401111.1434   23401105.216
        47.0004         43.0004
 -21598312.86949 -16756573.73248  20461415.2414   20461421.8374   20461415.410
        55.0004         51.0004
  -3620854.46047  -2813317.53447  23394013.1824   23394020.6114   23394014.301
        47.0004         42.0004
 -11660833.68748  -9041696.71347  21806515.1234   21806525.9854   21806516.233
        51.0004         46.0004
 -15851310.97948 -12303366.48348  21602619.9894   21602627.5874   21602621.109
        53.0004         48.0004
 15  1  1  0 38  0.0000000  0  8G03G27G22G31G16G08G14G32
  -4248606.73147  -3253383.18846  24069769.3184   24069777.3504   24069766.453
        42.0004         37.0004
  -8478109.67348  -6557596.61747  22821306.1334   22821321.3144   22821305.987
        49.0004         44.0004
 -12714904.06648  -9854360.93947  22146681.1124   22146693.6014   22146681.428
        50.0004         46.0004
  -4435387.86447  -3396564.94947  23406979.3744   23406984.9584   23406979.269
        47.0004         43.0004
 -21621529.30349 -16774664.36248  20456997.3134   20457003.5364   20456997.705
        55.0004         51.0004
  -3608623.54547  -2803786.89647  23396341.0584   23396348.1454   23396342.555
        47.0004         42.0004
 -11665288.92348  -9045168.38147  21805668.1544   21805678.6584   21805668.133
        51.0004         46.0004
 -15884821.47448 -12329478.54848  21596243.7074   21596250.5784   21596243.907
        53.0004         49.0004
 15  1  1  0 38 30.0000000  0  8G03G27G22G31G16G08G14G32
  -4329786.45247  -3316640.19246  24054321.3584   24054327.1184   24054322.398
        42.0004         38.0004
  -8559428.63648  -6620962.11447  22805831.2144   22805846.5714   22805831.257
        49.0004         44.0004
 -12624729.70048  -9784095.30047  22163840.5544   22163853.4294   22163841.757
        50.0004         46.0004
  -4404714.76048  -3372663.91847  23412817.0404   23412821.1274   23412817.065
        48.0004         43.0004
 -21644155.64849 -16792295.18348  20452691.6004   20452697.7754   20452691.773
        55.0004         51.0004
  -3596454.61947  -2794304.58347  23398657.1714   23398662.8734   23398657.575
        47.0004         42.0004
 -11669391.31148  -9048365.07847  21804887.3424   21804898.4274   21804887.463
        51.0004         46.0004
 -15917871.46949 -12355231.77648  21589954.8254   21589961.6074   21589954.744
        54.0004         49.0004
 15  1  1  0 39  0.0000000  0  8G03G27G22G31G16G08G14G32
  -4410646.19547  -3379647.85946  24038932.5524   24038941.7754   24038933.484
        42.0004         37.0004
  -8640749.12748  -6684328.83547  22790356.2994   22790372.3604   22790356.474
        49.0004         44.0004
 -12534384.26748  -9713696.37947  22181032.2424   22181044.5424   22181033.091
        50.0004         46.0004
  -4374237.45548  -3348915.47047  23418616.9354   23418622.0504   23418616.537
        48.0004         43.0004
 -21666190.43249 -16809465.05648  20448498.4044   20448505.0814   20448498.931
        55.0004         51.0004
  -3584347.69647  -2784870.56446  23400960.4234   23400965.9614   23400960.913
        47.0004         41.0004
 -11673137.01748  -9051283.88447  21804174.5244   21804185.1994   21804174.827
        51.0004         46.0004
 -15950458.80549 -12380624.49548  21583753.2244   21583760.4774   21583753.632
        54.0004         49.0004
 15  1  1  0 39 30.0000000  0  8G03G27G22G31G16G08G14G32
  -6066607.22946  -4670007.16046  24023605.4964   24023616.3794   24023604.973
        41.0004         36.0004
  -8722071.72348  -6747697.20547  22774881.3534   22774896.9894   22774881.214
        49.0004         44.0004
 -12443874.08848  -9643169.12047  22198256.0894   22198268.2734   22198257.180
        50.0004         45.0004
  -4343959.54248  -3325322.41047  23424379.5334   23424383.8814   23424378.265
        48.0004         43.0004
 -21687636.64049 -16826176.30048  20444417.0094   20444423.6624   20444417.164
        55.0004         51.0004
  -3572307.90147  -2775488.85046  23403251.6214   23403258.0854   23403252.072
        46.0004         41.0004
 -11676527.31448  -9053925.70147  21803529.4754   21803540.2744   21803530.405
        51.0004         46.0004
 -15982586.03449 -12405658.68348  21577639.5734   21577646.8194   21577640.257
        54.0004         49.0004
 15  1  1  0 40  0.0000000  0  8G03G27G22G31G16G08G14G32
  -6146823.60146  -4732513.50046  24008343.1944   24008350.6074   24008341.252
        41.0004         37.0004
  -8803389.73648  -6811062.03447  22759407.6764   22759422.3714   22759407.214
        49.0004         44.0004
 -12353197.79748  -9572512.42947  22215512.1584   22215523.8414   22215512.316
        50.0004         46.0004
  -4313877.63848  -3301882.10647  23430102.7124   23430106.9624   23430102.084
        48.0004         43.0004
 -21708490.00749 -16842425.59348  20440448.8154   20440455.4504   20440449.296
        55.0004         51.0004
  -3560332.82247  -2766157.56247  23405531.2774   23405537.6954   23405530.715
        46.0004         42.0004
 -11679556.23348  -9056285.78547  21802953.3244   21802963.9394   21802953.715
        51.0004         46.0004
 -16014248.72949 -12430330.89848  21571614.1264   21571621.6614   21571614.557
        54.0004         49.0004
 15  1  1  0 40 30.0000000  0  8G03G27G22G31G16G08G14G32
  -6226716.73347  -4794767.93346  23993140.7164   23993147.8084   23993140.172
        43.0004         38.0004
  -8884704.00548  -6874423.89447  22743932.8994   22743948.5444   22743933.357
        49.0004         44.0004
 -12262361.86648  -9501731.34347  22232796.9464   22232808.9224   22232797.625
        50.0004         46.0004
  -4283995.18247  -3278597.22747  23435790.6634   23435794.4584   23435790.025
        47.0004         43.0004
 -21728754.00349 -16858215.64248  20436592.3494   20436599.1064   20436592.808
        55.0004         51.0004
  -3548427.56347  -2756880.65747  23407795.8524   23407801.8444   23407796.850
        47.0004         42.0004
 -11682225.62948  -9058365.76447  21802444.9804   21802455.9374   21802445.596
        51.0004         46.0004
 -16045449.77549 -12454643.39148  21565677.3214   21565684.0354   21565677.936
        54.0004         49.0004
 15  1  1  0 41  0.0000000  0  8G03G27G22G31G16G08G14G32
  -6306283.31047  -4856767.89846  23977999.6524   23978008.0184   23977999.887
        43.0004         39.0004
  -8966010.36448  -6937779.57747  22728461.1894   22728477.4154   22728461.315
        49.0004         44.0004
 -12171367.58248  -9430826.91947  22250112.9644   22250125.8574   22250113.856
        50.0004         45.0004
  -4254310.92647  -3255466.79847  23441439.3164   23441442.7874   23441438.141
        47.0004         43.0004
 -21748427.57549 -16873545.62948  20432849.2484   20432855.0914   20432849.518
        55.0004         51.0004
  -3536592.28747  -2747658.29547  23410048.6964   23410054.7734   23410049.645
        47.0004         42.0004
 -11684532.12548  -9060162.82647  21802006.2344   21802015.7794   21802006.419
        51.0004         47.0004
 -16076187.23949 -12478594.65448  21559827.8024   21559835.0684   21559828.349
        54.0004         49.0004
 15  1  1  0 41 30.0000000  0  8G03G27G22G31G16G08G14G32
  -6385525.62347  -4918515.20146  23962919.1434   23962928.2034   23962918.868
        43.0004         39.0004
  -9047310.50348  -7001130.42447  22712990.9004   22713005.7564   22712990.278
        49.0004         44.0004
 -12080222.18048  -9359804.72547  22267455.9534   22267470.1344   22267457.808
        50.0004         45.0004
  -4224829.55547  -3232494.44647  23447048.5404   23447053.7384   23447048.487
        47.0004         43.0004
 -21767514.67449 -16888418.62348  20429216.5384   20429223.2104   20429216.400
        55.0004         51.0004
  -3524833.11347  -2738495.24747  23412285.7234   23412291.6294   23412286.095
        47.0004         42.0004
 -11686478.02648  -9061678.77647  21801635.5234   21801645.3624   21801635.524
        51.0004         47.0004
 -16106464.88049 -12502187.62248  21554065.8114   21554073.0844   21554066.465
        54.0004         49.0004
 15  1  1  0 42  0.0000000  0  8G03G27G22G31G16G08G14G32
  -6464433.62547  -4980002.04246  23947904.1914   23947913.3894   23947904.078
        43.0004         39.0004
  -9128593.47848  -7064467.82847  22697523.3534   22697538.0484   22697522.253
        49.0004         44.0004
 -11988919.93848  -9288660.34247  22284831.4354   22284843.6804   22284833.346
        50.0004         45.0004
  -4195543.03547  -3209673.88747  23452622.1424   23452627.7894   23452621.893
        47.0004         43.0004
 -21786006.83549 -16902828.03748  20425697.6334   20425704.2454   20425697.849
        55.0004         51.0004
  -3513143.40547  -2729386.30847  23414509.3954   23414516.9534   23414510.824
        47.0004         42.0004
 -11688053.61348  -9062906.20047  21801335.0804   21801345.1194   21801335.653
        51.0004         43.0004
 -16136274.03649 -12525415.52948  21548393.6224   21548400.7474   21548394.117
        54.0004         49.0004
 15  1  1  0 42 30.0000000  0  8G03G27G22G31G16G08G14G32
  -6543011.69247  -5041231.73046  23932951.7054   23932959.0154   23932950.432
        43.0004         39.0004
  -9209863.05148  -7127794.80047  22682058.2814   22682072.9514   22682057.910
        49.0004         44.0004
 -11897470.13348  -9217400.96947  22302234.7214   22302246.9354   22302235.221
        50.0004         45.0004
  -4166457.89147  -3187010.26747  23458156.2044   23458161.3264   23458154.303
        47.0004         42.0004
 -21803910.74349 -16916779.06448  20422290.7644   20422297.0684   20422290.846
        55.0004         51.0004
  -3501531.18747  -2720337.74347  23416719.8844   23416727.6244   23416720.346
        47.0004         42.0004
 -11689263.90848  -9063849.21548  21801105.2374   21801115.3674   21801105.438
        51.0004         48.0004
 -16165620.61749 -12548282.98948  21542809.1554   21542816.6704   21542809.541
        54.0004         49.0004
 15  1  1  0 43  0.0000000  0  8G03G27G22G31G16G08G14G32
  -6621256.58147  -5102201.78346  23918063.0764   23918068.9554   23918061.201
        43.0004         38.0004
  -9291115.16948  -7191108.19747  22666596.4804   22666611.5744   22666596.695
        49.0004         45.0004
 -11805873.98848  -9146027.55447  22319664.3524   22319677.3364   22319664.550
        50.0004         45.0004
  -4137572.80947  -3164502.60747  23463653.0454   23463658.8034   23463652.844
        47.0004         43.0004
 -21821225.11849 -16930270.72848  20418995.6494   20419002.4034   20418995.837
        55.0004         51.0004
  -3489996.83247  -2711349.87847  23418914.4344   23418921.4244   23418914.855
        47.0004         42.0004
 -11690105.18348  -9064504.74547  21800945.3594   21800955.0244   21800945.064
        51.0004         46.0004
 -16194502.91449 -12570788.67448  21537313.1324   21537319.8964   21537313.753
        54.0004         49.0004
 15  1  1  0 43 30.0000000  0  8G03G27G22G31G16G08G14G32
  -6699162.79647  -5162907.95646  23903236.7924   23903244.1544   23903237.019
        43.0004         39.0004
  -9372343.45248  -7254402.99847  22651139.5394   22651154.1484   22651139.209
        49.0004         45.0004
 -11714130.99748  -9074539.73247  22337122.5214   22337135.3444   22337123.622
        50.0004         45.0004
  -4108884.84647  -3142148.54347  23469111.3984   23469117.2584   23469111.846
        47.0004         42.0004
 -21837946.43549 -16943300.26948  20415813.7824   20415820.2194   20415814.054
        55.0004         51.0004
  -3478538.48147  -2702421.21247  23421093.9634   23421100.2814   23421094.994
        47.0004         42.0004
 -11690571.85248  -9064868.22547  21800856.7614   21800866.3144   21800856.670
        50.0004         47.0004
 -16222916.89949 -12592929.44648  21531906.4154   21531912.7144   21531906.506
        54.0004         49.0004
 15  1  1  0 44  0.0000000  0  8G03G27G22G31G16G08G14G32
  -6776734.74947  -5223353.70046  23888474.2934   23888483.2334   23888474.267
        44.0004         39.0004
  -9453551.53448  -7317682.04447  22635685.8984   22635701.8924   22635685.409
        49.0004         45.0004
 -11622250.05548  -9002944.40747  22354606.7954   22354620.4304   22354607.749
        50.0004         45.0004
  -4080400.18647  -3119952.88747  23474533.6654   23474538.5794   23474533.867
        47.0004         42.0004
 -21854081.16949 -16955872.73748  20412743.4504   20412749.5044   20412743.972
        55.0004         51.0004
  -3467163.66747  -2693557.66547  23423260.3074   23423263.4304   23423260.883
        46.0004         42.0004
 -11690669.15248  -9064944.26747  21800838.4204   21800846.6974   21800837.771
        51.0004         45.0004
 -16250868.38949 -12614709.83948  21526587.3784   21526594.0814   21526587.872
        54.0004         49.0004
 15  1  1  0 44 30.0000000  0  8G03G27G22G31G16G08G14G32
  -6853966.50847  -5283534.36746  23873779.1774   23873787.5584   23873779.119
        44.0004         40.0004
  -9534732.69748  -7380940.11147  22620237.0614   22620253.0014   22620237.107
        50.0004         45.0004
 -11530229.77948  -8931240.52747  22372118.6044   22372131.5894   22372118.506
        49.0004         45.0004
  -4052114.75947  -3097912.47947  23479916.1454   23479921.8324   23479916.122
        47.0004         43.0004
 -21869625.09249 -16967984.82448  20409785.3194   20409791.7604   20409785.307
        55.0004         51.0004
  -3455870.15147  -2684757.45147  23425408.0314   23425415.1804   23425408.650
        46.0004         42.0004
 -11690391.30748  -9064728.09847  21800891.5934   21800901.5234   21800891.100
        51.0004         45.0004
 -16278353.06049 -12636126.46848  21521356.9244   21521364.0124   21521357.348
        54.0004         49.0004
 15  1  1  0 45  0.0000000  0  8G03G27G22G31G16G08G14G32
  -6930854.83547  -5343447.43146  23859148.2284   23859153.9234   23859145.919
        44.0004         40.0004
  -9615882.73848  -7444173.91847  22604794.0614   22604810.4374   22604793.826
        49.0004         45.0004
 -11438071.49048  -8859429.09647  22389655.7474   22389668.3294   22389655.718
        50.0004         45.0004
  -4024027.38147  -3076026.37747  23485259.8804   23485265.4334   23485261.064
        47.0004         43.0004
 -21884577.10549 -16979635.68648  20406940.0454   20406946.4424   20406940.194
        55.0004         51.0004
  -3444658.13747  -2676020.75347  23427542.1734   23427549.3554   23427543.055
        47.0004         42.0004
 -11689734.35648  -9064216.40447  21801016.4124   21801026.2464   21801016.810
        51.0004         46.0004
 -16305369.11249 -12657177.94048  21516216.2634   21516223.2804   21516216.701
        54.0004         49.0004
 15  1  1  0 45 30.0000000  0  8G03G27G22G31G16G08G14G32
  -7007402.04547  -5403094.68046  23844581.1254   23844590.8514   23844579.518
        44.0004         39.0004
  -9697003.11248  -7507384.58147  22589358.2524   22589373.8414   22589358.549
        49.0004         45.0004
 -11345782.33948  -8787515.67547  22407218.0394   22407230.1284   22407218.045
        50.0004         45.0004
  -3996142.42347  -3054297.99947  23490566.9134   23490571.2184   23490566.383
        47.0004         42.0004
 -21898941.62349 -16990828.75348  20404206.5274   20404213.0184   20404206.732
        55.0004         51.0004
  -3433533.64347  -2667352.22347  23429659.0794   23429665.3574   23429659.854
        47.0004         43.0004
 -11688700.02648  -9063411.06147  21801213.2924   21801222.6534   21801212.395
        50.0004         45.0004
 -16331920.44549 -12677867.29448  21511163.6114   21511169.7994   21511164.332
        54.0004         49.0004
 15  1  1  0 46  0.0000000  0  8G03G27G22G31G16G08G14G32
  -7083607.11847  -5462475.33846  23830079.4824   23830086.0884   23830078.645
        43.0004         38.0004
  -9778091.87448  -7570570.58047  22573927.4794   22573943.9124   22573927.405
        50.0004         45.0004
 -11253365.62348  -8715502.83647  22424803.3874   22424817.4014   22424805.267
        49.0004         45.0004
  -3968460.88247  -3032728.11947  23495836.4874   23495841.0184   23495833.550
        47.0004         43.0004
 -21912720.00249 -17001565.08948  20401584.5474   20401590.8924   20401585.042
        55.0004         51.0004
  -3422498.87947  -2658753.64547  23431758.8254   23431766.0074   23431759.102
        47.0004         43.0004
 -11687288.57448  -9062310.98947  21801481.0724   21801490.9484   21801481.082
        51.0004         42.0004
 -16358007.51649 -12698194.89048  21506199.1534   21506206.4314   21506199.647
        54.0004         49.0004
 15  1  1  0 46 30.0000000  0  8G03G27G22G31G16G08G14G32
  -7159460.42847  -5521581.89446  23815645.5594   23815652.6364   23815646.235
        43.0004         38.0004
  -9859138.56548  -7633723.81247  22558505.5134   22558521.8884   22558505.577
        50.0004         45.0004
 -11160816.61448  -8643386.88047  22442415.8574   22442429.0984   22442416.207
        49.0004         44.0004
  -3940975.10947  -3011310.80347  23501066.2884   23501071.5194   23501064.354
        47.0004         43.0004
 -21925904.58149 -17011838.72548  20399075.2844   20399081.8064   20399075.792
        55.0004         51.0004
  -3411547.56947  -2650220.08447  23433844.3564   23433849.0284   23433843.668
        47.0004         43.0004
 -11685490.99848  -9060910.34848  21801823.0964   21801833.4324   21801823.232
        51.0004         48.0004
 -16383622.33949 -12718154.50148  21501324.9384   21501331.6784   21501325.714
        54.0004         49.0004
 15  1  1  0 47  0.0000000  0  8G03G27G22G31G16G08G14G32
  -7234969.14247  -5580419.87246  23801275.4694   23801284.8874   23801276.334
        43.0004         38.0004
  -9940149.33848  -7696849.06647  22543090.0064   22543105.2424   22543089.932
        50.0004         46.0004
 -11068146.36948  -8571176.39547  22460049.9034   22460063.1584   22460050.136
        49.0004         45.0004
  -3913694.01747  -2990053.00247  23506257.3714   23506262.8684   23506256.609
        47.0004         43.0004
 -21938504.19149 -17021656.54048  20396677.7894   20396684.0994   20396677.931
        55.0004         51.0004
  -3400690.35147  -2641759.82447  23435909.7094   23435914.2264   23435908.369
        47.0004         42.0004
 -11683315.03348  -9059215.38747  21802237.8174   21802247.1484   21802237.769
        51.0004         43.0004
 -16408773.46049 -12737752.77048  21496538.7114   21496545.5724   21496539.281
        54.0004         49.0004
 15  1  1  0 47 30.0000000  0  8G03G27G22G31G16G08G14G32
  -7310127.13647  -5638984.58846  23786975.1134   23786983.3004   23786974.651
        43.0004         38.0004
 -10021117.15248  -7759940.82947  22527681.8914   22527697.7974   22527681.940
        50.0004         46.0004
 -10975353.68248  -8498870.44647  22477707.8124   22477721.4114   22477709.667
        49.0004         44.0004
  -3886613.51347  -2968951.48947  23511410.7644   23511415.5054   23511410.833
        47.0004         43.0004
 -21950515.22749 -17031015.72548  20394392.2844   20394398.4104   20394392.314
        55.0004         51.0004
  -3389924.38247  -2633370.65147  23437956.7654   23437962.5934   23437958.465
        47.0004         42.0004
 -11680752.28348  -9057218.30947  21802724.9264   21802734.8244   21802725.373
        50.0004         46.0004
 -16433456.50349 -12756986.31948  21491841.9054   21491848.8284   21491842.066
        54.0004         49.0004
 15  1  1  0 48  0.0000000  0  8G03G27G22G31G16G08G14G32
  -7384932.02147  -5697274.17946  23772740.5794   23772747.3394   23772740.641
        43.0004         38.0004
 -10102038.54148  -7822996.40847  22512281.9754   22512298.5524   22512282.532
        50.0004         45.0004
 -10882440.63648  -8426470.65547  22495389.2524   22495402.5164   22495389.662
        49.0004         44.0004
  -3859732.94347  -2948005.77247  23516525.3394   23516531.3524   23516525.307
        47.0004         42.0004
 -21961937.76449 -17039916.34248  20392218.6044   20392224.6104   20392219.061
        55.0004         51.0004
  -3379250.49047  -2625053.26146  23439988.9214   23439993.3134   23439989.144
        46.0004         41.0004
 -11677800.44448  -9054917.42247  21803287.2774   21803297.3934   21803286.838
        50.0004         43.0004
 -16457670.51349 -12775854.37248  21487233.9484   21487241.0504   21487234.331
        54.0004         49.0004
 15  1  1  0 48 30.0000000  0  8G03G27G22G31G16G08G14G32
  -7459384.15247  -5755288.86946  23758570.8144   23758578.3714   23758572.404
        43.0004         38.0004
 -10182912.92348  -7886015.35847  22496891.9084   22496908.6104   22496892.964
        50.0004         45.0004
 -10789412.02848  -8353980.75647  22513091.7814   22513104.9714   22513091.733
        49.0004         45.0004
  -3833054.35947  -2927217.38947  23521602.8614   23521607.8324   23521601.315
        47.0004         42.0004
 -21972773.95949 -17048360.06048  20390156.4024   20390162.7384   20390156.652
        55.0004         51.0004
  -3368672.56247  -2616810.62146  23442002.0604   23442006.1614   23442001.299
        46.0004         41.0004
 -11674463.62448  -9052317.41848  21803920.8104   21803931.4264   21803921.378
        51.0004         48.0004
 -16481417.49249 -12794358.51248  21482714.5934   21482722.1754   21482714.815
        54.0004         49.0004
 15  1  1  0 49  0.0000000  0  8G03G27G22G31G16G08G14G32
  -7533482.65247  -5813027.99846  23744471.0434   23744479.2834   23744469.717
        42.0004         37.0004
 -10263738.38448  -7948996.17847  22481511.7504   22481527.8894   22481511.648
        50.0004         46.0004
 -10696271.67848  -8281403.78247  22530816.1074   22530829.4174   22530816.117
        49.0004         45.0004
  -3806578.79747  -2906587.22347  23526641.0964   23526646.6114   23526641.443
        47.0004         43.0004
 -21983024.66049 -17056347.55548  20388205.7524   20388211.9294   20388206.268
        55.0004         51.0004
  -3358193.08347  -2608644.72947  23443995.4314   23444001.1394   23443996.385
        46.0004         42.0004
 -11670738.81548  -9049415.42046  21804629.3344   21804638.3814   21804630.553
        50.0004         41.0004
 -16504698.06249 -12812499.20248  21478284.5494   21478291.8324   21478285.154
        54.0004         49.0004
 15  1  1  0 49 30.0000000  0  8G03G27G22G31G16G08G14G32
  -7607221.80247  -5870487.11346  23730439.0904   23730447.1284   23730438.439
        42.0004         37.0004
 -10344508.13048  -8011933.59947  22466142.7164   22466157.2054   22466142.398
        50.0004         46.0004
 -10603018.00648  -8208738.47847  22548561.2934   22548573.6794   22548562.991
        49.0004         44.0004
  -3780302.39747  -2886112.22447  23531640.9074   23531646.8204   23531639.885
        47.0004         43.0004
 -21992686.99349 -17063876.58548  20386366.8904   20386373.3084   20386366.989
        55.0004         51.0004
  -3347809.59947  -2600553.66047  23445970.2674   23445977.0664   23445972.068
        46.0004         42.0004
 -11666620.28448  -9046206.20847  21805413.8594   21805425.8304   21805414.486
        51.0004         44.0004
 -16527508.17349 -12830273.30048  21473944.2844   21473951.4784   21473944.873
        54.0004         49.0004
 15  1  1  0 50  0.0000000  0  8G03G27G22G31G16G08G14G32
  -7680602.20647  -5927666.64746  23716475.1464   23716483.6724   23716474.384
        42.0004         38.0004
 -10425221.67948  -8074827.21747  22450782.8304   22450798.7614   22450782.005
        50.0004         46.0004
 -10509656.50148  -8135989.10447  22566328.1624   22566340.8594   22566327.854
        49.0004         44.0004
  -3754227.55347  -2865794.29147  23536603.4414   23536608.2824   23536602.931
        47.0004         43.0004
 -22001763.87949 -17070949.42048  20384639.5894   20384646.0184   20384640.147
        55.0004         51.0004
  -3337525.78147  -2592540.22347  23447929.3254   23447934.2714   23447928.092
        47.0004         42.0004
 -11662109.94448  -9042692.52747  21806272.0414   21806286.2694   21806273.290
        51.0004         44.0004
 -16549850.06249 -12847682.55548  21469692.5014   21469700.0374   21469693.028
        54.0004         49.0004
 15  1  1  0 50 30.0000000  0  8G03G27G22G31G16G08G14G32
  -7753623.18247  -5984566.14746  23702580.9874   23702587.1454   23702578.666
        43.0004         38.0004
 -10505877.22348  -8137675.60847  22435434.2444   22435450.2384   22435434.083
        51.0004         46.0004
 -10416190.57248  -8063158.34347  22584113.6314   22584125.7294   22584113.692
        49.0004         44.0004
  -3728354.92648  -2845633.97347  23541526.7014   23541532.4214   23541526.127
        48.0004         43.0004
 -22010256.61049 -17077567.07948  20383023.8124   20383029.8324   20383023.886
        55.0004         51.0004
  -3327344.11047  -2584606.38647  23449865.7954   23449872.2654   23449865.854
        47.0004         42.0004
 -36863927.22748                  21807208.2274                   21807207.484
        49.0004
 -16571724.46649 -12864727.54148  21465530.1144   21465537.0664   21465530.169
        54.0004         49.0004
 15  1  1  0 51  0.0000000  0  8G03G27G22G31G16G08G14G32
  -7826282.17547  -6041183.57446  23688753.1174   23688762.1634   23688752.434
        43.0004         38.0004
 -10586471.14148  -8200475.97647  22420097.4414   22420112.9144   22420097.876
        50.0004         46.0004
 -10322622.14348  -7990247.65247  22601918.8174   22601931.3274   22601919.712
        49.0004         44.0004
  -3702684.08047  -2825630.85847  23546411.5394   23546418.8214   23546410.769
        47.0004         43.0004
 -22018164.83149 -17083729.27348  20381519.0894   20381524.2604   20381519.390
        55.0004         51.0004
  -3317265.42747  -2576752.79147  23451783.2864   23451789.2584   23451783.820
        47.0004         42.0004
 -36858630.28448 -28676344.62347  21808216.3414   21808228.1464   21808216.724
        48.0004         45.0004
 -16593130.65648 -12881407.68248  21461456.5844   21461463.3404   21461456.807
        53.0004         49.0004
 15  1  1  0 51 30.0000000  0  8G03G27G22G31G16G08G14G32
  -7898576.33247  -6097516.77246  23674996.0644   23675003.9164   23674996.509
        42.0004         37.0004
 -10666999.48148  -8263225.24647  22404773.7994   22404789.3644   22404773.609
        50.0004         46.0004
 -10228952.83148  -7917258.32147  22619743.0204   22619756.0734   22619743.656
        49.0004         44.0004
  -3677213.83547  -2805784.11247  23551258.5004   23551264.5524   23551258.108
        47.0004         43.0004
 -22025487.63449 -17089435.29548  20380125.2324   20380131.0264   20380125.317
        55.0004         51.0004
  -3307290.05647  -2568979.73147  23453681.9164   23453687.9264   23453681.166
        47.0004         42.0004
 -36852931.79448 -28671904.54947  21809301.6544   21809312.2384   21809300.972
        50.0004         46.0004
 -16614067.33048 -12897721.97248  21457472.6164   21457479.3264   21457473.015
        53.0004         49.0004
 15  1  1  0 52  0.0000000  0  8G03G27G22G31G16G08G14G32
  -7970506.65847  -6153566.40946  23661309.8524   23661316.6404   23661307.394
        42.0004         37.0004
 -10747462.06348  -8325923.27147  22389462.6174   22389477.9384   22389462.577
        51.0004         46.0004
 -10135187.86248  -7844194.40247  22637585.6544   22637598.8574   22637586.500
        49.0004         45.0004
  -3651946.60147  -2786095.53147  23556066.0914   23556072.7334   23556065.111
        47.0004         43.0004
 -22032228.77449 -17094688.07848  20378842.1634   20378848.5874   20378842.583
        55.0004         51.0004
  -3297422.04647  -2561290.33847  23455560.2144   23455566.1534   23455559.702
        47.0004         42.0004
 -36846834.76448 -28667153.19047  21810462.9814   21810476.1094   21810460.920
        50.0004         42.0004
 -16634537.03449 -12913672.38948  21453577.2224   21453584.3724   21453577.588
        54.0004         49.0004
 15  1  1  0 52 30.0000000  0  8G03G27G22G31G16G08G14G32
  -8042069.96147  -6209330.02446  23647691.0964   23647699.1514   23647689.026
        42.0004         37.0004
 -10827854.52448  -8388566.69347  22374163.9604   22374179.4384   22374164.012
        51.0004         46.0004
 -10041328.56248  -7771056.93247  22655446.3314   22655459.6004   22655446.579
        49.0004         44.0004
  -3626880.74047  -2766563.85247  23560836.9144   23560843.5234   23560837.719
        47.0004         43.0004
 -22038387.11549 -17099486.73848  20377670.5014   20377676.2834   20377670.760
        55.0004         51.0004
  -3287661.46447  -2553684.66846  23457415.9744   23457422.6914   23457417.270
        46.0004         41.0004
 -36840337.66948                  21811697.6464                   21811697.174
        49.0004
 -16654538.33749 -12929257.82248  21449771.0654   21449778.3934   21449771.990
        54.0004         49.0004
 15  1  1  0 53  0.0000000  0  8G03G27G22G31G16G08G14G32
  -8113264.44747  -6264806.26146  23634144.7684   23634151.1494   23634142.179
        42.0004         37.0004
 -10908173.83448  -8451153.09847  22358879.4334   22358895.8364   22358879.957
        51.0004         46.0004
  -9947377.07848  -7697847.62347  22673324.5364   22673336.9784   22673325.120
        49.0004         44.0004
  -3602016.31047  -2747189.10747  23565568.3994   23565574.6184   23565567.134
        47.0004         43.0004
 -22043963.16249 -17103831.65748  20376609.2524   20376615.5274   20376609.602
        55.0004         51.0004
  -3278009.47747  -2546163.61446  23459252.9594   23459259.5084   23459253.983
        46.0004         41.0004
 -38408858.26648 -29884314.81948  21813009.6094   21813020.7394   21813010.029
        50.0004         49.0004
 -16674070.93849 -12944478.03748  21446054.4484   21446061.2854   21446055.340
        54.0004         49.0004
 15  1  1  0 53 30.0000000  0  8G03G27G22G31G16G08G14G32
  -8184086.38447  -6319992.14546  23620666.0204   23620674.2734   23620665.995
        42.0004         38.0004
 -10988415.04048  -8513678.65347  22343610.5214   22343626.5434   22343610.615
        51.0004         46.0004
  -9853334.35548  -7624567.17847  22691219.1014   22691231.9264   22691220.447
        49.0004         44.0004
  -3577350.83747  -2727969.41047  23570263.1644   23570268.1184   23570262.898
        47.0004         42.0004
 -22048955.62949 -17107721.83848  20375659.4784   20375665.1024   20375659.880
        55.0004         51.0004
  -3268465.52847  -2538726.74147  23461070.3434   23461076.6404   23461070.374
        46.0004         42.0004
 -38401553.92248                  21814399.5574                   21814399.842
        48.0004
 -16693132.90349 -12959331.52348  21442427.0914   21442434.4194   21442427.504
        54.0004         49.0004
 15  1  1  0 54  0.0000000  0  8G03G27G22G31G16G08G14G32
  -8254541.41046  -6374892.16346  23607258.8224   23607267.6604   23607259.080
        41.0004         36.0004
 -11068582.55348  -8576146.79047  22328354.7394   22328370.5734   22328354.481
        51.0004         46.0004
  -9759210.37648  -7551223.40047  22709130.9834   22709143.1594   22709131.727
        49.0004         44.0004
  -3552891.60447  -2708910.35947  23574917.1484   23574922.5784   23574916.861
        47.0004         43.0004
 -22053372.45449 -17111163.46348  20374818.6834   20374824.8104   20374819.041
        55.0004         51.0004
  -3259038.22447  -2531380.76147  23462864.1394   23462868.1984   23462863.840
        46.0004         42.0004
 -38393850.30948 -29872620.27747  21815865.4144   21815876.5594   21815865.490
        50.0004         45.0004
 -16711731.40749 -12973823.87048  21438887.9304   21438894.8174   21438888.559
        54.0004         49.0004
 15  1  1  0 54 30.0000000  0  8G03G27G22G31G16G08G14G32
  -9900049.31856  -7657106.12455  23593924.5995   23593930.2725   23593918.356
        40.0004         35.0004
 -11148674.95048  -8638556.37247  22313114.4954   22313129.1004   22313114.967
        51.0004         46.0004
  -9665009.20848  -7477819.45147  22727055.3514   22727067.8704   22727056.477
        49.0004         44.0004
  -3528639.90847  -2690013.06047  23579531.7964   23579538.6324   23579532.333
        47.0004         43.0004
 -22057215.68749 -17114158.13348  20374087.5044   20374093.0624   20374087.534
        55.0004         51.0004
  -3249730.60347  -2524128.08047  23464634.5374   23464639.8824   23464634.872
        46.0004         42.0004
 -38385747.29748 -29866306.60746  21817404.8284   21817414.0974   21817407.874
        50.0004         38.0004
 -16729867.94549 -12987956.24348  21435436.5774   21435443.6194   21435437.308
        54.0004         49.0004
 15  1  1  0 55  0.0000000  0  8G03G27G22G31G16G08G14G32
  -9969744.03746  -7711413.67745  23580660.0524   23580664.6774   23580655.809
        39.0004         33.0004
 -11228664.80348  -8700886.07547  22297892.7914   22297907.5914   22297892.652
        51.0004         46.0004
  -9570708.77848  -7404338.15247  22745000.6504   22745012.6754   22745001.428
        49.0004         44.0004
  -3504571.10547  -2671258.25047  23584111.8934   23584119.3434   23584112.200
        47.0004         43.0004
 -22060461.25149 -17116687.08148  20373469.4464   20373475.4144   20373469.579
        55.0004         51.0004
  -3240519.60747  -2516950.66146  23466385.7994   23466393.9364   23466386.837
        46.0004         41.0004
 -38377218.00848 -29859660.83447  21819030.8724   21819042.3794   21819030.746
        50.0004         46.0004
 -16747518.16349 -13001709.66948  21432077.9314   21432084.9124   21432078.119
        54.0004         49.0004
 15  1  1  0 55 30.0000000  0  8G03G27G22G31G16G08G14G32
 -10039072.02246  -7765435.49545  23567463.6994   23567472.3524   23567464.307
        39.0004         34.0004
 -11308577.29848  -8763155.49047  22282685.4224   22282701.5444   22282685.156
        51.0004         46.0004
  -9476340.12248  -7330803.67447  22762957.7684   22762970.5284   22762958.744
        49.0004         44.0004
  -3480713.12947  -2652667.72047  23588652.5124   23588658.6344   23588651.645
        47.0004         43.0004
 -22063138.17749 -17118772.93548  20372960.1554   20372965.9254   20372960.281
        55.0004         51.0004
  -3231434.62347  -2509871.42146  23468116.2764   23468121.5354   23468116.485
        46.0004         41.0004
 -38368289.69548 -29852703.34447  21820730.1784   21820741.9014   21820730.261
        49.0004         43.0004
 -16764710.13549 -13015106.02148  21428806.1024   21428813.5974   21428806.566
        54.0004         49.0004
 15  1  1  0 56  0.0000000  0  8G03G27G22G31G16G08G14G32
 -10108019.43546  -7819160.74645  23554344.1194   23554352.5544   23554345.815
        40.0004         35.0004
 -11388397.20948  -8825352.75247  22267495.2074   22267511.8054   22267495.377
        51.0004         46.0004
  -9381893.37248  -7257208.33847  22780931.4614   22780942.5964   22780931.677
        49.0004         44.0004
  -3457053.51347  -2634231.72147  23593153.9314   23593161.0894   23593153.722
        47.0004         43.0004
 -22065235.04549 -17120406.79348  20372561.3834   20372567.2014   20372561.545
        55.0004         51.0004
  -3222464.62947  -2502881.77147  23469823.2774   23469828.9994   23469824.657
        46.0004         42.0004
 -38358948.33848 -29845424.76147  21822507.0844   21822519.1034   21822507.313
        49.0004         42.0004
 -16781431.66549 -13028135.79748  21425624.2514   21425631.6584   21425624.493
        54.0004         49.0004
 15  1  1  0 56 30.0000000  0  8G03G27G22G31G16G08G14G32
 -10176589.03746  -7872591.58946  23541299.8764   23541307.2304   23541296.159
        40.0004         36.0004
 -11468125.93048  -8887478.95947  22252323.7374   22252339.6394   22252323.542
        51.0004         47.0004
  -9287375.24048  -7183557.37047  22798915.9434   22798928.5634   22798915.712
        49.0004         44.0004
  -3433596.50947  -2615953.63847  23597618.4414   23597624.2704   23597618.910
        47.0004         43.0004
 -22066757.46049 -17121593.02848  20372271.2814   20372277.0374   20372271.778
        55.0004         51.0004
  -3213615.44647  -2495986.26147  23471506.0924   23471513.3764   23471506.566
        46.0004         42.0004
 -38349198.13148 -29837828.06647  21824363.0624   21824373.9274   21824363.790
        48.0004         45.0004
 -16797687.24249 -13040802.49148  21422530.8184   21422538.0654   21422531.056
        54.0004         49.0004
 15  1  1  0 57  0.0000000  0  8G03G27G22G31G16G08G14G32
 -10244780.61946  -7925727.90146  23528321.0524   23528328.9824   23528320.635
        41.0004         37.0004
 -11547761.93948  -8949532.89247  22237170.0884   22237185.6284   22237169.160
        51.0004         47.0004
  -9192790.03048  -7109854.12947  22816914.1324   22816926.2264   22816914.718
        48.0004         43.0004
  -3410343.28547  -2597834.38147  23602043.7594   23602048.5264   23602043.295
        47.0004         43.0004
 -22067707.26749 -17122333.07048  20372090.1534   20372096.5464   20372090.514
        55.0004         51.0004
  -3204889.80047  -2489187.00046  23473167.2834   23473173.7934   23473167.148
        46.0004         41.0004
 -38339037.27148 -29829911.30548  21826296.6244   21826307.2344   21826297.065
        51.0004         48.0004
 -16813478.30549 -13053107.21748  21419526.3534   21419533.3214   21419526.667
        54.0004         49.0004
 15  1  1  0 57 30.0000000  0  8G03G27G22G31G16G08G14G32
 -10312588.48446  -7978565.22346  23515416.9124   23515426.1974   23515417.169
        41.0004         36.0004
 -11627298.13148  -9011509.02947  22222034.1134   22222050.1514   22222034.534
        51.0004         46.0004
  -9098136.21248  -7036097.41447  22834925.6784   22834937.3984   22834927.024
        48.0004         43.0004
  -3387289.34548  -2579870.35947  23606431.3114   23606436.7894   23606432.255
        48.0004         44.0004
 -22068081.26249 -17122624.43048  20372019.4574   20372024.8964   20372019.725
        55.0004         51.0004
  -3196284.73347  -2482481.67647  23474805.3464   23474811.0004   23474805.355
        46.0004         42.0004
 -38328461.72548 -29821670.78647  21828309.3474   21828320.1664   21828308.960
        49.0004         43.0004
 -16828800.85349 -13065046.87848  21416610.4724   21416617.2004   21416610.431
        54.0004         49.0004
 15  1  1  0 58  0.0000000  0  8G03G27G22G31G16G08G14G32
 -10380012.23046  -8031103.26746  23502588.7514   23502597.1194   23502587.395
        40.0004         36.0004
 -11706732.73348  -9073405.98147  22206918.4044   22206933.1924   22206918.581
        51.0004         46.0004
  -9003417.40748  -6962290.07347  22852949.9254   22852960.9844   22852952.021
        48.0004         44.0004
  -3364435.65448  -2562062.39047  23610779.8554   23610784.8724   23610779.455
        48.0004         43.0004
 -22067881.35049 -17122468.57448  20372057.1764   20372062.9584   20372057.612
        55.0004         51.0004
  -3187803.08647  -2475872.55447  23476419.8594   23476424.5324   23476420.543
        46.0004         42.0004
 -38317470.56748 -29813106.45147  21830401.1494   21830411.5014   21830401.567
        48.0004         45.0004
 -16843656.28349 -13076622.53648  21413783.2264   21413790.2924   21413784.165
        54.0004         49.0004
 15  1  1  0 58 30.0000000  0  8G03G27G22G31G16G08G14G32
 -10447051.71046  -8083341.81246  23489832.2154   23489838.8824   23489833.618
        40.0004         36.0004
 -11786063.95448  -9135222.37747  22191822.2024   22191837.4374   22191822.713
        51.0004         47.0004
  -8908637.32248  -6888434.98647  22870986.2614   22870997.7364   22870987.718
        48.0004         44.0004
  -3341783.49148  -2544411.43647  23615090.7774   23615097.1094   23615090.662
        48.0004         44.0004
 -22067109.70249 -17121867.21148  20372204.0494   20372210.0964   20372204.481
        55.0004         51.0004
  -3179447.15747  -2469361.38447  23478009.1934   23478014.8184   23478010.403
        46.0004         42.0004
 -38306064.14748 -29804218.51347  21832571.3714   21832583.3274   21832571.739
        50.0004         46.0004
 -16858045.91049 -13087835.23448  21411044.8314   21411051.9804   21411045.493
        54.0004         49.0004
 15  1  1  0 59  0.0000000  0  8G03G27G22G31G16G08G14G32
 -10513705.15646  -8135279.52545  23477143.3644   23477154.1544   23477145.212
        40.0004         35.0004
 -11865288.78048  -9196955.85447  22176745.7534   22176761.1754   22176746.117
        51.0004         47.0004
  -8813798.59548  -6814534.23347  22889033.5244   22889044.4234   22889033.924
        48.0004         44.0004
  -3319332.10748  -2526916.95647  23619363.4444   23619369.2504   23619362.363
        48.0004         43.0004
 -22065766.80149 -17120820.72548  20372459.5194   20372465.0734   20372459.725
        55.0004         51.0004
  -3171218.13347  -2462949.13247  23479575.4704   23479580.7014   23479575.359
        46.0004         42.0004
 -38294240.74348 -29795005.91847  21834821.9934   21834832.8944   21834821.652
        51.0004         47.0004
 -16871969.95049 -13098685.13548  21408395.3764   21408402.6204   21408395.827
        54.0004         49.0004
 15  1  1  0 59 30.0000000  0  8G03G27G22G31G16G08G14G32
 -10579967.58346  -8186912.67146  23464538.6914   23464546.0874   23464535.809
        40.0004         36.0004
 -11944400.72348  -9258601.36147  22161690.9144   22161705.6334   22161691.220
        51.0004         46.0004
  -8718900.28748  -6740587.06447  22907092.0244   22907101.5524   22907091.875
        48.0004         43.0004
  -3297077.79948  -2509576.04747  23623598.5054   23623604.1594   23623597.786
        48.0004         43.0004
 -22063850.54449 -17119327.45648  20372824.1414   20372830.0324   20372824.559
        55.0004         51.0004
  -3163113.64847  -2456633.89547  23481116.4734   23481122.8174   23481117.778
        46.0004         42.0004
 -38281995.04848 -29785464.15647  21837152.0234   21837165.7014   21837152.896
        49.0004         42.0004
 -16885425.05149 -13109169.64048  21405834.9224   21405841.8594   21405835.199
        54.0004         49.0004
 15  1  1  1  0  0.0000000  0  8G03G27G22G31G16G08G14G32
 -10645843.28946  -8238244.46646  23452002.4134   23452009.8864   23452000.757
        41.0004         37.0004
 -12023402.62548  -9320161.12847  22146657.1604   22146672.7514   22146656.874
        51.0004         47.0004
  -8623950.91048  -6666600.12847  22925159.5594   22925171.1074   22925160.264
        48.0004         44.0004
  -3275026.18748  -2492393.01247  23627793.4024   23627800.3874   23627793.557
        48.0004         43.0004
 -22061368.12149 -17117393.02748  20373296.5754   20373302.4334   20373297.008
        55.0004         51.0004
  -3155141.20247  -2450421.54847  23482634.9974   23482639.1974   23482633.726
        47.0004         42.0004
 -38269332.01548 -29775596.91247  21839562.1244   21839573.6004   21839562.747
        50.0004         45.0004
 -16898417.22849 -13119293.40848  21403362.4474   21403369.7634   21403363.082
        54.0004         49.0004
 15  1  1  1  0 30.0000000  0  8G03G27G22G31G16G08G14G32
 -10711326.26246  -8289270.19046  23439540.7084   23439547.2044   23439539.857
        41.0004         36.0004
 -12102286.83448  -9381629.18047  22131646.3614   22131661.2384   22131645.910
        51.0004         47.0004
  -8528948.37248  -6592571.83747  22943237.5214   22943247.1964   22943238.357
        48.0004         44.0004
  -3253172.21247  -2475364.00947  23631953.2604   23631957.4514   23631952.981
        47.0004         43.0004
 -22058315.36649 -17115014.18248  20373877.4384   20373883.3254   20373877.512
        55.0004         51.0004
  -3147297.21247  -2444309.30047  23484127.4274   23484132.8934   23484127.429
        47.0004         42.0004
 -38256245.39748 -29765399.51347  21842052.8474   21842064.0234   21842053.609
        49.0004         44.0004
 -16910942.15849 -13129053.08748  21400979.4594   21400986.1024   21400979.779
        54.0004         49.0004
 15  1  1  1  1  0.0000000  0  8G03G27G22G31G16G08G14G32
 -10776417.58146  -8339990.73445  23427154.9154   23427160.2854   23427156.190
        40.0004         35.0004
 -12181052.96648  -9443005.21347  22116657.7374   22116672.3204   22116657.629
        51.0004         47.0004
  -8433897.55548  -6518505.94947  22961324.6584   22961335.3454   22961325.469
        48.0004         43.0004
  -3231518.16847  -2458490.79847  23636073.4114   23636079.1924   23636073.278
        47.0004         43.0004
 -22054695.92949 -17112193.77348  20374565.9794   20374571.6564   20374565.994
        55.0004         51.0004
  -3139585.56247  -2438300.14746  23485593.5744   23485599.7144   23485594.428
        46.0004         41.0004
 -38242737.86448 -29754874.68147  21844622.8384   21844634.8004   21844623.961
        49.0004         43.0004
 -16923002.63249 -13138450.85748  21398684.6234   21398691.1584   21398684.471
        54.0004         49.0004
 15  1  1  1  1 30.0000000  0  8G03G27G22G31G16G08G14G32
 -10841117.17046  -8390406.03145  23414842.7324   23414848.0424   23414842.318
        39.0004         34.0004
 -12259699.32848  -9504287.90347  22101691.6414   22101706.8644   22101691.712
        52.0004         47.0004
  -8338802.26448  -6444405.44747  22979420.2564   22979431.4854   22979421.708
        48.0004         43.0004
  -3210064.90847  -2441774.05647  23640155.5194   23640162.7724   23640155.399
        47.0004         43.0004
 -22050512.33949 -17108933.76148  20375362.0944   20375367.8264   20375362.110
        55.0004         51.0004
  -3132008.70047  -2432396.05646  23487037.4714   23487041.4834   23487036.257
        46.0004         41.0004
 -38228807.85448 -29744020.38647  21847275.0004   21847285.1494   21847274.323
        51.0004         45.0004
 -16934600.37249 -13147488.04548  21396477.3274   21396484.6134   21396477.693
        54.0004         50.0004
 15  1  1  1  2  0.0000000  0  8G03G27G22G31G16G08G14G32
 -10905421.22456  -8440513.05955  23402604.7235   23402616.3515   23402603.990
        38.0004         33.0004
 -12338220.57448  -9565473.10447  22086748.6814   22086765.1944   22086749.072
        52.0004         47.0004
  -8243662.51248  -6370270.34347  22997524.4684   22997535.8734   22997525.132
        48.0004         43.0004
  -3188810.10947  -2425212.02147  23644200.9734   23644207.7844   23644199.975
        47.0004         43.0004
 -22045763.22249 -17105233.08148  20376265.7054   20376271.7214   20376266.003
        55.0004         51.0004
  -3124565.49447  -2426596.09746  23488453.6064   23488457.5694   23488453.733
        46.0004         41.0004
 -38214452.48748 -29732833.72847  21850006.6464   21850017.3544   21850007.273
        50.0004         47.0004
 -16945733.34249 -13156163.08148  21394358.8384   21394365.6194   21394359.153
        54.0004         49.0004
 15  1  1  1  2 30.0000000  0  8G03G27G22G31G16G08G14G32
 -10969329.34856  -8490311.65945  23390443.5135   23390452.0014   23390445.910
        38.0004         33.0004
 -12416614.80848  -9626559.32147  22071830.3284   22071846.4014   22071829.997
        52.0004         47.0004
  -8148482.24648  -6296103.70547  23015636.0054   23015647.6124   23015638.517
        48.0004         43.0004
  -3167754.19147  -2408804.92547  23648207.1634   23648213.6434   23648206.644
        47.0004         43.0004
 -22040450.75749 -17101093.43148  20377276.5794   20377282.4454   20377276.954
        55.0004         51.0004
  -3117258.38947  -2420902.21346  23489842.3614   23489848.9824   23489842.234
        46.0004         41.0004
 -38199670.87348 -29721315.60147  21852819.0174   21852831.0754   21852819.698
        51.0004         43.0004
 -16956402.95649 -13164477.06448  21392328.1304   21392335.5584   21392329.008
        54.0004         49.0004
 15  1  1  1  3  0.0000000  0  8G03G27G22G31G16G08G14G32
 -11032836.78946  -8539798.04845  23378360.4094   23378374.6354   23378361.174
        38.0004         33.0004
 -12494875.50348  -9687541.48647  22056938.4484   22056952.9334   22056938.742
        52.0004         47.0004
  -8053260.35448  -6221904.64147  23033756.6934   23033767.9504   23033756.876
        48.0004         43.0004
  -3146893.22347  -2392549.72847  23652176.5574   23652184.0404   23652175.222
        47.0004         43.0004
 -22034572.71649 -17096513.07948  20378395.0944   20378400.9814   20378395.299
        55.0004         51.0004
  -3110085.33147  -2415312.77847  23491207.9894   23491214.3434   23491208.470
        46.0004         42.0004
 -38184459.79548 -29709463.18147  21855713.2874   21855723.0074   21855713.946
        50.0004         43.0004
 -16966606.08249 -13172427.55848  21390386.3684   21390394.2724   21390386.850
        54.0004         49.0004
 15  1  1  1  3 30.0000000  0  7G27G22G31G16G08G14G32
 -12573002.51148  -9748419.48947  22042071.0544   22042085.4344   22042070.744
        52.0004         47.0004
  -7958002.34247  -6147677.46047  23051883.1214   23051894.0884   23051883.519
        47.0004         43.0004
  -3126230.11247  -2376448.66347  23656108.0824   23656116.1834   23656106.654
        47.0004         42.0004
 -22028133.16749 -17091495.19248  20379620.4914   20379626.3254   20379620.384
        55.0004         51.0004
  -3103049.98347  -2409830.66247  23492546.4534   23492551.8204   23492548.103
        46.0004         42.0004
 -38168820.50748 -29697278.33947  21858690.4924   21858701.9834   21858691.088
        50.0004         47.0004
 -16976345.99249 -13180017.11048  21388533.5374   21388540.3984   21388533.615
        54.0004         49.0004
 15  1  1  1  4  0.0000000  0  7G27G22G31G16G08G14G32
 -12650992.27648  -9809190.53047  22027229.9104   22027244.9374   22027229.804
        52.0004         47.0004
  -7862710.09147  -6073423.64547  23070016.2494   23070027.8984   23070017.697
        47.0004         43.0004
  -3105763.58047  -2360500.80547  23660003.8924   23660009.4714   23660003.449
        47.0004         43.0004
 -22021132.62249 -17086040.17248  20380952.7444   20380958.2634   20380953.166
        55.0004         51.0004
  -3096153.00747  -2404456.38147  23493860.1524   23493865.7824   23493859.663
        47.0004         42.0004
 -38152751.12048 -29684758.23948  21861748.3694   21861760.3414   21861748.456
        50.0004         48.0004
 -16985622.46049 -13187245.54248  21386767.9454   21386775.2714   21386768.823
        54.0004         50.0004
 15  1  1  1  4 30.0000000  0  7G27G22G31G16G08G14G32
 -12728846.69548  -9869856.09747  22012414.6334   22012429.0974   22012414.422
        52.0004         47.0004
  -7767390.94647  -5999148.89047  23088155.5894   23088165.2814   23088155.646
        47.0004         43.0004
  -3085498.24047  -2344709.71347  23663860.6964   23663867.0434   23663860.209
        47.0004         43.0004
 -22013577.41149 -17080152.94148  20382390.2654   20382396.1394   20382390.640
        55.0004         51.0004
  -3089400.74447  -2399194.83446  23495143.7834   23495150.3724   23495145.156
        46.0004         41.0004
 -38136255.06648 -29671904.57547  21864888.0484   21864900.0654   21864888.184
        50.0004         46.0004
 -16994440.97949 -13194117.14048  21385090.2684   21385097.3974   21385090.333
        54.0004         50.0004
 15  1  1  1  5  0.0000000  0  7G27G22G31G16G08G14G32
 -12806558.95648  -9930410.87747  21997625.9894   21997640.8774   21997625.636
        52.0004         47.0004
  -7672043.55447  -5924852.12947  23106300.8304   23106307.8254   23106300.923
        47.0004         43.0004
  -3065429.94348  -2329072.19747  23667679.2724   23667687.0834   23667679.471
        48.0004         43.0004
 -22005464.34049 -17073831.01448  20383933.8694   20383939.7184   20383933.968
        55.0004         51.0004
  -3082790.58247  -2394044.00146  23496401.3324   23496407.0164   23496401.819
        46.0004         41.0004
 -38119326.96948 -29658713.84447  21868107.8094   21868120.3364   21868109.473
        48.0004         42.0004
 -17002798.11649 -13200629.20648  21383499.3404   21383506.6074   21383500.012
        54.0004         49.0004
 15  1  1  1  5 30.0000000  0  7G27G22G31G16G08G14G32
 -12884127.43948  -9990853.63247  21982865.4014   21982880.4974   21982865.405
        52.0004         47.0004
  -7576671.79447  -5850536.38447  23124448.8344   23124457.8864   23124449.730
        47.0004         43.0004
  -3045559.57448  -2313588.92447  23671461.4884   23671467.5444   23671460.782
        48.0004         43.0004
 -21996797.12849 -17067077.29848  20385583.6764   20385589.0334   20385584.013
        55.0004         51.0004
  -3076325.11947  -2389005.93347  23497632.2164   23497637.8314   23497631.656
        46.0004         42.0004
                                                                  21871412.626

 -17010695.73249 -13206783.22448  21381996.7914   21382003.7644   21381997.284
        54.0004         50.0004
 15  1  1  1  6  0.0000000  0  7G27G22G31G16G08G14G32
 -12961552.82848 -10051184.88148  21968131.9334   21968146.4274   21968132.092
        52.0004         48.0004
  -7481281.94347  -5776206.56247  23142599.2814   23142610.8174   23142601.273
        47.0004         43.0004
  -3025890.44348  -2298262.46747  23675204.8454   23675210.5464   23675203.622
        48.0004         43.0004
 -21987580.58449 -17059895.52948  20387336.9944   20387342.5934   20387337.087
        55.0004         51.0004
  -3070009.08947  -2384084.28846  23498834.6314   23498839.3394   23498834.447
        46.0004         41.0004
 -38084179.97949   -617405.28446  21874798.5924   21874807.1304   21874797.946
        54.0004         41.0004
 -17018138.13149 -13212582.52248  21380580.3194   21380587.5544   21380581.289
        54.0004         49.0004
 15  1  1  1  6 30.0000000  0  7G27G22G31G16G08G14G32
 -13038821.81548 -10111394.26147  21953427.1874   21953442.4774   21953427.382
        52.0004         47.0004
  -7385866.13747  -5701856.49547  23160757.1554   23160767.3804   23160757.335
        47.0004         43.0004
  -3006411.86847  -2283084.45047  23678911.2484   23678917.0964   23678910.358
        47.0004         43.0004
 -21977805.51449 -17052278.54748  20389197.1994   20389203.1514   20389197.347
        55.0004         51.0004
  -3063833.24947  -2379271.88746  23500007.9324   23500013.7974   23500009.798
        46.0004         41.0004
 -38065953.48549   -589325.46746  21878265.9624   21878280.1724   21878266.344
        57.0004         41.0004
 -17025115.47949 -13218019.43548  21379252.9824   21379260.4354   21379252.735
        54.0004         49.0004
 15  1  1  1  7  0.0000000  0  8G19G27G22G31G16G08G14G32
   -985644.59748   -748278.06046  24220778.0234   24220789.9084   24220779.872
        48.0004         37.0004
 -13115943.77148 -10171489.05248  21938751.8534   21938766.8814   21938751.331
        52.0004         48.0004
  -7290439.04147  -5627497.65247  23178916.2544   23178926.6224   23178917.547
        47.0004         43.0004
  -2987135.66647  -2268064.10647  23682578.8454   23682584.8464   23682577.451
        47.0004         42.0004
 -21967485.82349 -17044237.19548  20391161.0864   20391166.8034   20391161.072
        55.0004         51.0004
  -3057811.48247  -2374579.54646  23501154.4364   23501161.2524   23501155.049
        46.0004         41.0004
   -729683.44649   -566850.33047  21881817.3604   21881828.4614   21881815.783
        57.0004         43.0004
 -17031640.70949 -13223104.05548  21378011.3654   21378018.6084   21378011.658
        54.0004         50.0004
 15  1  1  1  7 30.0000000  0  8G19G27G22G31G16G08G14G32
  -1079235.57647   -821206.23546  24202969.9624   24202980.3904   24202970.543
        44.0004         37.0004
 -13192896.60848 -10231452.07147  21924107.9084   21924122.1604   21924107.521
        52.0004         47.0004
  -7194984.74547  -5553117.61047  23197079.2124   23197092.2894   23197080.724
        47.0004         43.0004
  -2968042.43247  -2253186.35947  23686214.7384   23686219.0084   23686213.435
        47.0004         42.0004
 -21956603.06549 -17035757.08248  20393231.8684   20393237.5644   20393231.682
        55.0004         51.0004
  -3051925.72847  -2369993.19646  23502275.2514   23502280.9554   23502275.754
        46.0004         41.0004
   -710580.05548   -551964.59148  21885451.4584   21885463.9474   21885451.732
        53.0004         48.0004
 -17037695.38049 -13227821.99948  21376858.9794   21376866.3804   21376859.323
        54.0004         50.0004
 15  1  1  1  8  0.0000000  0  8G19G27G22G31G16G08G14G32
  -1172965.74047   -894242.87446  24185136.1284   24185144.5264   24185135.648
        42.0004         37.0004
 -13269694.31748 -10291294.22048  21909494.1024   21909508.1544   21909492.999
        52.0004         48.0004
  -7099522.07747  -5478731.03847  23215246.2844   23215257.9784   23215245.752
        47.0004         43.0004
  -2949148.35847  -2238463.77147  23689807.0554   23689813.6614   23689806.415
        47.0004         42.0004
 -21945176.86649 -17026853.51748  20395406.2504   20395411.7124   20395406.752
        55.0004         51.0004
  -3046194.29247  -2365527.09546  23503366.0384   23503371.5094   23503365.591
        46.0004         41.0004
   -691045.19248   -536743.84647  21889168.5884   21889181.7074   21889168.970
        50.0004         42.0004
 -17043297.09449 -13232186.99048  21375793.1564   21375800.1544   21375793.348
        54.0004         50.0004
 15  1  1  1  8 30.0000000  0  8G19G27G22G31G16G08G14G32
  -1266830.46147   -967384.38446  24167272.3064   24167282.5344   24167274.012
        42.0004         38.0004
 -13346331.82748 -10351011.52948  21894909.4244   21894923.9704   21894909.459
        52.0004         48.0004
  -7004051.09847  -5404337.98747  23233413.9194   23233424.3514   23233414.989
        47.0004         43.0004
  -2930451.36647  -2223894.79447  23693364.4904   23693373.2414   23693364.708
        46.0004         42.0004
 -21933206.27349 -17017525.74948  20397683.9084   20397689.7944   20397684.052
        55.0004         51.0004
  -3040615.96847  -2361180.29146  23504426.6924   23504433.2614   23504428.222
        46.0004         41.0004
   -671075.69849   -506357.30546  21892969.3944   21892982.9704   21892970.452
        54.0004         41.0004
 -17048444.42049 -13236197.91348  21374813.7934   21374820.9284   21374814.462
        54.0004         50.0004
 15  1  1  1  9  0.0000000  0  8G19G27G22G31G16G08G14G32
  -1360823.05447  -1040625.55646  24149384.7484   24149397.2224   24149385.904
        43.0004         39.0004
 -13422801.63448 -10410598.18048  21880358.0464   21880372.0574   21880357.571
        52.0004         48.0004
  -6908569.84547  -5329936.94447  23251583.3904   23251594.1824   23251584.529
        47.0004         43.0004
  -2911946.21247  -2209475.28347  23696886.7524   23696893.8584   23696886.068
        46.0004         42.0004
 -21920687.95249 -17007771.18648  20400066.1704   20400072.0284   20400066.421
        55.0004         51.0004
  -3035187.58347  -2356950.33446  23505458.3824   23505464.7434   23505459.793
        46.0004         41.0004
   -650663.85448   -490452.10948  21896854.0574   21896867.0014   21896854.187
        50.0004         48.0004
 -17053133.47449 -13239851.74248  21373921.2554   21373928.7934   21373922.287
        54.0004         50.0004
 15  1  1  1  9 30.0000000  0  8G19G27G22G31G16G08G14G32
  -1454943.21047  -1113966.14746  24131475.4994   24131486.0084   24131476.734
        44.0004         39.0004
 -13499102.56248 -10470053.24448  21865838.4634   21865852.3754   21865837.991
        53.0004         48.0004
  -6813083.10947  -5255531.65647  23269753.6594   23269764.8634   23269754.295
        47.0004         43.0004
  -2893634.44747  -2195206.52547  23700371.9384   23700378.3064   23700371.901
        46.0004         42.0004
 -21907625.43549 -16997592.57448  20402552.0534   20402557.9654   20402552.312
        55.0004         51.0004
  -3029911.99247  -2352839.46046  23506464.0794   23506469.2854   23506464.828
        46.0004         41.0004
   -629812.96558                  21900826.7525                   21900822.813
        49.0004
 -17057366.78449 -13243150.44748  21373115.9514   21373123.2094   21373116.532
        54.0004         50.0004
 15  1  1  1 10  0.0000000  0  8G19G27G22G31G16G08G14G32
  -1549188.33847  -1187404.12646  24113541.6334   24113553.0894   24113542.516
        45.0004         40.0004
 -13575230.84348 -10529373.77648  21851351.2224   21851365.3464   21851351.256
        52.0004         48.0004
  -6717592.58847  -5181123.42047  23287924.9894   23287935.5394   23287926.457
        47.0004         43.0004
  -2875514.76447  -2181087.43847  23703820.5014   23703826.6304   23703819.685
        46.0004         42.0004
 -21894019.37949 -16986990.41748  20405141.0694   20405146.7524   20405141.008
        55.0004         51.0004
  -3024789.38947  -2348847.81346  23507439.6704   23507442.8034   23507440.314
        46.0004         41.0004
                                                                  21904875.111

 -17061144.24049 -13246093.93348  21372397.0504   21372404.1614   21372397.508
        54.0004         50.0004
 15  1  1  1 10 30.0000000  0  8G19G27G22G31G16G08G14G32
  -1643560.12147  -1260940.92746  24095583.8634   24095595.9504   24095583.618
        44.0004         40.0004
 -13651187.44248 -10588560.54548  21836897.1534   21836911.4604   21836898.094
        53.0004         48.0004
  -6622104.46547  -5106717.07547  23306096.0414   23306106.3664   23306095.051
        47.0004         43.0004
  -2857590.67947  -2167120.75347  23707229.6744   23707238.6644   23707229.040
        47.0004         42.0004
 -21879875.59749 -16975969.26448  20407832.6524   20407838.2084   20407832.613
        55.0004         51.0004
  -3019825.20747  -2344979.58746  23508383.4494   23508388.3224   23508384.462
        46.0004         41.0004
   -586791.28949   -419270.44547  21909009.6734   21909022.2004   21909009.489
        54.0004         46.0004
 -17064470.71949 -13248686.01948  21371763.9554   21371770.7484   21371764.333
        54.0004         49.0004
 15  1  1  1 11  0.0000000  0  8G19G27G22G31G16G08G14G32
  -1738050.08947  -1334569.88846  24077603.4054   24077614.8834   24077602.763
        45.0004         40.0004
 -13726963.38248 -10647606.53648  21822477.4884   21822491.4684   21822478.029
        53.0004         48.0004
  -6526615.51847  -5032310.12047  23324265.5204   23324276.6964   23324266.610
        47.0004         42.0004
  -2839855.68247  -2153301.38947  23710606.2694   23710612.5364   23710605.625
        47.0004         43.0004
 -21865189.67649 -16964525.66548  20410627.0844   20410632.7134   20410627.564
        55.0004         51.0004
  -3015014.52247  -2341230.96946  23509297.7744   23509303.7224   23509298.907
        46.0004         41.0004
   -564615.76048   -401991.03647  21913229.8264   21913242.9214   21913229.723
        51.0004         46.0004
 -17067340.91749 -13250922.57248  21371217.6504   21371224.6054   21371218.380
        54.0004         49.0004
 15  1  1  1 11 30.0000000  0  8G19G27G22G31G16G08G14G32
  -1832661.46747  -1408293.60446  24059598.0554   24059610.6844   24059599.480
        45.0004         40.0004
 -13802560.97148 -10706513.57648  21808091.8474   21808105.5334   21808091.550
        53.0004         48.0004
  -6431133.54047  -4957908.57547  23342436.9324   23342446.1244   23342437.084
        47.0004         42.0004
  -2822314.39247  -2139632.95147  23713943.6334   23713950.4484   23713943.714
        47.0004         43.0004
 -21849968.80449 -16952665.22048  20413523.4194   20413529.2114   20413523.851
        55.0004         51.0004
  -3010363.60047  -2337606.84646  23510183.5054   23510188.4484   23510183.650
        46.0004         41.0004
   -541998.80148   -384367.20947  21917534.5734   21917547.3404   21917533.971
        50.0004         42.0004
 -17069760.92649 -13252808.33648  21370757.2784   21370764.5694   21370758.031
        54.0004         50.0004
 15  1  1  1 12  0.0000000  0  8G19G27G22G31G16G08G14G32
  -1927387.09647  -1482106.38346  24041573.7384   24041586.7964   24041573.899
        45.0004         41.0004
 -13877972.47748 -10765275.61948  21793741.6214   21793754.3424   21793741.203
        53.0004         48.0004
  -6335655.83047  -4883510.39747  23360605.2464   23360616.5934   23360608.803
        47.0004         42.0004
  -2804961.72147  -2126111.52647  23717246.5414   23717252.6744   23717246.862
        47.0004         43.0004
 -21834209.57349 -16940385.27248  20416522.4794   20416528.0584   20416522.946
        55.0004         51.0004
  -3005868.84647  -2334104.43446  23511039.0954   23511043.8334   23511040.259
        45.0004         41.0004
   -518936.48448   -366396.39546  21921918.2274   21921924.3294   21921921.458
        48.0004         40.0004
 -17071726.75449 -13254340.19148  21370383.2474   21370390.7574   21370383.672
        54.0004         49.0004
 15  1  1  1 12 30.0000000  0  8G19G27G22G31G16G08G14G32
  -2022231.18847  -1556011.37046  24023526.4924   24023538.9354   24023526.748
        45.0004         41.0004
 -13953201.51748 -10823895.48348  21779425.6674   21779439.3254   21779425.152
        53.0004         48.0004
  -6240191.43347  -4809122.57847  23378771.8634   23378782.0584   23378772.421
        47.0004         42.0004
  -2787803.80047  -2112741.82447  23720511.3194   23720518.1734   23720510.396
        47.0004         43.0004
 -21817919.89849 -16927691.99448  20419622.2064   20419627.8694   20419622.628
        55.0004         51.0004
  -3001538.08347  -2330729.77246  23511863.0344   23511868.8294   23511863.819
        46.0004         41.0004
   -495435.04547   -348083.04447  21926394.7714   21926408.2904   21926395.496
        47.0004         45.0004
 -17073245.88549 -13255523.99148  21370094.2724   21370101.4334   21370094.897
        54.0004         49.0004
 15  1  1  1 13  0.0000000  0  8G19G27G22G31G16G08G14G32
  -2117188.03947  -1630004.54446  24005457.7024   24005469.4934   24005458.659
        45.0004         41.0004
 -14028240.96648 -10882367.61848  21765145.8474   21765159.5314   21765145.481
        53.0004         48.0004
  -6144738.60047  -4734743.78247  23396935.7424   23396946.4194   23396937.031
        47.0004         43.0004
  -2770835.70048  -2099520.01847  23723740.3374   23723747.5794   23723739.647
        48.0004         43.0004
 -21801098.29049 -16914584.22548  20422823.3434   20422828.9094   20422823.996
        55.0004         51.0004
  -2997368.01247  -2327480.33247  23512656.2574   23512662.0544   23512657.580
        46.0004         42.0004
   -471486.85848                  21930953.5614                   21930951.420
        49.0004
 -17074315.16149 -13256357.25648  21369890.6624   21369898.1944   21369891.028
        54.0004         50.0004
 15  1  1  1 13 30.0000000  0  8G19G27G22G31G16G08G14G32
  -2212252.32147  -1704081.57446  23987368.2804   23987379.4094   23987368.753
        45.0004         41.0004
 -14103085.31948 -10940687.73648  21750903.2084   21750916.6834   21750902.821
        53.0004         48.0004
  -6049297.44047  -4660374.07047  23415097.0734   23415108.9544   23415096.712
        47.0004         42.0004
  -2754054.46848  -2086443.74547  23726933.5794   23726940.3754   23726934.023
        48.0004         43.0004
 -21783743.49849 -16901060.97948  20426125.7624   20426131.4774   20426126.454
        55.0004         51.0004
  -2993357.24047  -2324354.98346  23513419.8974   23513425.7824   23513420.243
        46.0004         41.0004
   -447091.12948   -310411.33247  21935592.2634   21935606.2324   21935593.459
        49.0004         43.0004
 -17074932.86549 -13256838.65048  21369773.3404   21369780.3264   21369774.245
        54.0004         50.0004
 15  1  1  1 14  0.0000000  0  8G19G27G22G31G16G08G14G32
  -2307429.96647  -1778246.78246  23969257.0214   23969268.7204   23969257.174
        46.0004         41.0004
 -14177740.25848 -10998860.28148  21736696.8474   21736709.9654   21736696.687
        53.0004         48.0004
  -5953878.98147  -4586022.05747  23433254.9844   23433264.7564   23433254.480
        47.0004         42.0004
  -2737468.37448  -2073519.53247  23730090.6524   23730097.2044   23730089.358
        48.0004         43.0004
 -21765865.95249 -16887130.39648  20429527.6734   20429533.3264   20429527.933
        55.0004         51.0004
  -2989515.62547  -2321361.44946  23514150.6694   23514156.1094   23514151.108
        46.0004         41.0004
   -422257.53349   -264890.76147  21940317.8394   21940334.1504   21940318.897
        54.0004         42.0004
 -17075108.52449 -13256975.60348  21369739.9514   21369747.3704   21369740.782
        54.0004         50.0004
 15  1  1  1 14 30.0000000  0  8G19G27G22G31G16G08G14G32
  -2402704.07247  -1852486.90546  23951127.0964   23951139.4114   23951128.233
        46.0004         41.0004
 -14252188.42448 -11056871.69948  21722530.1794   21722543.2124   21722529.617
        53.0004         48.0004
  -5858471.30747  -4511678.43047  23451410.4624   23451420.4774   23451411.649
        46.0004         42.0004
  -2721062.39248  -2060735.62747  23733211.1684   23733219.4224   23733210.821
        48.0004         43.0004
 -21747453.30849 -16872782.85448  20433031.4624   20433036.7394   20433032.115
        55.0004         51.0004
  -2985829.75047  -2318489.27346  23514851.1814   23514857.3004   23514852.126
        46.0004         41.0004
   -396967.61248   -245184.43247  21945131.6444   21945145.4174   21945131.352
        51.0004         46.0004
 -17074828.70649 -13256757.62848  21369793.4284   21369800.1114   21369793.858
        54.0004         50.0004
 15  1  1  1 15  0.0000000  0  8G19G27G22G31G16G08G14G32
  -2498081.46947  -1926807.60146  23932979.2584   23932988.5244   23932978.517
        45.0004         40.0004
 -14326435.58048 -11114726.48448  21708400.2294   21708414.7494   21708400.315
        53.0004         48.0004
  -5763085.56347  -4437351.86847  23469562.0844   23469571.5364   23469562.675
        46.0004         42.0004
  -2704844.80747  -2048098.53847  23736298.0164   23736304.2414   23736296.615
        47.0004         42.0004
 -21728515.70449 -16858026.24948  20436635.1314   20436640.4644   20436635.253
        55.0004         51.0004
  -2982309.51347  -2315746.13746  23515521.7284   23515527.5634   23515522.344
        46.0004         41.0004
   -371230.72848   -225129.63347  21950030.2684   21950041.6154   21950029.732
        50.0004         45.0004
 -17074103.09449 -13256192.28448  21369931.7574   21369938.4334   21369932.038
        54.0004         50.0004
 15  1  1  1 15 30.0000000  0  8G19G27G22G31G16G08G14G32
  -2593559.99747  -2001207.06246  23914810.1594   23914820.7974   23914810.122
        45.0004         41.0004
 -14400478.86548 -11172422.41248  21694310.6384   21694324.1184   21694311.056
        53.0004         48.0004
  -5667724.27447  -4363044.38547  23487708.1364   23487718.0784   23487710.175
        46.0004         42.0004
  -2688814.93147  -2035607.72847  23739348.3494   23739355.4304   23739346.853
        47.0004         42.0004
 -21709055.68749 -16842862.57348  20440338.1864   20440344.1494   20440338.430
        55.0004         51.0004
  -2978956.02147  -2313132.93346  23516160.7414   23516166.1124   23516161.108
        46.0004         41.0004
   -345046.95348   -204726.86948  21955012.0494   21955024.7594   21955011.480
        49.0004         48.0004
 -17072932.81349 -13255280.43948  21370154.5594   21370161.7174   21370154.927
        54.0004         50.0004
 15  1  1  1 16  0.0000000  0  8G19G27G22G31G16G08G14G32
  -2689140.59547  -2075686.35546  23896621.9674   23896633.7564   23896623.464
        46.0004         41.0004
 -14474318.12548 -11229959.35648  21680259.3754   21680272.8754   21680259.157
        53.0004         48.0004
  -5572392.58247  -4288759.88847  23505849.8864   23505860.3034   23505849.725
        46.0004         42.0004
  -2672975.11247  -2023264.99447  23742362.5984   23742369.5914   23742363.233
        47.0004         43.0004
 -21689077.82049 -16827295.37748  20444139.8764   20444145.6374   20444140.414
        55.0004         51.0004
  -2975773.28547  -2310652.83446  23516766.8034   23516771.4324   23516766.166
        46.0004         41.0004
   -318418.83948   -183978.21947  21960079.1234   21960092.8084   21960079.633
        49.0004         44.0004
 -17071321.70649 -13254025.07648  21370460.6364   21370468.0254   21370460.884
        54.0004         50.0004
 15  1  1  1 16 30.0000000  0  8G19G27G22G31G16G08G14G32
  -2784816.73247  -2150240.17847  23878416.2054   23878428.8244   23878417.149
        46.0004         42.0004
 -14547946.06548 -11287331.63248  21666248.2314   21666261.7044   21666248.573
        53.0004         48.0004
  -5477088.28247  -4214496.68447  23523984.9194   23523995.6364   23523985.433
        46.0004         42.0004
  -2657320.66947  -2011066.70147  23745340.8564   23745347.7124   23745339.737
        47.0004         42.0004
 -21668579.51349 -16811322.64248  20448040.6794   20448045.9914   20448041.009
        55.0004         51.0004
  -2972758.09047  -2308303.27446  23517338.6134   23517345.3114   23517340.085
        46.0004         41.0004
   -291340.14948   -162878.21947  21965231.8444   21965244.5814   21965232.797
        48.0004         43.0004
 -17069266.46749 -13252423.64248  21370851.9124   21370858.9774   21370851.862
        54.0004         50.0004
 15  1  1  1 17  0.0000000  0  8G19G27G22G31G16G08G14G32
  -2880585.08047  -2224865.79047  23860192.2024   23860204.4494   23860193.003
        47.0004         42.0004
 -14621359.41448 -11344536.70948  21652278.0394   21652291.4424   21652277.412
        53.0004         48.0004
  -5381813.73747  -4140256.67547  23542115.7664   23542126.3454   23542115.605
        46.0004         42.0004
  -2641850.27447  -1999011.67547  23748284.6454   23748292.6234   23748284.751
        46.0004         42.0004
 -21647562.38349 -16794945.63348  20452039.9804   20452045.6054   20452040.219
        55.0004         51.0004
  -2969911.07847  -2306084.76246  23517880.3304   23517885.7994   23517881.812
        46.0004         41.0004
   -263810.70048   -141426.75647  21970471.7434   21970483.2114   21970471.551
        49.0004         44.0004
 -17066767.78849 -13250476.64848  21371327.1944   21371334.5024   21371327.847
        54.0004         50.0004
 15  1  1  1 17 30.0000000  0  8G19G27G22G31G16G08G14G32
  -2976440.32247  -2299559.05047  23841952.2534   23841966.8114   23841953.225
        47.0004         43.0004
 -14694552.53948 -11401570.18348  21638349.6504   21638363.2884   21638349.274
        53.0004         48.0004
  -5286568.69747  -4066039.65946  23560239.8724   23560249.9824   23560241.437
        46.0004         41.0004
  -2626560.44547  -1987097.11347  23751193.7834   23751201.7794   23751192.141
        47.0004         42.0004
 -21626026.04149 -16778164.04948  20456138.3654   20456143.7714   20456138.296
        55.0004         51.0004
  -2967230.35547  -2303995.83747  23518392.0384   23518396.9604   23518391.958
        46.0004         42.0004
   -235826.93448   -119621.08347  21975796.5194   21975808.4364   21975796.499
        49.0004         43.0004
 -17063824.06449 -13248182.86048  21371887.5424   21371894.7914   21371888.491
        54.0004         50.0004
 15  1  1  1 18  0.0000000  0  9G19G03G27G22G31G16G08G14G32
  -3072386.87547  -2374323.36247  23823694.9024   23823708.1544   23823695.759
        47.0004         43.0004
                                                                  23052058.837

 -14767529.11748 -11458434.92248  21624463.1864   21624476.0344   21624462.609
        53.0004         49.0004
  -5191362.29847  -3991852.75846  23578358.0474   23578367.4084   23578358.043
        46.0004         41.0004
  -2611457.99147  -1975328.70347  23754068.1664   23754075.0334   23754068.461
        47.0004         42.0004
 -21603979.00649 -16760984.52748  20460333.7024   20460339.3574   20460334.190
        55.0004         51.0004
  -2964723.68947  -2302042.54247  23518867.8224   23518873.7794   23518869.476
        47.0004         42.0004
   -207396.12748    -97467.36247  21981208.1624   21981219.3124   21981208.091
        49.0004         44.0004
 -17060443.12149 -13245548.38248  21372530.8594   21372537.6694   21372531.267
        54.0004         49.0004
 15  1  1  1 18 30.0000000  0  9G19G03G27G22G31G16G08G14G32
  -3168416.35447  -2449151.82647  23805421.1544   23805435.6244   23805422.237
        47.0004         43.0004
   -221829.03248   -136243.81546  23042421.1454   23042431.7064   23042421.179
        53.0004         37.0004
 -14840280.65948 -11515124.30948  21610618.4114   21610632.5394   21610618.541
        53.0004         49.0004
  -5096191.22447  -3917693.32547  23596466.5104   23596477.0974   23596468.003
        46.0004         42.0004
  -2596536.39947  -1963701.27547  23756907.0314   23756914.2624   23756907.459
        46.0004         42.0004
 -21581417.62049 -16743404.21048  20464627.1794   20464632.5334   20464627.347
        55.0004         51.0004
  -2962386.74747  -2300221.50946  23519313.1184   23519318.2064   23519313.894
        46.0004         41.0004
   -178511.46548    -74959.85847  21986703.9834   21986717.0894   21986703.433
        49.0004         43.0004
 -17056620.40449 -13242569.64348  21373258.5784   21373265.3364   21373258.991
        54.0004         49.0004
 15  1  1  1 19  0.0000000  0  9G19G03G27G22G31G16G08G14G32
  -3264527.51748  -2524043.89147  23787132.1804   23787146.9014   23787133.218
        48.0004         44.0004
   -272031.99248   -175363.08246  23032871.0094   23032877.1464   23032869.755
        48.0004         37.0004
 -14912804.64348 -11571636.37448  21596817.6184   21596831.0674   21596817.785
        53.0004         49.0004
  -5001058.61947  -3843563.85446  23614569.9224   23614580.6994   23614570.592
        46.0004         41.0004
  -2581795.65747  -1952214.71647  23759713.0144   23759719.5214   23759712.547
        46.0004         42.0004
 -21558344.57349 -16725425.18548  20469017.4194   20469023.2094   20469017.790
        55.0004         51.0004
  -2960220.98847  -2298533.87746  23519724.4854   23519731.0094   23519725.065
        46.0004         41.0004
   -149173.09348    -52098.72147  21992285.6924   21992299.2714   21992286.994
        49.0004         47.0004
 -17052357.52749 -13239247.92448  21374069.5734   21374077.1414   21374069.941
        54.0004         49.0004
 15  1  1  1 19 30.0000000  0  9G19G03G27G22G31G16G08G14G32
  -3360726.65947  -2599004.79246  23768826.0074   23768842.1084   23768826.489
        47.0004         41.0004
   -321810.41947   -214151.48046  23023398.0664   23023404.1384   23023398.612
        44.0004         37.0004
 -14985106.07248 -11627975.02248  21583059.3704   21583072.2584   21583059.023
        53.0004         49.0004
  -4905974.23747  -3769471.91746  23632662.8764   23632674.2224   23632664.447
        46.0004         41.0004
  -2567243.05047  -1940874.83147  23762480.2874   23762487.5294   23762480.433
        46.0004         42.0004
 -21534769.76149 -16707055.18148  20473503.5854   20473509.5324   20473503.954
        55.0004         51.0004
  -2958235.21947  -2296986.51147  23520102.8464   23520108.8104   23520103.539
        46.0004         42.0004
   -119388.74648    -28890.04047  21997954.0994   21997966.4444   21997954.232
        49.0004         44.0004
 -17047663.70649 -13235590.39748  21374962.7204   21374970.0514   21374963.122
        54.0004         49.0004
 15  1  1  1 20  0.0000000  0  9G19G03G27G22G31G16G08G14G32
  -3456999.81447  -2674022.12346  23750505.1154   23750519.6684   23750505.694
        46.0004         40.0004
   -371155.43647   -252602.11146  23014007.4714   23014015.0264   23014007.244
        43.0004         38.0004
 -15057173.69749 -11684131.49048  21569345.1714   21569358.4624   21569345.267
        54.0004         49.0004
  -4810932.46047  -3695413.15946  23650749.2024   23650760.5304   23650749.739
        46.0004         41.0004
  -2552869.67347  -1929674.81147  23765216.9944   23765222.8254   23765215.813
        47.0004         42.0004
 -21510686.87549 -16688289.27348  20478086.6154   20478092.0564   20478086.697
        55.0004         51.0004
  -2956422.01447  -2295573.59447  23520448.9634   23520454.3824   23520448.747
        46.0004         42.0004
    -89149.95948     -5327.46847  22003708.5034   22003721.1194   22003708.775
        49.0004         44.0004
 -17042531.75349 -13231591.45848  21375939.2404   21375946.7684   21375939.655
        54.0004         49.0004
 15  1  1  1 20 30.0000000  0  9G19G03G27G22G31G16G08G14G32
  -3553346.31447  -2749096.53747  23732171.2324   23732182.8974   23732171.644
        45.0004         42.0004
   -420066.74947   -290714.84746  23004702.0634   23004710.7424   23004700.116
        42.0004         38.0004
 -15129004.92149 -11740103.75148  21555675.8994   21555689.0734   21555676.265
        54.0004         49.0004
  -4715935.64747  -3621389.35846  23668826.1574   23668836.6014   23668828.431
        46.0004         41.0004
  -2538674.52047  -1918613.42147  23767918.8364   23767924.3474   23767918.718
        47.0004         42.0004
 -21486098.67349 -16669129.60748  20482765.7194   20482771.1694   20482766.037
        56.0004         51.0004
  -2954782.57647  -2294296.06347  23520760.1154   23520765.3754   23520760.398
        47.0004         42.0004
    -58456.12448     18589.62647  22009549.5064   22009561.8054   22009550.332
        49.0004         45.0004
 -17036963.23049 -13227252.34048  21376999.2064   21377006.2664   21376999.742
        54.0004         49.0004
 15  1  1  1 21  0.0000000  0  9G19G03G27G22G31G16G08G14G32
  -3649770.61747  -2824231.78646  23713820.5924   23713839.2634   23713822.602
        46.0004         39.0004
   -468548.05147   -328492.49546  22995475.8664   22995482.3434   22995475.993
        43.0004         38.0004
 -15200601.09249 -11795892.84648  21542051.2014   21542064.4354   21542051.554
        54.0004         49.0004
  -4620990.74947  -3547406.11546  23686893.8534   23686903.7554   23686894.651
        45.0004         40.0004
  -2524662.52647  -1907695.07647  23770584.7304   23770590.5334   23770584.484
        47.0004         42.0004
 -21461010.96549 -16649580.71348  20487539.4694   20487544.8744   20487539.363
        55.0004         51.0004
  -2953322.42947  -2293158.25447  23521036.5354   23521042.7514   23521039.008
        47.0004         42.0004
    -27312.30948     42857.35746  22015477.4744   22015488.5454   22015476.913
        49.0004         41.0004
 -17030963.59149 -13222577.28148  21378140.3884   21378147.9774   21378140.778
        54.0004         49.0004
 15  1  1  1 21 30.0000000  0  9G19G03G27G22G31G16G08G14G32
  -3746270.92747  -2899427.63046  23695458.8224   23695472.5224   23695459.375
        44.0004         38.0004
   -516599.01047   -365934.81146  22986331.4594   22986339.1544   22986332.267
        43.0004         38.0004
 -15271959.39649 -11851496.59748  21528472.5464   21528485.5554   21528472.288
        54.0004         49.0004
  -4526100.05747  -3473464.97746  23704951.0684   23704960.6244   23704951.685
        45.0004         40.0004
  -2510833.37447  -1896919.55847  23773215.7464   23773223.2154   23773215.513
        47.0004         42.0004
 -21435426.69349 -16629644.88148  20492408.0174   20492413.5564   20492408.555
        55.0004         51.0004
  -2952042.51547  -2292160.89547  23521280.8804   23521286.1854   23521280.522
        47.0004         42.0004
      4282.36748     67476.41247  22021488.3364   22021500.9544   22021487.875
        49.0004         46.0004
 -17024534.31349 -13217567.45248  21379364.2944   21379371.4164   21379364.791
        54.0004         49.0004
 15  1  1  1 22  0.0000000  0  9G19G03G27G22G31G16G08G14G32
  -3842837.90947  -2974675.41346  23677082.8474   23677095.2604   23677083.422
        42.0004         36.0004
   -564213.73447   -403037.19846  22977271.0894   22977278.1944   22977269.805
        42.0004         37.0004
 -15343071.69749 -11906908.66048  21514939.7384   21514952.7404   21514939.564
        54.0004         49.0004
  -4431260.80147  -3399563.97046  23722997.4834   23723006.5114   23722998.131
        45.0004         40.0004
  -2497179.28147  -1886279.94247  23775813.8444   23775822.3224   23775812.921
        47.0004         43.0004
 -21409342.63349 -16609319.59948  20497371.5994   20497377.0044   20497371.891
        55.0004         51.0004
  -2950938.62347  -2291300.74547  23521490.9534   23521496.5624   23521491.366
        47.0004         42.0004
     36333.16648     92450.84447  22027587.5764   22027601.2334   22027588.284
        50.0004         46.0004
 -17017671.39349 -13212219.71948  21380670.1734   21380677.4584   21380670.456
        54.0004         50.0004
 15  1  1  1 22 30.0000000  0  9G19G03G27G22G31G16G08G14G32
  -3939468.99547  -3049972.49346  23658694.9804   23658711.8214   23658695.632
        44.0004         41.0004
   -611392.87746   -439800.18946  22968290.1704   22968299.3964   22968291.286
        41.0004         36.0004
 -15413936.13449 -11962127.56748  21501454.7074   21501467.5934   21501454.188
        54.0004         49.0004
  -4336476.31547  -3325705.56446  23741034.7204   23741044.1774   23741035.143
        45.0004         40.0004
  -2483701.66447  -1875778.01547  23778378.4704   23778385.2944   23778377.585
        47.0004         43.0004
 -21382761.82949 -16588607.24148  20502429.7034   20502435.1444   20502429.974
        55.0004         51.0004
  -2950012.62447  -2290579.17947  23521667.4044   23521673.0104   23521667.128
        47.0004         42.0004
     68839.36948    117779.97947  22033773.4914   22033785.8174   22033773.360
        49.0004         45.0004
 -17010377.28049 -13206536.00648  21382058.3074   21382065.3504   21382058.662
        54.0004         50.0004
 15  1  1  1 23  0.0000000  0  9G19G03G27G22G31G16G08G14G32
  -4036168.05647  -3125323.37246  23640293.4744   23640308.2654   23640295.133
        43.0004         38.0004
   -658140.12746   -476226.63945  22959401.2554   22959402.3674   22959400.245
        40.0004         34.0004
 -15484554.06249 -12017154.39448  21488015.9394   21488029.2974   21488015.690
        54.0004         49.0004
  -4241753.35747  -3251895.08246  23759059.8384   23759068.7594   23759058.898
        44.0004         39.0004
  -2470404.00747  -1865416.16347  23780909.7584   23780916.7084   23780910.227
        47.0004         43.0004
 -21355691.18849 -16567513.18848  20507580.9214   20507586.4544   20507581.420
        55.0004         51.0004
  -2949269.77647  -2290000.36847  23521809.0464   23521814.7784   23521808.319
        47.0004         42.0004
    101796.68148    143460.49247  22040045.7994   22040058.4624   22040045.659
        49.0004         44.0004
 -17002657.51249 -13200520.61748  21383527.3834   21383534.5774   21383528.276
        54.0004         50.0004
 15  1  1  1 23 30.0000000  0  9G19G03G27G22G31G16G08G14G32
  -4132928.42147  -3200721.68346  23621881.1954   23621895.1394   23621883.135
        43.0004         39.0004
  -2279872.78646  -1739914.37945  22950579.5594   22950591.2974   22950582.927
        39.0004         34.0004
 -15554920.18949 -12071985.00748  21474625.5954   21474639.2964   21474625.392
        54.0004         49.0004
  -4147091.77047  -3178132.45046  23777073.4014   23777081.6444   23777074.152
        44.0004         40.0004
  -2457282.62147  -1855191.59747  23783407.3614   23783413.4514   23783406.452
        47.0004         43.0004
 -21328130.35449 -16546037.16948  20512825.5574   20512831.1244   20512825.757
        55.0004         51.0004
  -2948708.80947  -2289563.31247  23521915.6314   23521921.3884   23521916.879
        47.0004         42.0004
    135208.28648    169495.33947  22046403.4314   22046418.0604   22046403.716
        49.0004         45.0004
 -16994511.04749 -13194172.74148  21385077.7734   21385084.7084   21385078.013
        54.0004         50.0004
 15  1  1  1 24  0.0000000  0  9G19G03G27G22G31G16G08G14G32
  -4229741.29247  -3276160.44547  23603459.4404   23603472.9174   23603460.352
        46.0004         42.0004
  -2325743.78246  -1775658.00945  22941855.7654   22941860.2344   22941854.103
        38.0004         34.0004
 -15625025.12649 -12126612.09548  21461285.2724   21461298.4214   21461285.201
        54.0004         49.0004
  -4052487.57747  -3104414.62246  23795075.6884   23795084.6594   23795077.146
        44.0004         39.0004
  -2444331.62447  -1845099.99747  23785871.2934   23785878.6154   23785870.875
        47.0004         43.0004
 -21300075.11849 -16524175.90448  20518164.3984   20518169.6004   20518164.483
        55.0004         51.0004
  -2948324.38747  -2289263.80747  23521989.1414   23521995.1024   23521990.304
        47.0004         42.0004
    169080.62048    195889.16447  22052849.4154   22052862.8724   22052849.492
        48.0004         44.0004
 -16985932.71949 -13187488.36948  21386709.9184   21386716.7264   21386710.577
        54.0004         50.0004
 15  1  1  1 24 30.0000000  0  9G19G03G27G22G31G16G08G14G32
  -4326616.69547  -3351648.13747  23585024.8274   23585039.0994   23585025.633
        47.0004         44.0004
  -2371184.51746  -1811066.37346  22933208.8214   22933214.2164   22933207.761
        40.0004         36.0004
 -15694877.56749 -12181042.42448  21447992.5594   21448005.3074   21447992.427
        54.0004         49.0004
  -3957954.84947  -3030752.50346  23813063.5124   23813073.2384   23813064.741
        44.0004         40.0004
  -2431561.05547  -1835149.02346  23788302.4804   23788307.3484   23788300.665
        47.0004         41.0004
 -21271539.47949 -16501940.29648  20523594.5964   20523600.1094   20523594.665
        55.0004         51.0004
  -2948128.67947  -2289111.35447  23522025.5754   23522031.4164   23522026.866
        46.0004         42.0004
    203402.43748    222633.53847  22059380.7504   22059393.7644   22059380.727
        49.0004         44.0004
 -16976935.56849 -13180477.64148  21388422.1404   21388429.6214   21388422.893
        54.0004         50.0004
 15  1  1  1 25  0.0000000  0  9G19G03G27G22G31G16G08G14G32
  -4423540.63847  -3427173.69246  23566581.7314   23566595.0194   23566581.925
        47.0004         40.0004
  -2416182.85346  -1846130.02646  22924644.7894   22924654.5564   22924643.037
        41.0004         37.0004
 -15764463.13149 -12235264.80048  21434751.3224   21434763.4924   21434750.975
        54.0004         49.0004
  -3863483.70747  -2957138.23246  23831041.0724   23831050.9854   23831039.829
        44.0004         39.0004
  -2418959.23547  -1825329.66047  23790699.7854   23790707.0644   23790698.947
        47.0004         42.0004
 -21242514.42749 -16479323.32448  20529117.5404   20529122.8884   20529117.625
        55.0004         51.0004
  -2948111.07947  -2289097.69947  23522029.1494   23522035.8724   23522029.413
        46.0004         42.0004
    238184.90448    249736.80347  22065999.4694   22066012.1804   22065999.835
        49.0004         42.0004
 -16967509.43649 -13173132.64348  21390215.8944   21390223.1424   21390216.337
        54.0004         50.0004
 15  1  1  1 25 30.0000000  0  9G19G03G27G22G31G16G08G14G32
  -4520517.23647  -3502740.30546  23548128.1784   23548141.7094   23548128.941
        46.0004         41.0004
  -2460745.68447  -1880854.36246  22916164.0024   22916173.2004   22916165.081
        42.0004         37.0004
 -15833786.06849 -12289282.53448  21421559.1604   21421572.1654   21421559.228
        54.0004         49.0004
  -3769083.92147  -2883579.59946  23849004.6184   23849013.4064   23849005.141
        43.0004         38.0004
  -2406531.49847  -1815645.55847  23793064.4504   23793070.2624   23793064.571
        47.0004         43.0004
 -21213009.31649 -16456332.28648  20534732.2914   20534737.8164   20534732.349
        55.0004         50.0004
  -2948279.63047  -2289229.08047  23521997.4014   23522003.5094   23521997.514
        46.0004         42.0004
    273422.15448    277194.96447  22072704.3624   22072717.3114   22072704.903
        49.0004         45.0004
 -16957662.91949 -13165460.07548  21392089.5694   21392096.9444   21392089.359
        54.0004         50.0004
 15  1  1  1 26  0.0000000  0  9G19G03G27G22G31G16G08G14G32
  -4617544.58047  -3578346.40547  23529664.5534   23529679.2324   23529665.310
        47.0004         43.0004
  -2504873.13447  -1915239.40246  22907767.7654   22907775.3674   22907767.986
        42.0004         37.0004
 -15902843.98149 -12343093.77048  21408418.0484   21408430.3634   21408417.862
        54.0004         49.0004
  -3674758.50347  -2810078.94846  23866953.4854   23866963.1014   23866953.575
        44.0004         40.0004
  -2394279.27847  -1806098.65347  23795394.7294   23795403.0704   23795394.163
        47.0004         43.0004
 -21183026.75549 -16432969.20548  20540437.7034   20540442.7754   20540437.803
        55.0004         50.0004
  -2948635.66647  -2289506.54047  23521930.8674   23521936.5304   23521931.373
        47.0004         42.0004
    309111.20648    305004.79947  22079496.2344   22079508.7004   22079495.707
        49.0004         44.0004
 -16947397.95049 -13157461.44648  21394043.1474   21394050.2724   21394043.416
        54.0004         50.0004
 15  1  1  1 26 30.0000000  0  9G19G03G27G22G31G16G08G14G32
  -4714617.11647  -3653987.68546  23511190.9544   23511205.0904   23511192.554
        46.0004         41.0004
  -2548561.97346  -1949282.67546  22899452.4214   22899460.4894   22899453.928
        41.0004         36.0004
 -15971631.08149 -12396694.00248  21395328.0064   21395340.7364   21395328.367
        54.0004         49.0004
  -3580506.16547  -2736635.18746  23884889.2814   23884898.1424   23884889.948
        44.0004         39.0004
  -2382197.88347  -1796684.95347  23797695.8144   23797702.7094   23797695.623
        47.0004         42.0004
 -21152566.36449 -16409233.79148  20546234.2374   20546239.2294   20546234.315
        55.0004         50.0004
  -2949177.03847  -2289928.45847  23521827.1814   23521833.2444   23521827.657
        46.0004         42.0004
    345256.49448    333170.00947  22086373.9764   22086386.8784   22086373.767
        49.0004         45.0004
 -16936713.01349 -13149135.55248  21396076.1254   21396083.8084   21396077.038
        54.0004         50.0004
 15  1  1  1 27  0.0000000  0  9G19G03G27G22G31G16G08G14G32
  -4811730.10547  -3729660.31947  23492711.9764   23492727.3674   23492712.035
        47.0004         43.0004
  -2591809.70346  -1982982.17846  22891226.0064   22891231.7714   22891222.732
        41.0004         37.0004
 -16040142.29049 -12450079.25348  21382290.4834   21382303.5784   21382290.203
        54.0004         50.0004
  -3486327.16847  -2663248.53146  23902810.4604   23902818.4464   23902812.554
        44.0004         39.0004
  -2370284.38347  -1787402.17347  23799963.2714   23799969.0504   23799961.991
        47.0004         42.0004
 -21121628.46349 -16385126.29948  20552121.3434   20552126.8544   20552121.775
        55.0004         50.0004
  -2949902.38047  -2290493.71946  23521688.2794   23521694.2814   23521688.842
        46.0004         41.0004
    381860.37348    361692.57247  22093338.1094   22093351.8384   22093339.676
        49.0004         43.0004
 -16925607.43949 -13140481.87248  21398189.7294   21398196.6874   21398190.527
        54.0004         50.0004
 15  1  1  1 27 30.0000000  0  9G19G03G27G22G31G16G08G14G32
  -4908885.44647  -3805366.08246  23474223.8184   23474239.7864   23474225.093
        47.0004         41.0004
  -2634619.82347  -2016340.73846  22883077.0144   22883084.6864   22883075.554
        42.0004         37.0004
 -16108378.52549 -12503250.25548  21369305.3254   21369318.6114   21369305.064
        54.0004         49.0004
  -3392227.78047  -2589924.02846  23920716.2194   23920726.8204   23920716.444
        43.0004         38.0004
  -2358541.74847  -1778252.41347  23802197.2604   23802205.1484   23802196.008
        47.0004         42.0004
 -21090219.40149 -16360651.67348  20558098.2124   20558103.5094   20558098.361
        55.0004         50.0004
  -2950816.38247  -2291205.92346  23521514.7484   23521520.4474   23521514.589
        46.0004         41.0004
    418919.19548    390569.76147  22100391.1454   22100403.1834   22100391.475
        48.0004         43.0004
 -16914086.42949 -13131504.46848  21400382.2514   21400389.1074   21400382.253
        54.0004         50.0004
 15  1  1  1 28  0.0000000  0  9G19G03G27G22G31G16G08G14G32
  -5006078.43347  -3881101.04147  23455730.5404   23455744.7004   23455730.369
        47.0004         42.0004
  -2676990.22047  -2049356.66346  22875014.4884   22875022.3014   22875014.318
        42.0004         38.0004
 -16176335.15949 -12556203.41648  21356373.3994   21356386.5254   21356373.379
        54.0004         49.0004
  -3298208.51347  -2516661.80446  23938607.6604   23938616.4644   23938607.358
        43.0004         38.0004
  -2346967.34247  -1769233.61347  23804400.5984   23804406.9904   23804400.419
        47.0004         42.0004
 -21058339.56549 -16335810.22048  20564164.6894   20564170.2124   20564164.951
        55.0004         50.0004
  -2951918.22047  -2292064.48247  23521304.9604   23521312.0394   23521306.372
        46.0004         42.0004
    456433.77447    419802.03547  22107529.2134   22107543.1024   22107529.800
        47.0004         44.0004
 -16902149.75849 -13122203.13448  21402653.5874   21402660.7064   21402653.734
        54.0004         50.0004
 15  1  1  1 28 30.0000000  0  9G19G03G27G22G31G16G08G14G32
  -5103309.55347  -3956865.68247  23437227.6004   23437241.1494   23437227.607
        47.0004         43.0004
  -2718923.99047  -2082032.34646  22867035.3874   22867043.0594   22867034.474
        44.0004         39.0004
 -16244012.52649 -12608938.98548  21343495.5044   21343507.9974   21343495.624
        54.0004         50.0004
  -3204274.69646  -2443466.23846  23956481.3364   23956491.4074   23956483.496
        41.0004         36.0004
  -2335564.09847  -1760348.49047  23806570.3164   23806578.5764   23806570.453
        47.0004         43.0004
 -21025994.77349 -16310606.46948  20570319.8634   20570324.8414   20570320.021
        55.0004         50.0004
  -2953211.64647  -2293072.32847  23521058.9484   23521064.7824   23521059.523
        46.0004         42.0004
    494401.14048    449387.00447  22114754.3344   22114767.7594   22114754.457
        49.0004         45.0004
 -16889801.46649 -13112580.67548  21405002.7954   21405010.0184   21405003.345
        54.0004         50.0004
 15  1  1  1 29  0.0000000  0  9G19G03G27G22G31G16G08G14G32
  -5200569.08347  -4032652.39747  23418718.0764   23418733.1854   23418719.393
        47.0004         42.0004
  -2760413.96647  -2114362.25746  22859139.9984   22859146.9384   22859139.265
        44.0004         40.0004
 -16311400.90749 -12661449.39448  21330671.9724   21330684.3774   21330671.934
        54.0004         50.0004
  -3110421.52646  -2370333.50946  23974341.0664   23974347.5644   23974343.251
        41.0004         36.0004
  -2324324.26547  -1751590.76747  23808708.6234   23808716.2934   23808708.616
        47.0004         42.0004
 -20993180.39149 -16285036.79648  20576563.9464   20576569.4364   20576564.528
        55.0004         50.0004
  -2954690.79147  -2294224.90546  23520777.8024   23520783.8654   23520776.850
        46.0004         41.0004
    532828.74448    479330.93147  22122065.9634   22122080.5044   22122068.279
        48.0004         42.0004
 -16877037.28049 -13102634.30848  21407431.4804   21407438.6864   21407432.438
        54.0004         49.0004
 15  1  1  1 29 30.0000000  0  9G19G03G27G22G31G16G08G14G32
  -5297858.50747  -4108462.39047  23400205.5364   23400221.3044   23400206.452
        47.0004         42.0004
  -2801463.83347  -2146349.17946  22851327.3504   22851335.3994   22851326.075
        45.0004         40.0004
 -16378501.21849 -12713735.34648  21317902.9244   21317915.8744   21317902.778
        54.0004         50.0004
  -3016655.00146  -2297268.25346  23992185.8854   23992190.7504   23992186.166
        41.0004         37.0004
  -2313249.92447  -1742961.82347  23810817.8244   23810824.9444   23810816.790
        46.0004         43.0004
 -20959902.91949 -16259106.27148  20582896.7854   20582901.9724   20582897.241
        55.0004         50.0004
  -2956360.40747  -2295525.94946  23520458.9634   23520465.9414   23520459.127
        46.0004         41.0004
    571712.28748    509629.98147  22129465.7004   22129479.7144   22129466.398
        49.0004         44.0004
 -16863862.40249 -13092368.06348  21409938.5424   21409945.5194   21409938.558
        54.0004         49.0004
 15  1  1  1 30  0.0000000  0  9G19G03G27G22G31G16G08G14G32
  -5395177.27447  -4184295.24247  23381686.1334   23381702.0874   23381687.273
        47.0004         43.0004
  -2842074.97747  -2177994.25146  22843600.1584   22843608.2234   22843598.868
        45.0004         40.0004
 -16445312.24149 -12765795.90448  21305189.3284   21305202.1994   21305189.248
        54.0004         50.0004
  -2922979.24446  -2224273.65446  24010008.9394   24010016.7224   24010011.710
        41.0004         36.0004
  -2302342.60147  -1734463.05047  23812893.2114   23812901.2054   23812892.841
        47.0004         42.0004
 -20926166.58549 -16232818.19348  20589316.6344   20589321.4784   20589316.911
        55.0004         50.0004
  -2958222.70847  -2296977.14246  23520105.3994   23520111.3904   23520106.614
        46.0004         41.0004
    611049.42348    540282.20947  22136951.7624   22136963.9914   22136952.533
        49.0004         44.0004
 -16850280.12649 -13081784.38748  21412523.0614   21412530.2174   21412523.542
        54.0004         48.0004
 15  1  1  1 30 30.0000000  0  9G19G03G27G22G31G16G08G14G32
  -5492518.21847  -4260145.38547  23363163.3014   23363179.0604   23363163.622
        47.0004         43.0004
  -2882242.72047  -2209293.84946  22835956.5574   22835964.3444   22835956.547
        45.0004         41.0004
 -16511826.57449 -12817625.28748  21292532.0644   21292545.0574   21292531.902
        54.0004         50.0004
  -2829392.06546  -2151348.20146  24027818.5574   24027826.2014   24027820.986
        41.0004         37.0004
  -2291597.02847  -1726090.37747  23814938.3374   23814945.8094   23814937.859
        47.0004         43.0004
 -20891969.21149 -16206170.85448  20595823.9154   20595829.2634   20595824.468
        55.0004         51.0004
  -2960273.98947  -2298575.53647  23519714.9264   23519721.3204   23519716.003
        46.0004         42.0004
    650844.84848    571291.43246  22144524.6774   22144538.8774   22144524.566
        49.0004         41.0004
 -16836288.10949 -13070881.84148  21415186.0384   21415193.0034   21415187.118
        54.0004         49.0004
 15  1  1  1 31  0.0000000  0  9G19G03G27G22G31G16G08G14G32
  -5589884.47347  -4336015.22647  23344634.7384   23344650.7824   23344635.481
        47.0004         43.0004
  -2921972.64747  -2240252.30446  22828395.7054   22828404.3874   22828394.542
        46.0004         41.0004
 -16578046.96549 -12869225.62548  21279930.8894   21279943.6084   21279930.542
        54.0004         50.0004
  -2735900.70847  -2078497.27046  24045608.7394   24045618.4084   24045609.925
        42.0004         37.0004
  -2281017.42147  -1717846.79847  23816952.4204   23816959.9584   23816952.009
        47.0004         42.0004
 -20857319.00249 -16179170.65448  20602417.5994   20602423.3004   20602417.740
        55.0004         50.0004
  -2962520.67447  -2300326.22846  23519287.9604   23519293.9044   23519287.798
        46.0004         41.0004
    691093.86548    602654.52047  22152184.1634   22152196.2754   22152184.026
        49.0004         46.0004
 -16821892.00549 -13059664.03748  21417925.9784   21417932.9104   21417926.290
        54.0004         49.0004
 15  1  1  1 31 30.0000000  0  9G19G03G27G22G31G16G08G14G32
  -5687266.42547  -4411897.30347  23326102.5644   23326119.2184   23326105.084
        47.0004         42.0004
  -2961257.52547  -2270863.96747  22820921.2094   22820928.3754   22820920.730
        46.0004         42.0004
 -16643963.69349 -12920589.36348  21267387.3754   21267400.0024   21267386.926
        54.0004         50.0004
  -2642501.06347  -2005717.87346  24063383.1644   24063389.4254   24063382.160
        43.0004         38.0004
  -2270595.91347  -1709726.13547  23818935.2504   23818943.8984   23818935.415
        47.0004         43.0004
 -20822211.72449 -16151814.30148  20609098.3174   20609103.7064   20609098.678
        55.0004         51.0004
  -2964956.61647  -2302224.38446  23518824.2064   23518829.7854   23518824.068
        46.0004         41.0004
    731801.78948    634374.87247  22159928.8534   22159944.1954   22159930.896
        48.0004         42.0004
 -16807087.41449 -13048128.05248  21420742.7574   21420749.4714   21420742.868
        54.0004         49.0004
 15  1  1  1 32  0.0000000  0  9G19G03G27G22G31G16G08G14G32
  -5784667.01547  -4487793.89847  23307568.1654   23307584.4544   23307570.114
        47.0004         42.0004
  -3000103.28547  -2301133.44247  22813528.8134   22813536.3994   22813528.297
        47.0004         43.0004
 -16709579.60749 -12971718.66247  21254900.9314   21254913.9464   21254900.612
        54.0004         47.0004
  -2549200.76247  -1933015.90146  24081136.7144   24081142.8684   24081138.994
        43.0004         39.0004
  -2260338.31847  -1701733.43147  23820887.1574   23820894.5604   23820888.351
        47.0004         42.0004
 -20786655.76149 -16124108.32348  20615864.7004   20615869.7934   20615864.982
        55.0004         51.0004
  -2967588.27147  -2304275.04547  23518323.1234   23518328.1844   23518324.158
        46.0004         42.0004
    772962.23248    666448.66746  22167762.5894   22167776.4294   22167763.287
        48.0004         39.0004
 -16791881.86449 -13036279.63748  21423636.4784   21423643.7324   21423636.672
        54.0004         50.0004
 15  1  1  1 32 30.0000000  0  9G19G03G27G22G31G16G08G14G32
  -5882076.94547  -4563697.82547  23289033.5754   23289047.7754   23289033.896
        47.0004         43.0004
  -3038502.98748  -2331055.33547  22806220.8774   22806229.8504   22806220.719
        48.0004         43.0004
 -16774881.23558 -13022602.01157  21242471.1425   21242473.1865   21242472.619
        53.0004         43.0004
  -2455995.27747  -1860387.71246  24098872.9864   24098879.4474   24098872.807
        42.0004         37.0004
  -2250236.36847  -1693861.95347  23822808.3634   23822818.1654   23822807.755
        47.0004         42.0004
 -20750646.75349 -16096049.31748  20622716.6624   20622722.1304   20622717.068
        55.0004         51.0004
  -2970409.65947  -2306473.58946  23517786.7594   23517791.0384   23517787.058
        46.0004         41.0004
    814583.12148    698880.50447  22175683.8644   22175696.2754   22175683.664
        49.0004         47.0004
 -16776270.70249 -13024115.45748  21426607.2124   21426614.5954   21426608.062
        54.0004         50.0004
 15  1  1  1 33  0.0000000  0  9G19G03G27G22G31G16G08G14G32
  -5979503.86947  -4639614.99247  23270493.1444   23270508.1924   23270494.170
        47.0004         43.0004
  -3076466.70348  -2360637.51447  22798996.8634   22799004.7654   22798995.204
        48.0004         43.0004
 -23141562.03648 -17983650.37547  21230103.5374   21230115.9364   21230103.373
        52.0004         45.0004
  -2362896.97247  -1787843.23746  24116587.2034   24116595.0514   24116587.851
        42.0004         38.0004
  -2240299.79747  -1686119.40847  23824701.7424   23824709.2824   23824701.272
        47.0004         43.0004
 -20714197.41149 -16067647.18648  20629652.4194   20629658.1384   20629652.746
        55.0004         51.0004
  -2973431.74647  -2308828.51847  23517211.3404   23517218.0954   23517211.311
        46.0004         42.0004
    856653.30448    731662.21747  22183689.4064   22183703.1134   22183690.040
        48.0004         44.0004
 -16760263.92449 -13011642.38548  21429653.0224   21429660.5624   21429653.708
        54.0004         51.0004
 15  1  1  1 33 30.0000000  0  9G19G03G27G22G31G16G08G14G32
  -6076935.50647  -4715535.80547  23251951.8444   23251968.3764   23251952.603
        47.0004         43.0004
  -3113984.88348  -2389872.50047  22791858.2114   22791866.5214   22791857.281
        48.0004         43.0004
   -874812.09749                  21217793.2014                   21217797.094
        56.0004
  -2269898.13947  -1715375.94646  24134284.0364   24134290.2624   24134285.842
        42.0004         38.0004
  -2230517.96947  -1678497.46547  23826561.2284   23826569.6484   23826560.371
        47.0004         42.0004
 -20677301.14049 -16038896.79548  20636673.8724   20636679.1224   20636674.156
        55.0004         51.0004
  -2976645.63647  -2311332.91046  23516600.8484   23516605.4704   23516600.368
        46.0004         41.0004
    899182.53048    764801.78947  22191781.5254   22191796.8654   22191782.638
        48.0004         43.0004
 -16743855.12949 -12998856.19447  21432775.9634   21432783.2774   21432775.992
        54.0004         47.0004
 15  1  1  1 34  0.0000000  0  9G19G03G27G22G31G16G08G14G32
  -6174374.81247  -4791462.59247  23233409.5834   23233425.6974   23233410.700
        47.0004         42.0004
  -3151063.22448  -2418764.75247  22784801.9734   22784811.2314   22784801.498
        48.0004         44.0004
   -831380.42459   -635932.64258  21205540.6185   21205550.5455   21205542.747
        58.0004         52.0004
  -2177006.58446  -1642992.35346  24151960.6484   24151968.2624   24151961.711
        41.0004         36.0004
  -2220895.92247  -1671000.12546  23828395.0144   23828402.1534   23828394.615
        47.0004         41.0004
 -20639966.10349 -16009804.49648  20643778.4024   20643783.7294   20643778.668
        55.0004         50.0004
  -2980057.53547  -2313991.57046  23515952.1844   23515956.0954   23515952.142
        46.0004         41.0004
    942164.57248    798294.20846  22199960.2704   22199974.5784   22199961.610
        48.0004         39.0004
 -16727050.94449 -12985761.52247  21435972.7524   21435979.3594   21435973.278
        54.0004         47.0004
 15  1  1  1 34 30.0000000  0  8G19G03G22G31G16G08G14G32
  -6271815.18647  -4867389.53146  23214866.9624   23214884.9944   23214867.393
        47.0004         41.0004
  -3187698.78548  -2447311.98847  22777830.2324   22777839.3674   22777830.340
        48.0004         44.0004
  -2084221.19946  -1570691.31546  24169620.1834   24169624.8544   24169619.332
        41.0004         37.0004
  -2211430.00747  -1663624.79546  23830195.9674   23830203.4934   23830194.712
        46.0004         41.0004
 -20602192.04949 -15980370.11948  20650966.7964   20650971.8354   20650966.719
        55.0004         51.0004
  -2983665.42247  -2316802.95846  23515263.6064   23515269.8934   23515264.381
        46.0004         41.0004
    985602.27248    832141.70547  22208227.2454   22208241.2224   22208227.012
        49.0004         47.0004
 -16709851.83249 -12972359.71948  21439246.0964   21439253.2864   21439246.550
        54.0004         50.0004
 15  1  1  1 35  0.0000000  0  9G19G03G27G22G31G16G08G14G32
  -7944661.84547                  23196327.8124                   23196328.096
        46.0004
  -3223878.32648  -2475503.86847  22770945.4754   22770953.9984   22770945.743
        49.0004         44.0004
   -959150.83948   -735489.32048  21181222.0724   21181232.7014   21181222.209
        53.0004         48.0004
  -1991531.82446  -1498465.24346  24187252.6084   24187261.0494   24187256.716
        41.0004         36.0004
  -2202105.93647  -1656360.06646  23831971.2164   23831979.0324   23831972.216
        46.0004         41.0004
 -20563968.37749 -15950585.38448  20658240.3104   20658245.5004   20658240.603
        55.0004         51.0004
  -2987456.49847  -2319757.08146  23514543.2394   23514548.8864   23514543.316
        46.0004         41.0004
   1029508.11747    866353.90746  22216581.4464   22216595.3704   22216582.265
        47.0004         41.0004
 -16692245.12149 -12958640.31248  21442596.6174   21442603.4974   21442597.418
        54.0004         49.0004
 15  1  1  1 35 30.0000000  0  9G19G03G27G22G31G16G08G14G32
                                                                  23177783.413

  -3259644.47248  -2503373.63347  22764139.2524   22764148.2994   22764138.933
        49.0004         44.0004
  -1022575.06849   -784909.05248  21169152.4914   21169161.3364   21169152.061
        54.0004         50.0004
 -22379442.40146 -17385148.19646  24204862.5544   24204872.0234   24204864.639
        41.0004         36.0004
  -2192965.28647  -1649238.40446  23833711.1304   23833717.8034   23833710.147
        46.0004         41.0004
 -20525340.34149 -15920485.57348  20665590.8684   20665596.1544   20665591.145
        55.0004         51.0004
  -2991473.95147  -2322887.58846  23513777.7154   23513783.2804   23513779.299
        46.0004         41.0004
   1073840.04347    900898.67846  22225018.0714   22225032.2044   22225018.123
        46.0004         41.0004
 -16674274.28849 -12944636.67248  21446015.8584   21446023.2824   21446016.420
        54.0004         51.0004
 15  1  1  1 36  0.0000000  0  9G19G03G27G22G31G16G08G14G32
  -8139556.03547                  23159238.6484                   23159238.972
        47.0004
  -3294966.56048  -2530897.37547  22757418.2134   22757426.1664   22757417.799
        48.0004         44.0004
  -1085673.91849   -834076.40947  21157144.3984   21157152.6514   21157144.150
        54.0004         47.0004
 -22287004.36347 -17313117.74346  24222453.7224   24222462.6904   24222454.149
        42.0004         38.0004
  -2183975.44047  -1642234.09547  23835422.7884   23835431.3064   23835422.287
        46.0004         42.0004
 -20486279.81549 -15890048.77148  20673023.6484   20673029.1664   20673023.999
        55.0004         50.0004
  -2995687.74247  -2326171.05546  23512976.8314   23512981.7274   23512978.278
        46.0004         41.0004
   1118627.27648    935797.91547  22233540.9464   22233554.0924   22233540.758
        48.0004         45.0004
 -16655910.97249 -12930327.10348  21449509.5534   21449516.5324   21449510.035
        54.0004         51.0004
 15  1  1  1 36 30.0000000  0  9G19G03G27G22G31G16G08G14G32
  -8236951.16347                  23140703.3664                   23140704.325
        47.0004
  -3329806.93348  -2558045.74947  22750788.3684   22750796.8274   22750787.728
        48.0004         43.0004
  -1148404.19949   -882956.58248  21145206.5424   21145215.4634   21145206.526
        54.0004         53.0004
 -22194643.15846 -17241147.82746  24240030.9064   24240037.6924   24240031.077
        41.0004         36.0004
  -2175098.20747  -1635317.46147  23837111.6854   23837119.4954   23837111.551
        46.0004         42.0004
 -20446751.79749 -15859247.70948  20680545.6244   20680550.8524   20680545.523
        55.0004         50.0004
  -3000060.86747  -2329578.71146  23512144.9444   23512150.8134   23512145.670
        46.0004         41.0004
   1163907.80048    971081.48347  22242158.1664   22242170.5494   22242157.332
        48.0004         44.0004
 -16637120.84249 -12915685.61048  21453085.5884   21453092.7584   21453086.007
        54.0004         49.0004
 15  1  1  1 37  0.0000000  0  9G19G03G27G22G31G16G08G14G32
  -8334381.90147                  23122167.5784                   23122163.644
        43.0004
  -3364249.00448  -2584883.75147  22744234.1544   22744242.1124   22744234.307
        48.0004         44.0004
  -1210846.52549   -931612.49348  21133324.2214   21133332.3414   21133323.994
        55.0004         51.0004
 -22102442.22347 -17169302.25246  24257577.4984   24257583.1884   24257577.202
        42.0004         38.0004
  -2166416.20047  -1628553.01246  23838764.5864   23838773.4654   23838763.679
        46.0004         41.0004
 -20406842.45749 -15828149.50848  20688140.4044   20688145.2754   20688140.163
        55.0004         50.0004
  -3004677.00147  -2333175.72146  23511266.0544   23511271.5824   23511264.936
        46.0004         41.0004
   1209597.35948   1006683.75947  22250851.6654   22250865.0824   22250851.414
        48.0004         45.0004
 -16617988.61349 -12900778.02947  21456726.7974   21456733.9084   21456727.124
        54.0004         47.0004
 15  1  1  1 37 30.0000000  0  9G19G03G27G22G31G16G08G14G32
  -8431783.68247                  23103626.0894                   23103626.329
        47.0004
  -3398236.58348  -2611367.61947  22737766.5964   22737774.4054   22737766.041
        48.0004         44.0004
  -1272942.32549   -979998.65747  21121508.5924   21121515.8804   21121507.679
        55.0004         44.0004
 -22010348.16447 -17097539.99246  24275100.0514   24275105.7064   24275102.269
        42.0004         37.0004
  -2157871.51847  -1621895.28547  23840390.6364   23840401.1264   23840390.265
        46.0004         43.0004
 -20366498.07749 -15796712.31648  20695817.2234   20695822.6374   20695817.284
        55.0004         50.0004
  -3009480.49847  -2336918.72246  23510351.8894   23510356.8394   23510352.827
        46.0004         41.0004
   1255752.06947   1042648.44347  22259635.2194   22259648.2704   22259635.950
        47.0004         45.0004
 -16598458.89649 -12885560.66148  21460443.6124   21460451.4184   21460444.093
        54.0004         49.0004
 15  1  1  1 38  0.0000000  0  9G19G03G27G22G31G16G08G14G32
  -8529170.98247  -6626362.19847  23085094.3794   23085106.1224   23085094.187
        47.0004         43.0004
  -3431780.94148  -2637506.11147  22731383.2314   22731390.8634   22731382.438
        48.0004         44.0004
  -1334700.73849  -1028122.56548  21109755.5324   21109765.1184   21109755.736
        54.0004         48.0004
 -21918374.15646 -17025871.41446  24292602.2444   24292604.4344   24292603.566
        41.0004         37.0004
  -2149475.42247  -1615353.66046  23841987.8464   23841999.6254   23841989.507
        46.0004         41.0004
 -20325732.37049 -15764946.81648  20703574.6754   20703580.1314   20703575.170
        55.0004         50.0004
  -3014482.91347  -2340816.75046  23509400.8504   23509405.6504   23509401.717
        46.0004         41.0004
   1302360.83947   1078967.00546  22268504.7204   22268517.2134   22268504.953
        47.0004         41.0004
 -16578544.69249 -12870043.82948  21464233.7854   21464240.6244   21464234.196
        54.0004         50.0004
 15  1  1  1 38 30.0000000  0  9G19G03G27G22G31G16G08G14G32
  -8626526.03747                  23066567.1864                   23066569.068
        46.0004
  -3464871.53548  -2663290.99747  22725086.9184   22725095.7004   22725086.153
        49.0004         45.0004
  -1396106.17148  -1075971.23147  21098070.6854   21098082.0194   21098070.390
        53.0004         46.0004
                 -16954289.88745                  24310084.3164   24310081.284
                        35.0004
  -2141214.05147  -1608916.49447  23843561.1364   23843571.3164   23843560.420
        46.0004         42.0004
 -20284537.38349 -15732846.81148  20711413.8954   20711419.0974   20711414.752
        55.0004         50.0004
  -3019674.43947  -2344862.11346  23508411.3294   23508419.1574   23508411.891
        46.0004         41.0004
   1349433.46748   1115647.26646  22277462.1354   22277475.7314   22277461.644
        48.0004         41.0004
 -16558236.09449 -12854219.19748  21468098.6964   21468105.9324   21468098.940
        54.0004         49.0004
 15  1  1  1 39  0.0000000  0  9G19G03G27G22G31G16G08G14G32
  -8723846.68157                  23048042.7415                   23048046.457
        44.0004
  -3497510.87548  -2688724.26247  22718875.0954   22718882.4374   22718874.433
        49.0004         44.0004
  -1457159.39248                  21086453.2334                   21086453.277
        53.0004
 -21734764.24146 -16882797.51446  24327541.3014   24327546.0234   24327541.567
        41.0004         38.0004
  -2133090.28047  -1602586.68147  23845108.3574   23845116.5704   23845107.878
        46.0004         42.0004
 -20242918.34649 -15700416.37248  20719333.5454   20719339.3094   20719333.721
        55.0004         50.0004
  -3025057.70847  -2349056.84246  23507388.1944   23507393.7824   23507388.986
        46.0004         41.0004
   1396967.71848   1152687.38247  22286507.4874   22286520.8284   22286507.788
        49.0004         45.0004
 -16537538.26449 -12838091.24948  21472037.2464   21472045.1264   21472037.879
        54.0004         49.0004
 15  1  1  1 39 30.0000000  0  9G19G03G27G22G31G16G08G14G32
                                                                  23029529.241

  -3529718.96248  -2713821.49447  22712746.5524   22712754.6554   22712745.911
        49.0004         45.0004
  -1517874.69649  -1170855.01648  21074899.3304   21074908.5384   21074899.280
        54.0004         49.0004
 -21643154.86546 -16811412.98545  24344973.8874   24344979.7944   24344974.324
        40.0004         35.0004
  -2125122.81147  -1596378.67146  23846623.7474   23846632.7904   23846623.933
        46.0004         41.0004
 -20200897.85749 -15667673.11648  20727329.8674   20727335.2684   20727330.233
        54.0004         50.0004
  -3030653.10547  -2353416.88146  23506324.0814   23506328.9154   23506323.553
        46.0004         41.0004
   1444942.19648   1190070.19947  22295637.0644   22295648.7794   22295636.684
        48.0004         43.0004
 -16516472.36349 -12821676.28348  21476046.2834   21476053.5784   21476046.986
        54.0004         49.0004
 15  1  1  1 40  0.0000000  0  9G19G03G27G22G31G16G08G14G32
  -8918434.83647                  23011014.5724                   23011016.540
        43.0004
  -3561492.39248  -2738580.01447  22706700.4164   22706706.9444   22706700.042
        49.0004         44.0004
  -1578251.44349                  21063410.7474                   21063410.869
        54.0004
 -21551681.36346 -16740134.32546  24362381.0554   24362386.1874   24362380.193
        41.0004         36.0004
  -2117306.16247  -1590287.78947  23848111.6234   23848120.8104   23848111.444
        46.0004         42.0004
 -20158474.81949 -15634616.18348  20735402.9644   20735407.8754   20735402.677
        54.0004         50.0004
  -3036457.58847  -2357939.86946  23505218.5944   23505224.3444   23505218.650
        46.0004         41.0004
   1493360.23748   1227798.56547  22304849.5454   22304862.3434   22304850.282
        49.0004         43.0004
 -16495037.73049 -12804974.32648  21480125.3414   21480133.0834   21480126.387
        54.0004         49.0004
 15  1  1  1 40 30.0000000  0  8G19G03G22G31G16G08G14G32
  -9015689.49847                  22992504.7354                   22992505.108
        45.0004
  -3592829.88748  -2762998.81947  22700736.5374   22700746.1314   22700736.616
        49.0004         44.0004
 -21460343.82946 -16668961.74946  24379760.9004   24379766.6144   24379762.820
        40.0004         36.0004
  -2109638.44547  -1584313.07147  23849571.1114   23849580.5464   23849570.142
        46.0004         42.0004
 -20115650.85749 -15601246.84148  20743551.7614   20743556.6924   20743551.978
        54.0004         49.0004
  -3042470.05847  -2362624.92946  23504074.7594   23504079.5084   23504074.335
        46.0004         41.0004
   1542221.91348   1265871.98047  22314147.1824   22314161.7984   22314149.027
        49.0004         43.0004
 -16473233.75949 -12787984.44148  21484274.2854   21484282.1284   21484274.983
        54.0004         50.0004
 15  1  1  1 41  0.0000000  0  9G19G03G27G22G31G16G08G14G32
  -9112903.02047                  22974004.7314                   22974005.275
        44.0004
  -3623715.35648  -2787065.44847  22694858.9144   22694867.5304   22694857.498
        49.0004         44.0004
  -1697941.77449  -1311168.88748  21040634.5374   21040643.1714   21040634.430
        54.0004         53.0004
 -21369128.34346 -16597884.18446  24397116.0824   24397123.2194   24397118.572
        40.0004         36.0004
  -2102102.82647  -1578441.52347  23851005.4194   23851014.4504   23851006.739
        46.0004         42.0004
 -20072412.36449 -15567554.49848  20751779.8794   20751784.9764   20751780.241
        54.0004         50.0004
  -3048674.58847  -2367459.67746  23502894.4644   23502898.6664   23502894.459
        46.0004         41.0004
   1591544.74248   1304305.06547  22323534.2994   22323546.8644   22323534.745
        48.0004         44.0004
 -16451045.50849 -12770694.73448  21488496.5784   21488504.3354   21488496.661
        54.0004         49.0004
 15  1  1  1 41 30.0000000  0  9G19G03G27G22G31G16G08G14G32
  -9210083.16247                  22955510.5164                   22955511.147
        42.0004
  -3654160.29948  -2810788.78447  22689065.6604   22689074.7514   22689065.837
        48.0004         44.0004
  -1757247.33249  -1357381.09649  21029348.9534   21029358.2394   21029348.638
        55.0004         54.0004
 -21278048.04246 -16526912.16145  24414451.5224   24414455.2284   24414449.944
        39.0004         35.0004
  -2094709.03747  -1572680.49946  23852412.3924   23852422.5914   23852412.595
        46.0004         41.0004
 -20028773.34049 -15533550.06048  20760084.5824   20760089.4434   20760085.137
        54.0004         50.0004
  -3055082.99147  -2372453.23246  23501672.4004   23501678.9754   23501673.167
        46.0004         41.0004
     65897.12347    115490.01247  22333005.1564   22333019.1394   22333004.986
        47.0004         44.0004
 -16428486.78849 -12753116.27748  21492789.3794   21492796.7554   21492790.045
        54.0004         49.0004
 15  1  1  1 42  0.0000000  0  8G19G03G22G31G16G08G14G32
  -9307225.70049                  22937024.2334                   22937024.108
        56.0004
  -3684167.45048  -2834170.98547  22683356.5144   22683364.8704   22683355.186
        49.0004         44.0004
 -21187107.09046 -16456048.46845  24431753.3834   24431760.2554   24431753.043
        39.0004         34.0004
  -2087458.01247  -1567030.58347  23853792.6264   23853802.5944   23853791.828
        47.0004         43.0004
 -19984739.01449 -15499237.57848  20768463.3824   20768468.8624   20768463.717
        54.0004         50.0004
  -3061698.26847  -2377608.01747  23500416.0164   23500420.9154   23500416.374
        46.0004         42.0004
    116115.12147    154621.08946  22342560.7444   22342573.6804   22342561.754
        47.0004         40.0004
 -16405562.87149 -12735253.65948  21497151.7544   21497158.6534   21497152.374
        54.0004         49.0004
 15  1  1  1 42 30.0000000  0  8G03G27G22G31G16G08G14G32
  -3713736.82948  -2857212.06647  22677729.1074   22677736.8804   22677728.750
        49.0004         44.0004
   -418625.47949   -321651.90248  21006981.7354   21006991.4044   21006981.631
        55.0004         50.0004
                 -16385294.61545                  24449040.7674   24449034.368
                        34.0004
  -2080348.14847  -1561490.42647  23855145.3274   23855155.1084   23855144.798
        47.0004         43.0004
 -19940311.39949 -15464618.58748  20776917.5674   20776922.8914   20776918.033
        54.0004         50.0004
  -3068520.51547  -2382924.07146  23499118.4884   23499121.3444   23499118.102
        46.0004         41.0004
    166776.97748    194097.60447  22352200.7184   22352216.1394   22352202.705
        48.0004         42.0004
 -16382275.32249 -12717108.00748  21501583.9714   21501591.1934   21501584.676
        54.0004         50.0004
 15  1  1  1 43  0.0000000  0  8G19G03G22G31G16G08G14G32
   -429001.45948   -328516.69446  22900077.7804   22900085.9154   22900077.528
        53.0004         40.0004
  -3742858.55148  -2879904.31747  22672187.9774   22672195.7504   22672186.797
        49.0004         44.0004
 -21005639.16046 -16314643.98345  24466285.9914   24466288.2254   24466286.743
        39.0004         34.0004
  -2073368.67247  -1556051.98647  23856475.4124   23856485.5424   23856473.929
        47.0004         43.0004
 -19895483.64849 -15429687.77848  20785448.2224   20785453.3824   20785448.695
        54.0004         50.0004
  -3075539.87847  -2388393.67246  23497782.6004   23497786.9224   23497781.379
        46.0004         41.0004
    217895.66648    233930.36447  22361928.6184   22361942.9944   22361929.687
        49.0004         42.0004
 -16358615.13649 -12698672.02548  21506086.5604   21506094.3184   21506086.931
        54.0004         48.0004
 15  1  1  1 43 30.0000000  0  8G03G27G22G31G16G08G14G32
  -3771543.88948  -2902256.50147  22666728.3174   22666737.5484   22666727.419
        48.0004         44.0004
   -307813.70349   -224583.64748  20984895.9784   20984905.3974   20984895.427
        57.0004         50.0004
 -20915116.63846 -16244106.39645  24483509.9644   24483513.6634   24483511.347
        39.0004         34.0004
  -2066529.10147  -1550722.66647  23857775.2264   23857786.3984   23857774.269
        47.0004         43.0004
 -19850269.32749 -15394455.68548  20794052.2924   20794057.0444   20794052.492
        55.0004         50.0004
  -3082767.59647  -2394025.64946  23496406.2564   23496412.2304   23496407.572
        46.0004         41.0004
    269458.00248    274109.26947  22371741.1234   22371755.2474   22371742.209
        48.0004         44.0004
 -16334594.48549 -12679954.76548  21510657.3414   21510665.0544   21510657.910
        54.0004         50.0004
 15  1  1  1 44  0.0000000  0  9G19G03G27G22G31G16G08G14G32
   -622972.11457                  22863168.8215                   22863169.510
        47.0004
  -3799790.93148  -2924267.16447  22661353.5274   22661360.7664   22661352.937
        48.0004         43.0004
   -365292.90349                  20973957.8474                   20973956.890
        55.0004
 -20824739.38446 -16173682.08445  24500709.5434   24500713.1434   24500709.408
        39.0004         35.0004
  -2059826.95047  -1545500.72447  23859050.9994   23859062.0904   23859051.382
        47.0004         42.0004
 -19804668.93149 -15358922.63748  20802729.3384   20802734.1784   20802729.521
        55.0004         50.0004
  -3090201.87747  -2399818.56946  23494991.2894   23494995.2744   23494991.899
        46.0004         41.0004
    321464.72247    314634.14547  22381638.5164   22381652.4364   22381637.954
        46.0004         42.0004
 -16310213.61549 -12660956.75948  21515296.8714   21515305.0964   21515297.631
        54.0004         50.0004
 15  1  1  1 44 30.0000000  0  9G19G03G27G22G31G16G08G14G32
   -719887.21747                  22844729.2134                   22844729.038
        45.0004
  -3827604.64548  -2945940.17647  22656060.0944   22656067.9004   22656060.384
        48.0004         44.0004
   -422404.70849   -313872.28148  20963088.6854   20963096.8904   20963088.639
        55.0004         52.0004
 -20734513.88246 -16103376.11345  24517878.8184   24517882.0844   24517879.457
        39.0004         34.0004
  -2053264.79747  -1540387.72646  23860300.8264   23860312.3744   23860299.316
        47.0004         40.0004
 -19758690.19549 -15323094.91648  20811478.8424   20811483.6324   20811478.833
        55.0004         50.0004
  -3097847.53447  -2405776.21646  23493536.3254   23493542.1124   23493537.218
        46.0004         41.0004
    373911.73647    355502.25447  22391617.3274   22391631.3044   22391617.697
        47.0004         42.0004
 -16285478.64749 -12641682.46148  21520003.9784   21520012.1854   21520004.549
        54.0004         49.0004
 15  1  1  1 45  0.0000000  0  9G19G03G27G22G31G16G08G14G32
   -816739.69247                  22826299.4274                   22826299.934
        44.0004
  -3854975.62348  -2967268.19547  22650852.5284   22650859.7124   22650851.636
        49.0004         44.0004
   -479137.69459   -358080.05557  20952296.3315   20952299.6515   20952292.877
        55.0004         45.0004
 -20644431.57646 -16033181.66645  24535018.1834   24535021.8664   24535019.901
        39.0004         34.0004
  -2046831.86047  -1535375.48247  23861525.5954   23861534.6764   23861525.806
        47.0004         43.0004
 -19712326.43349 -15286967.32648  20820301.7004   20820306.2894   20820301.787
        55.0004         50.0004
  -3105695.24547  -2411891.29346  23492043.7344   23492048.4564   23492044.516
        46.0004         41.0004
    426806.63947    396719.28946  22401683.4374   22401697.1554   22401683.652
        47.0004         40.0004
 -16260383.34349 -12622127.93748  21524779.4724   21524787.5104   21524780.262
        54.0004         49.0004
 15  1  1  1 45 30.0000000  0 10G19G03G04G27G22G31G16G08G14G32
   -913518.52847                  22807892.4694                   22807887.921
        44.0004
  -3881892.82248  -2988242.63847  22645730.2074   22645737.4444   22645729.570
        49.0004         44.0004
                   -203214.63955                  24746749.9345   24746737.583
                        32.0004
   -535475.58749                  20941573.0344                   20941573.021
        54.0004
 -20554482.92346 -15963091.31545  24552134.9264   24552139.7484   24552134.748
        39.0004         34.0004
  -2040514.82147  -1530453.54047  23862726.9294   23862736.5114   23862727.392
        47.0004         42.0004
 -19665568.51849 -15250532.58148  20829199.3354   20829203.8264   20829199.586
        55.0004         50.0004
  -3113733.67447  -2418155.02646  23490513.4714   23490518.9934   23490512.748
        46.0004         41.0004
    480160.86847    438293.93446  22411837.1894   22411848.7764   22411836.887
        46.0004         41.0004
 -16234917.25749 -12602284.53548  21529625.8954   21529633.5924   21529626.336
        54.0004         49.0004
 15  1  1  1 46  0.0000000  0  9G19G03G27G22G31G16G08G14G32
                                                                  22789481.532

  -3908385.88148  -3008886.55147  22640688.5464   22640696.3874   22640687.979
        49.0004         44.0004
   -202313.88749   -129430.46948  20930921.9814   20930930.6054   20930922.060
        57.0004         49.0004
 -20464699.07046 -15893129.20745  24569221.2634   24569224.1624   24569221.103
        38.0004         34.0004
  -2034342.08947  -1525643.83747  23863900.9674   23863911.8654   23863901.079
        47.0004         43.0004
 -19618448.67849 -15213815.82748  20838165.8704   20838170.9694   20838165.806
        55.0004         50.0004
  -3121992.37847  -2424590.39946  23488941.9894   23488947.3214   23488941.687
        46.0004         41.0004
    533944.73047    480203.61846  22422070.3974   22422083.0804   22422070.958
        47.0004         41.0004
 -16209111.09749 -12582175.93148  21534536.1714   21534544.5704   21534536.775
        54.0004         49.0004
 15  1  1  1 46 30.0000000  0  9G19G03G27G22G31G16G08G14G32
  -1106892.26147   -856755.98047  22771088.5324   22771100.7524   22771089.946
        47.0004         45.0004
  -3934434.70548  -3029184.31647  22635730.0784   22635739.9634   22635730.592
        49.0004         44.0004
   -257886.59359                  20920346.1675                   20920345.527
        54.0004
                 -15823281.94945                  24586281.3174   24586278.496
                        32.0004
  -2028293.03047  -1520930.93046  23865053.4314   23865064.4484   23865054.773
        47.0004         41.0004
 -19570949.23349 -15176803.27748  20847204.7724   20847209.5244   20847204.829
        55.0004         50.0004
  -3130451.37147  -2431181.77446  23487332.7504   23487338.0724   23487333.947
        46.0004         41.0004
    588178.28347    522463.74547  22432391.4594   22432403.7724   22432391.780
        47.0004         44.0004
 -16182946.79349 -12561788.23948  21539515.7524   21539523.4704   21539516.236
        54.0004         49.0004
 15  1  1  1 47  0.0000000  0  9G19G03G27G22G31G16G08G14G32
  -1203477.23147   -932015.32147  22752706.5674   22752718.5934   22752707.345
        46.0004         43.0004
  -3960056.76648  -3049149.52347  22630854.4424   22630861.8454   22630855.146
        48.0004         43.0004
   -140621.65349    -86035.49149  20909840.8354   20909849.5804   20909841.424
        57.0004         54.0004
 -20285588.92956 -15753562.01945  24603302.5865   24603303.9984   24603303.778
        37.0004         32.0004
  -2022382.05047  -1516325.45946  23866179.2974   23866189.0154   23866177.722
        47.0004         41.0004
 -19523089.88849 -15139510.28848  20856312.0814   20856316.8704   20856312.357
        54.0004         49.0004
  -3139127.85947  -2437942.68146  23485680.5004   23485686.5964   23485682.185
        46.0004         41.0004
    642842.98748    565059.72847  22442793.3774   22442806.3824   22442794.405
        48.0004         43.0004
 -16156443.67249 -12541136.71548  21544558.7264   21544567.0514   21544558.904
        54.0004         49.0004
 15  1  1  1 47 30.0000000  0  9G19G03G27G22G31G16G08G14G32
  -1299995.64547                  22734338.7574                   22734339.681
        45.0004
  -3985242.72248  -3068774.93147  22626063.4624   22626071.6854   22626062.523
        48.0004         44.0004
   -195430.86349                  20899410.7354                   20899410.784
        55.0004
 -20196273.00446 -15683964.84845  24620297.9944   24620301.1864   24620299.715
        37.0004         34.0004
  -2016598.36547  -1511819.22047  23867279.0934   23867288.8234   23867278.659
        47.0004         42.0004
 -19474863.96749 -15101931.67848  20865489.4334   20865493.7884   20865489.525
        54.0004         50.0004
  -3148012.20547  -2444865.53846  23483990.5864   23483995.0914   23483989.632
        46.0004         41.0004
    697947.65648    607998.23447  22453279.8484   22453292.1674   22453279.936
        48.0004         44.0004
 -16129593.40248 -12520214.57048  21549668.4514   21549676.6004   21549668.815
        53.0004         49.0004
 15  1  1  1 48  0.0000000  0  8G19G03G27G31G16G08G14G32
                                                                  22715998.765

  -4009962.96948  -3088037.44347  22621357.9984   22621366.7424   22621357.698
        48.0004         44.0004
   -249818.51849   -171126.01148  20889060.4974   20889067.8634   20889060.472
        55.0004         53.0004
  -2010910.68147  -1507387.86947  23868363.2294   23868374.2714   23868363.060
        47.0004         43.0004
 -19426244.16249 -15064046.13748  20874741.2004   20874746.2074   20874740.961
        54.0004         50.0004
  -3157074.62447  -2451927.17146  23482265.2264   23482271.3574   23482265.699
        46.0004         41.0004
    753521.96247    651302.53947  22463854.9104   22463868.5494   22463856.153
        47.0004         45.0004
 -16102367.80548 -12498999.83548  21554849.2324   21554857.1394   21554849.883
        53.0004         49.0004
 15  1  1  1 48 30.0000000  0  8G19G03G27G31G16G08G14G32
                                                                  22697651.693

  -4034277.02448  -3106983.45947  22616732.9254   22616739.8724   22616731.360
        49.0004         44.0004
   -303839.22549   -213219.42648  20878779.9994   20878790.5914   20878779.988
        55.0004         50.0004
  -2005376.80547  -1503076.40047  23869417.3734   23869425.9104   23869415.277
        46.0004         42.0004
 -19377292.28549 -15025901.85848  20884056.4124   20884061.3834   20884056.590
        54.0004         50.0004
  -3166374.25447  -2459173.64147  23480497.2424   23480502.0794   23480497.106
        46.0004         42.0004
    809505.73047    694925.65947  22474510.4154   22474521.9234   22474510.600
        46.0004         42.0004
 -16074828.11048 -12477540.31348  21560089.6414   21560098.0774   21560090.173
        53.0004         49.0004
 15  1  1  1 49  0.0000000  0  8G19G03G27G31G16G08G14G32
                                                                  22679333.182

  -4058123.78848  -3125565.33647  22612193.8264   22612202.5354   22612194.083
        48.0004         44.0004
  -1932857.37449                  20868581.6244                   20868582.192
        54.0004
  -1999933.27847  -1498835.08447  23870451.9374   23870463.8824   23870451.616
        47.0004         42.0004
 -19327949.58949 -14987453.01848  20893446.0114   20893451.0764   20893446.076
        54.0004         50.0004
  -3175849.70047  -2466557.13046  23478694.2154   23478698.5374   23478694.396
        46.0004         41.0004
    865960.55347    738916.01346  22485253.5854   22485268.0934   22485253.494
        45.0004         40.0004
 -16046914.80148 -12455789.67148  21565402.0634   21565409.8614   21565402.463
        53.0004         49.0004
 15  1  1  1 49 30.0000000  0  8G19G03G27G31G16G08G14G32
  -1578030.13349                  22661026.9954                   22661027.773
        57.0004
  -4081559.87448  -3143827.20547  22607734.1174   22607741.5334   22607732.905
        48.0004         43.0004
  -1986073.46149  -1524052.76048  20858455.9784   20858463.4624   20858456.109
        54.0004         52.0004
  -1994634.11347  -1494705.65047  23871459.9644   23871470.7054   23871459.227
        47.0004         42.0004
 -19278275.23949 -14948745.74448  20902898.8194   20902903.8534   20902899.275
        54.0004         50.0004
  -3185557.24047  -2474121.46746  23476845.6364   23476849.8654   23476844.787
        46.0004         41.0004
    922829.12747                  22496073.1924                   22496074.828
        45.0004
 -16018686.05848 -12433793.23348  21570773.3344   21570781.2244   21570774.030
        53.0004         49.0004
 15  1  1  1 50  0.0000000  0  8G19G03G27G31G16G08G14G32
  -1674132.42449  -1188152.16047  22642736.5414   22642747.9174   22642737.222
        57.0004         42.0004
  -4104560.78548  -3161749.98847  22603357.6114   22603365.0004   22603356.551
        48.0004         44.0004
  -2038887.92148  -1565208.97247  20848407.8574   20848414.9764   20848407.502
        53.0004         43.0004
 -25620752.11847 -19904666.81246  23872446.6724   23872460.5924   23872445.390
        46.0004         41.0004
 -19228246.80449 -14909762.57548  20912418.8864   20912423.8534   20912419.265
        54.0004         50.0004
  -3195471.95547  -2481847.22447  23474959.0484   23474966.4244   23474959.308
        46.0004         42.0004
    980135.78847    827882.81547  22506981.0474   22506992.7114   22506981.191
        46.0004         42.0004
 -15990118.85749 -12411533.05448  21576209.7624   21576217.9034   21576210.448
        54.0004         49.0004
 15  1  1  1 50 30.0000000  0  8G19G03G27G31G16G08G14G32
  -1770138.61648                  22624466.8324                   22624468.854
        52.0004
  -4127119.31948  -3179328.05847  22599064.9374   22599072.0544   22599064.682
        48.0004         44.0004
  -2091284.45349                  20838437.2554                   20838436.462
        55.0004
  -1482473.36049  -1153193.97146  23873411.5784   23873425.0644   23873409.595
        54.0004         40.0004
 -19177858.87049 -14870498.89348  20922007.1324   20922012.0534   20922007.431
        54.0004         50.0004
  -3205586.33947  -2489728.58046  23473034.8284   23473039.8754   23473034.658
        46.0004         41.0004
   1037887.42147    872883.81547  22517969.4474   22517983.2684   22517969.197
        47.0004         44.0004
 -15961207.37949 -12389004.62248  21581711.4724   21581719.1284   21581711.950
        54.0004         49.0004
 15  1  1  1 51  0.0000000  0  7G19G03G04G16G08G14G32
  -1866030.38948                  22606222.7934                   22606223.650
        48.0004
  -4149218.20848  -3196547.96747  22594860.3644   22594867.7724   22594858.569
        48.0004         44.0004
                                                                  24714072.024

 -19127096.59349 -14830943.33848  20931666.3124   20931671.3544   20931666.701
        54.0004         49.0004
  -3215882.58547  -2497751.62646  23471073.8254   23471080.6084   23471074.418
        46.0004         41.0004
   -479319.71247   -309356.18647  22529047.3354   22529062.0214   22529047.582
        47.0004         45.0004
 -15931935.91648 -12366195.69048  21587281.4604   21587289.2614   21587281.994
        53.0004         49.0004
 15  1  1  1 51 30.0000000  0  9G19G03G04G27G31G16G08G14G32
                                                                  22587981.922

  -4170953.41748  -3213484.48447  22590723.2724   22590731.3114   22590722.375
        48.0004         44.0004
                                                                  24710793.403

  -1487810.19849  -1155453.73348  20818726.3734   20818734.3154   20818726.234
        56.0004         50.0004
  -1428634.99649  -1110187.01747  23875269.4224   23875281.4834   23875268.775
        54.0004         44.0004
 -19076058.97249 -14791173.39948  20941378.0984   20941382.8264   20941378.460
        54.0004         50.0004
  -3226456.11947  -2505990.74546  23469063.3344   23469068.2374   23469063.861
        46.0004         41.0004
   -420740.96547   -263710.78046  22540196.2634   22540208.5304   22540194.950
        47.0004         38.0004
 -15902401.82449 -12343182.10348  21592901.2244   21592909.6484   21592901.635
        54.0004         49.0004
 15  1  1  1 52  0.0000000  0  9G19G03G04G27G31G16G08G14G32
  -2057591.35447                  22569772.3644                   22569773.957
        46.0004
  -4192192.07048  -3230034.09447  22586681.7194   22586690.2034   22586680.895
        48.0004         44.0004
                                                                  24707475.390

  -1538947.42049  -1195301.74848  20808995.1004   20809003.6474   20808995.036
        54.0004         48.0004
  -1423890.28248  -1106489.14547  23876172.2414   23876182.2664   23876171.740
        50.0004         43.0004
 -19024615.61749 -14751087.56648  20951167.4904   20951172.2594   20951167.697
        54.0004         51.0004
  -3237173.78447  -2514342.19546  23467023.4104   23467028.8704   23467024.400
        46.0004         41.0004
   -361664.00148   -217677.41047  22551437.7714   22551451.3384   22551438.528
        48.0004         45.0004
 -15872473.77649 -12319861.54948  21598596.8434   21598604.7864   21598597.402
        54.0004         49.0004
 15  1  1  1 52 30.0000000  0  9G19G03G04G27G31G16G08G14G32
  -2153236.28147                  22551575.0434                   22551575.044
        45.0004
  -4213046.33648  -3246284.19947  22582712.8434   22582721.2134   22582711.694
        48.0004         44.0004
                                                                  24704100.544

  -1589716.35849  -1234861.59047  20799335.8884   20799343.1254   20799333.162
        54.0004         45.0004
  -1419306.82747  -1102917.63446  23877044.0214   23877055.1834   23877043.138
        47.0004         40.0004
 -18972881.15849 -14710775.12548  20961011.9504   20961016.6984   20961012.728
        54.0004         50.0004
  -3248147.07847  -2522892.84246  23464935.0764   23464940.9804   23464935.901
        46.0004         41.0004
   -302202.07548   -171344.12647  22562753.8784   22562768.9534   22562754.017
        49.0004         42.0004
 -15842265.37049 -12296322.53648  21604345.0314   21604353.2064   21604345.194
        54.0004         49.0004
 15  1  1  1 53  0.0000000  0  8G19G03G04G27G16G08G14G32
  -1368464.25149  -1046438.03356  22533400.4344   22533406.6665   22533400.061
        57.0004         40.0004
  -4233451.07048  -3262184.00847  22578830.8114   22578837.9774   22578829.571
        49.0004         44.0004
  -1425862.82558  -1092938.80855  24700677.7155   24700692.9685   24700678.953
        50.0004         35.0004
  -1640048.52148  -1274082.38848  20789755.6624   20789765.0454   20789755.288
        53.0004         51.0004
 -18920792.44449 -14670186.87648  20970924.9424   20970929.6724   20970924.854
        54.0004         50.0004
  -3259310.04547  -2531591.32647  23462810.4894   23462818.1164   23462811.859
        46.0004         42.0004
   -242289.41147   -124659.71846  22574155.1634   22574168.1534   22574154.878
        47.0004         40.0004
 -15811712.79349 -12272515.33948  21610159.2734   21610167.4584   21610159.547
        54.0004         49.0004
 15  1  1  1 53 30.0000000  0  9G19G03G04G27G31G16G08G14G32
  -1463877.72658                  22515242.5715                   22515243.131
        52.0004
  -4253433.80848  -3277754.98947  22575027.3704   22575036.4754   22575027.294
        49.0004         44.0004
  -1444125.76747  -1107169.59246  24697202.2234   24697219.1494   24697202.147
        45.0004         36.0004
  -1689963.97949  -1312976.41548  20780256.0394   20780264.4844   20780256.292
        54.0004         51.0004
  -1410443.69447  -1096011.23746  23878731.8424   23878743.7154   23878730.721
        45.0004         40.0004
 -18868378.36449 -14629344.90448  20980899.3354   20980903.5034   20980899.742
        54.0004         50.0004
  -3270689.90847  -2540458.81546  23460644.4374   23460650.5244   23460645.174
        46.0004         41.0004
   -181954.30047    -77646.15747  22585637.5864   22585651.6774   22585637.460
        47.0004         44.0004
 -15780845.07248 -12248462.57848  21616032.9424   21616041.2754   21616033.819
        53.0004         49.0004
 15  1  1  1 54  0.0000000  0  9G19G03G04G27G31G16G08G14G32
  -1559169.98249                  22497108.9914                   22497109.687
        54.0004
  -4272978.88948  -3292984.91147  22571308.7364   22571316.5594   22571308.501
        49.0004         44.0004
  -1462647.49747  -1121602.03046  24693677.7404   24693694.4524   24693677.763
        42.0004         36.0004
  -1739445.84249  -1351532.22348  20770838.9504   20770847.4274   20770838.753
        54.0004         50.0004
  -1277104.30549                  23879543.6274                   23879544.460
        57.0004
 -18815625.88249 -14588239.13548  20990937.8424   20990941.9374   20990937.731
        54.0004         50.0004
  -3282270.15547  -2549482.44246  23458441.4934   23458447.5984   23458443.020
        46.0004         41.0004
   -121181.29447    -30291.47046  22597201.7614   22597217.3964   22597202.439
        46.0004         37.0004
 -15749647.89848 -12224153.09148  21621969.4004   21621978.1694   21621970.127
        53.0004         49.0004
 15  1  1  1 54 30.0000000  0  9G19G03G04G27G31G16G08G14G32
  -1654343.37448  -1134935.96947  22478998.9214   22479009.0434   22478999.633
        50.0004         46.0004
  -4292092.65948  -3307878.76547  22567671.7614   22567679.7174   22567670.682
        49.0004         44.0004
  -1481433.57646  -1136240.52446  24690101.3354   24690117.0874   24690102.607
        41.0004         36.0004
  -1788500.61149  -1389756.28748  20761503.7254   20761512.0474   20761503.728
        55.0004         50.0004
  -1272938.99548   -988472.78047  23880336.0004   23880346.9894   23880335.113
        52.0004         44.0004
 -18762543.09849 -14546875.66448  21001038.4354   21001043.7354   21001038.349
        54.0004         50.0004
  -3294056.56947  -2558666.76246  23456199.8744   23456205.0464   23456200.014
        46.0004         41.0004
    -59976.55747     17399.84446  22608849.9774   22608864.3324   22608849.452
        44.0004         40.0004
 -15718129.17148 -12199593.05048  21627967.6794   21627975.9184   21627967.553
        53.0004         49.0004
 15  1  1  1 55  0.0000000  0  8G19G03G04G31G16G08G14G32
  -1749367.11947  -1208983.76446  22460915.1604   22460927.4764   22460915.428
        47.0004         38.0004
  -4310751.13348  -3322417.83547  22564120.7304   22564128.5454   22564119.991
        49.0004         45.0004
  -1500459.94746  -1151066.17846  24686483.8214   24686499.6304   24686483.604
        41.0004         37.0004
                                                                  23881115.502

 -18709108.92649 -14505238.54948  21011206.7814   21011211.7714   21011207.178
        54.0004         49.0004
  -3306024.49347  -2567992.48346  23453920.8754   23453927.4534   23453920.700
        46.0004         41.0004
      1683.26247     65445.87447  22620583.8854   22620598.7214   22620583.707
        45.0004         42.0004
 -15686266.18648 -12174764.75548  21634030.5904   21634039.5574   21634031.215
        53.0004         49.0004
 15  1  1  1 55 30.0000000  0  8G03G04G27G31G16G08G14G32
  -4329027.36348  -3336659.05247  22560641.9014   22560651.6884   22560641.412
        49.0004         45.0004
  -1519798.88746  -1166135.39546  24682803.4224   24682819.0184   24682803.079
        41.0004         37.0004
  -1252314.05649   -968569.88348  20743082.3644   20743090.5414   20743082.175
        56.0004         49.0004
                                                                  23881863.219

 -18655398.38349 -14463385.98948  21021427.7204   21021431.7964   21021428.421
        54.0004         49.0004
  -3318246.04147  -2577515.85746  23451597.7774   23451602.2584   23451597.040
        46.0004         41.0004
     63724.54647    113789.01947  22632391.0904   22632405.7684   22632390.510
        46.0004         44.0004
 -15654133.33948 -12149726.18348  21640145.3094   21640153.6624   21640145.845
        53.0004         49.0004
 15  1  1  1 56  0.0000000  0  9G19G03G04G27G31G16G08G14G32
  -1939131.19348                  22424801.2504                   22424802.301
        49.0004
  -4346865.91048  -3350559.23147  22557248.7974   22557257.0284   22557247.812
        49.0004         45.0004
  -1539394.51346  -1181404.64646  24679073.2814   24679090.4774   24679073.793
        41.0004         37.0004
  -1300077.59249  -1005787.30448  20733992.4174   20734000.4374   20733991.688
        55.0004         49.0004
  -1211978.29748   -942535.12647  23882595.0414   23882606.8544   23882595.989
        48.0004         43.0004
 -18601358.20749 -14421276.51648  21031710.6014   21031715.3644   21031710.590
        54.0004         50.0004
  -3330664.94747  -2587192.98646  23449232.3564   23449239.1034   23449233.129
        46.0004         41.0004
    126202.74148    162472.68547  22644280.0894   22644294.6874   22644280.529
        48.0004         44.0004
 -15621676.64348 -12124435.26048  21646321.4934   21646330.0934   21646322.049
        53.0004         49.0004
 15  1  1  1 56 30.0000000  0  9G19G03G04G27G31G16G08G14G32
  -2033791.84448                  22406788.3454                   22406789.008
        49.0004
  -4364252.29848  -3364107.06947  22553939.9264   22553946.6764   22553938.976
        49.0004         44.0004
  -1559231.80546  -1196862.23246  24675299.7444   24675314.1534   24675298.836
        41.0004         36.0004
  -1158989.16349   -889934.02448  20724990.6944   20724996.5564   20724990.802
        58.0004         53.0004
  -1208207.17647   -939596.72147  23883313.2574   23883325.3624   23883313.573
        47.0004         43.0004
 -18546976.72148 -14378901.40348  21042058.9264   21042063.7474   21042059.461
        53.0004         48.0004
  -3343265.93647  -2597012.03546  23446835.5814   23446840.4414   23446835.822
        46.0004         41.0004
    189131.92547    211507.85346  22656256.5554   22656270.2104   22656256.865
        46.0004         41.0004
 -15588882.99248 -12098881.77748  21652562.5074   21652570.5914   21652563.051
        53.0004         49.0004
 15  1  1  1 57  0.0000000  0  9G19G03G04G27G31G16G08G14G32
  -2128361.32347  -1504313.44446  22388791.4414   22388812.4664   22388795.157
        47.0004         40.0004
  -4381248.33648  -3377350.74647  22550705.1304   22550714.2144   22550705.602
        49.0004         44.0004
  -1579372.08046  -1212555.90546  24671467.5284   24671482.0414   24671464.959
        41.0004         37.0004
  -1205888.46649   -926480.11448  20716066.9664   20716074.5084   20716066.581
        57.0004         53.0004
  -1204572.45047   -936765.19347  23884006.0114   23884016.3374   23884005.357
        47.0004         42.0004
 -18492317.02349 -14336309.53448  21052460.2804   21052465.2234   21052460.653
        54.0004         49.0004
  -3356110.10447  -2607020.58246  23444392.3094   23444396.3064   23444391.849
        46.0004         41.0004
    252450.49547    260846.74147  22668304.5394   22668319.9254   22668305.783
        45.0004         42.0004
 -15555815.48148 -12073114.90148  21658854.3494   21658862.9034   21658854.854
        53.0004         49.0004
 15  1  1  1 57 30.0000000  0  9G19G03G04G27G31G16G08G14G32
  -1104046.65449   -852324.30448  22370827.2814   22370838.5074   22370829.136
        57.0004         49.0004
  -4397808.59848  -3390254.87147  22547555.7394   22547562.3724   22547554.199
        49.0004         45.0004
  -1599769.45347  -1228449.89546  24667583.6324   24667600.9864   24667583.793
        42.0004         37.0004
  -1252329.93249   -962667.50148  20707228.5134   20707236.3664   20707228.602
        56.0004         53.0004
  -1201024.22547   -934000.64547  23884681.3394   23884691.8754   23884681.301
        47.0004         42.0004
 -18437336.21649 -14293467.51348  21062923.3174   21062927.9374   21062923.742
        54.0004         49.0004
  -3369151.01647  -2617182.44146  23441910.2964   23441914.9954   23441909.900
        46.0004         41.0004
    316202.92847    310523.57746  22680437.6744   22680452.5154   22680437.171
        47.0004         41.0004
 -15522430.04748 -12047100.29048  21665207.6094   21665216.2214   21665208.407
        53.0004         49.0004
 15  1  1  1 58  0.0000000  0  9G19G03G04G27G31G16G08G14G32
  -1198330.36948   -925791.95547  22352886.3734   22352898.0894   22352887.385
        52.0004         43.0004
  -4413945.44448  -3402829.04147  22544483.8054   22544493.0544   22544482.957
        49.0004         45.0004
  -1620435.48447  -1244553.20646  24663652.2894   24663666.3244   24663653.026
        42.0004         37.0004
  -1298327.26849   -998509.28148  20698475.6444   20698483.0594   20698475.624
        56.0004         52.0004
  -1197572.33747   -931310.81347  23885337.9764   23885349.3324   23885338.259
        47.0004         46.0004
 -18382048.91549 -14250386.79548  21073444.5044   21073448.9414   21073444.602
        54.0004         49.0004
  -3382399.90847  -2627506.37046  23439388.2744   23439394.1644   23439389.208
        46.0004         41.0004
    380376.94147    360529.05447  22692648.8864   22692666.1084   22692649.286
        47.0004         42.0004
 -15488740.31348 -12020848.56448  21671618.7254   21671627.3204   21671619.032
        53.0004         49.0004
 15  1  1  1 58 30.0000000  0  9G19G03G04G27G31G16G08G14G32
  -1292471.56048                  22334970.1534                   22334974.269
        50.0004
  -4429656.90248  -3415071.72847  22541494.0794   22541501.8434   22541493.222
        49.0004         44.0004
  -1641367.47546  -1260863.75246  24659668.3554   24659684.1474   24659667.909
        41.0004         36.0004
  -1343876.13649  -1034002.25249  20689808.2314   20689816.2804   20689807.834
        56.0004         54.0004
  -1194214.85147                  23885977.2644                   23885977.249
        46.0004
 -18326454.30149 -14207066.34748  21084023.7954   21084028.4754   21084024.174
        54.0004         49.0004
  -3395854.17947  -2637990.29846  23436828.8004   23436835.1014   23436828.418
        46.0004         41.0004
    444974.04447    410864.06947  22704941.1914   22704958.0224   22704940.073
        46.0004         43.0004
 -15454745.73148 -11994359.28948  21678087.5694   21678095.5694   21678088.041
        53.0004         49.0004
 15  1  1  1 59  0.0000000  0  9G19G03G04G27G31G16G08G14G32
  -1386477.83848                  22317085.8354                   22317086.834
        49.0004
  -4444953.86448  -3426991.44847  22538582.7984   22538590.7614   22538581.727
        49.0004         44.0004
  -1662575.96646  -1277389.75545  24655631.4534   24655647.2294   24655630.522
        40.0004         34.0004
  -1388982.33249  -1069149.07047  20681225.1874   20681233.1364   20681224.965
        55.0004         47.0004
  -1190959.63347   -926159.70446  23886598.9464   23886610.3424   23886597.901
        46.0004         41.0004
 -18270566.22549 -14163517.42948  21094659.2954   21094664.1304   21094659.405
        54.0004         50.0004
  -3409523.66447  -2648641.92446  23434226.6374   23434233.3934   23434226.568
        46.0004         41.0004
    509982.33647    461519.40347  22717313.4804   22717329.7824   22717312.757
        47.0004         43.0004
 -15420458.50548 -11967641.99248  21684612.7044   21684620.7334   21684613.032
        53.0004         49.0004
 15  1  1  1 59 30.0000000  0  9G19G03G04G27G31G16G08G14G32
  -1480297.92048                  22299233.2254                   22299234.368
        48.0004
  -4459793.02748  -3438554.43847  22535759.0494   22535766.9684   22535758.560
        49.0004         44.0004
  -1684016.30246  -1294096.38345  24651551.2044   24651566.5404   24651552.340
        39.0004         35.0004
   -993900.79449   -771616.72848  20672735.2134   20672742.6234   20672734.026
        58.0004         53.0004
                                                                  23887207.445

 -18214343.30749 -14119707.65248  21105357.9944   21105362.8904   21105358.413
        54.0004         49.0004
  -3423364.13247  -2659426.77246  23431593.0554   23431600.9374   23431593.177
        46.0004         41.0004
    575445.87747    512529.78047  22729769.9514   22729787.7994   22729770.873
        47.0004         43.0004
 -15385836.51048 -11940663.82548  21691200.6464   21691209.2824   21691201.269
        53.0004         49.0004
 15  1  1  2  0  0.0000000  0  9G19G03G04G27G31G16G08G14G32
  -1574006.25048  -1218527.53647  22281402.1084   22281413.9414   22281402.666
        50.0004         46.0004
  -4474254.07948  -3449822.78347  22533007.3304   22533015.8074   22533007.328
        49.0004         44.0004
  -1705768.00646  -1311045.65845  24647411.7584   24647429.2564   24647412.729
        40.0004         35.0004
  -1038102.49749   -806058.34149  20664322.7094   20664330.0034   20664322.962
        56.0004         54.0004
                                                                  23887792.601

 -18157867.25749 -14075700.65548  21116105.6714   21116110.1594   21116106.014
        54.0004         49.0004
  -3437454.16047  -2670406.07746  23428912.7264   23428918.0354   23428913.873
        46.0004         41.0004
    641284.27047    563832.20846  22742297.6694   22742314.2834   22742298.744
        47.0004         39.0004
 -15350960.84149 -11913487.98948  21697837.4784   21697845.7184   21697838.059
        54.0004         49.0004
 15  1  1  2  0 30.0000000  0  9G19G03G04G27G31G16G08G14G32
  -1667552.14848  -1291420.07547  22263600.9144   22263612.3214   22263601.279
        51.0004         47.0004
  -4488288.41748  -3460758.63247  22530336.1064   22530345.1524   22530335.290
        49.0004         44.0004
  -1727781.36346  -1328198.72746  24643223.2054   24643240.1014   24643224.960
        41.0004         36.0004
  -1081844.64349   -840144.35147  20655998.9924   20656000.6244   20656000.176
        55.0004         45.0004
   -967025.54747   -750126.66846  23888359.6774   23888372.2814   23888358.602
        47.0004         40.0004
 -18101091.21549 -14031459.90648  21126910.0374   21126914.9304   21126910.564
        54.0004         49.0004
  -3451743.84047  -2681540.91747  23426193.8694   23426198.5564   23426194.434
        46.0004         42.0004
    707546.00347    615464.54547  22754907.8444   22754923.7854   22754907.885
        47.0004         43.0004
 -15315784.10548 -11886077.56148  21704531.2294   21704539.6124   21704531.568
        53.0004         49.0004
 15  1  1  2  1  0.0000000  0  9G19G03G04G27G31G16G08G14G32
  -1760916.50248  -1364171.07147  22245833.4704   22245844.3414   22245833.961
        51.0004         47.0004
  -4501880.13348  -3471349.59547  22527750.0814   22527758.1474   22527750.286
        49.0004         45.0004
  -1750039.88846  -1345542.91646  24638987.6064   24639002.9404   24638985.972
        41.0004         36.0004
   -917584.79449   -706682.27148  20647769.2284   20647776.7584   20647768.635
        57.0004         51.0004
   -964103.01947   -747850.31146  23888917.8014   23888932.4534   23888917.788
        45.0004         40.0004
 -18044001.31649 -13986974.58048  21137773.6514   21137778.5994   21137774.128
        54.0004         50.0004
  -3466216.28247  -2692818.09447  23423439.4734   23423444.5124   23423437.675
        46.0004         42.0004
    774246.30947    667438.76947  22767601.3934   22767617.2584   22767601.639
        47.0004         42.0004
 -15280291.74048 -11858421.18648  21711285.4534   21711293.7404   21711285.618
        53.0004         49.0004
 15  1  1  2  1 30.0000000  0  9G19G03G04G27G31G16G08G14G32
  -1854157.65348  -1436826.18647  22228090.5554   22228101.6904   22228091.638
        51.0004         46.0004
  -4515091.62948  -3481644.27947  22525236.2884   22525244.8634   22525235.123
        49.0004         45.0004
  -1772605.12346  -1363126.11446  24634695.3304   24634713.3514   24634693.200
        41.0004         36.0004
   -960415.74949   -740057.30647  20639618.3494   20639626.5454   20639618.564
        55.0004         45.0004
   -961303.52747   -745669.95047  23889450.4454   23889462.9624   23889448.696
        46.0004         42.0004
 -17986661.91349 -13942294.74048  21148685.2324   21148690.6474   21148685.319
        54.0004         50.0004
  -3480932.82047  -2704285.50447  23420638.3664   23420644.4984   23420638.870
        46.0004         42.0004
    841321.97647    719705.02847  22780364.1744   22780380.8854   22780365.312
        47.0004         42.0004
 -15244547.16948 -11830568.28248  21718087.0404   21718096.2374   21718088.026
        53.0004         49.0004
 15  1  1  2  2  0.0000000  0  8G19G03G04G31G16G08G14G32
  -1947202.57548  -1509328.37747  22210383.9704   22210395.3864   22210384.403
        51.0004         46.0004
  -4527854.38448  -3491589.29347  22522807.9074   22522816.3964   22522807.341
        49.0004         45.0004
  -1795407.69746  -1380894.28446  24630350.9504   24630371.0084   24630354.227
        41.0004         36.0004
   -958555.75447   -743529.47047  23889973.9134   23889987.3044   23889973.898
        46.0004         43.0004
 -17929006.64749 -13897368.83348  21159657.0994   21159662.0084   21159657.332
        54.0004         49.0004
  -3495823.79847  -2715888.84746  23417806.0174   23417810.2144   23417806.331
        46.0004         41.0004
    908842.31147    772318.09447  22793213.4784   22793230.7984   22793214.780
        46.0004         42.0004
 -15208483.30648 -11802466.58348  21724950.4404   21724958.1424   21724951.363
        53.0004         49.0004
 15  1  1  2  2 30.0000000  0  8G19G03G04G27G16G08G14G32
  -2040111.43548  -1581724.43247  22192704.0694   22192715.5024   22192704.439
        51.0004         47.0004
  -4540232.66348  -3501234.70647  22520451.6034   22520460.5154   22520451.510
        49.0004         44.0004
  -1818510.87146  -1398896.85345  24625961.1314   24625976.2184   24625957.926
        40.0004         35.0004
   -858898.03849   -663444.68348  20623590.2104   20623597.9374   20623590.036
        56.0004         53.0004
 -17871100.84749 -13852247.31148  21170675.7834   21170680.6824   21170676.281
        54.0004         49.0004
  -3510952.12147  -2727677.14146  23414927.1924   23414932.1364   23414926.445
        46.0004         41.0004
    976742.52947    825227.29547  22806135.9414   22806152.0154   22806135.865
        47.0004         44.0004
 -15172165.59348 -11774167.07248  21731861.3534   21731869.2204   21731861.677
        53.0004         48.0004
 15  1  1  2  3  0.0000000  0  9G19G03G04G27G31G16G08G14G32
  -2132850.35348  -1653988.09147  22175055.3754   22175067.1604   22175056.164
        51.0004         47.0004
  -4552196.82448  -3510557.45047  22518175.2064   22518183.4424   22518174.961
        49.0004         45.0004
  -1841883.98546  -1417109.45445  24621512.4464   24621529.0574   24621512.094
        40.0004         35.0004
   -900330.41949   -695730.61747  20615705.7564   20615715.0964   20615706.083
        56.0004         43.0004
   -785740.38359   -608224.25357  23890961.5745   23890977.6905   23890965.041
        56.0004         43.0004
 -17812917.31948 -13806909.24648  21181747.7354   21181753.3444   21181747.984
        53.0004         49.0004
  -3526286.86947  -2739626.27947  23412007.0044   23412013.2184   23412007.040
        46.0004         42.0004
   1045051.76647    878455.14747  22819134.3304   22819151.7224   22819132.776
        47.0004         43.0004
 -15135565.65348 -11745647.65248  21738825.9714   21738834.0784   21738826.136
        53.0004         49.0004
 15  1  1  2  3 30.0000000  0  9G19G03G04G27G31G16G08G14G32
  -2225399.05648  -1726103.59247  22157444.2354   22157455.4064   22157445.157
        51.0004         47.0004
  -4563730.80348  -3519544.98447  22515979.8074   22515987.7164   22515979.372
        49.0004         44.0004
  -1865509.95946  -1435519.20946  24617016.1754   24617030.2524   24617015.730
        40.0004         36.0004
   -800965.06549   -619872.79148  20607915.0044   20607922.8204   20607915.018
        57.0004         51.0004
                                                                  23891436.555

 -17754441.16048 -13761342.61648  21192874.8284   21192879.7654   21192874.575
        53.0004         48.0004
  -3541810.70747  -2751722.77747  23409053.2964   23409060.3154   23409053.106
        46.0004         42.0004
   1113785.61747    932013.71947  22832213.5294   22832231.7234   22832214.419
        47.0004         43.0004
 -15098668.53448 -11716896.65148  21745847.5244   21745855.2274   21745848.195
        53.0004         49.0004
 15  1  1  2  4  0.0000000  0  9G19G03G04G27G31G16G08G14G32
  -2317782.78648  -1798090.52547  22139863.2334   22139874.9864   22139863.927
        51.0004         46.0004
  -4574864.20048  -3528220.39247  22513861.9244   22513869.9514   22513861.236
        49.0004         44.0004
  -1889417.79346  -1454148.68045  24612464.8564   24612478.2284   24612466.909
        39.0004         34.0004
   -841447.08049   -651417.67449  20600211.9014   20600219.5704   20600211.354
        56.0004         54.0004
   -757247.04858   -588773.21156  23891894.5735   23891906.3545   23891893.805
        49.0004         40.0004
 -17695705.67248 -13715574.30348  21204051.5124   21204056.7254   21204051.656
        53.0004         51.0004
  -3557551.85847  -2763988.58847  23406058.3874   23406065.1704   23406058.216
        46.0004         42.0004
   1182914.24547    985879.92346  22845368.8544   22845384.9174   22845368.863
        46.0004         41.0004
 -15061505.09848 -11687938.14648  21752919.1144   21752927.1144   21752919.748
        53.0004         48.0004
 15  1  1  2  4 30.0000000  0  8G19G03G04G27G16G08G14G32
  -2409972.31548  -1869926.08947  22122320.2804   22122332.2234   22122321.023
        51.0004         47.0004
  -4585572.08048  -3536564.24047  22511824.3374   22511832.2594   22511823.270
        49.0004         45.0004
  -1913580.88646  -1472977.05345  24607868.9004   24607885.4844   24607863.684
        38.0004         33.0004
   -881425.62449   -682570.14347  20592600.2824   20592610.8594   20592601.393
        55.0004         47.0004
 -17636688.67549 -13669587.45148  21215282.5674   21215287.4194   21215282.715
        54.0004         49.0004
  -3573484.09447  -2776403.26447  23403025.7704   23403033.2684   23403026.737
        47.0004         42.0004
   1252462.28247   1040072.88946  22858605.3024   22858619.4014   22858604.408
        46.0004         41.0004
 -15024051.52448 -11658753.54948  21760046.6604   21760054.7634   21760047.035
        53.0004         48.0004
 15  1  1  2  5  0.0000000  0  8G19G03G27G31G16G08G14G32
  -2501974.88948  -1941616.00047  22104812.1624   22104823.9904   22104812.298
        51.0004         47.0004
  -4595866.16148  -3544585.64347  22509866.0414   22509873.9104   22509864.383
        49.0004         45.0004
   -696854.44249   -533559.24848  20585083.6124   20585091.3894   20585083.086
        57.0004         48.0004
                                                                  23892769.122

 -17577400.08949 -13623387.90748  21226564.6144   21226568.3864   21226565.126
        54.0004         49.0004
  -3589617.78447  -2788974.92547  23399955.5194   23399961.6344   23399956.105
        46.0004         42.0004
   1322418.39447   1094584.06546  22871917.5594   22871933.2384   22871916.977
        46.0004         41.0004
 -14986320.82448 -11629353.01948  21767226.3644   21767234.4734   21767226.651
        53.0004         48.0004
 15  1  1  2  5 30.0000000  0  7G19G03G27G16G08G14G32
  -2593826.76048  -2013188.46647  22087332.6084   22087344.4664   22087333.985
        51.0004         47.0004
  -4605786.92648  -3552316.14547  22507977.6354   22507985.4034   22507976.355
        49.0004         45.0004
   -735920.45549   -564000.42348  20577649.2844   20577657.9064   20577649.179
        56.0004         52.0004
 -17517883.89048 -13577011.01748  21237889.3034   21237893.4594   21237890.127
        52.0004         49.0004
  -3605992.23047  -2801734.18446  23396841.2594   23396846.7644   23396840.712
        46.0004         41.0004
   1392741.18447   1149380.83347  22885299.2604   22885315.6154   22885298.339
        46.0004         43.0004
 -14948354.56548 -11599768.93648  21774450.9004   21774459.4884   21774450.955
        53.0004         48.0004
 15  1  1  2  6  0.0000000  0  8G19G03G27G31G16G08G14G32
  -2685444.67148  -2084578.60447  22069898.5094   22069909.5564   22069899.289
        52.0004         47.0004
  -4615255.75948  -3559694.48247  22506176.7024   22506183.6534   22506175.089
        49.0004         45.0004
   -774459.86449   -594030.94448  20570315.9954   20570324.1364   20570315.626
        56.0004         51.0004
                                                                  23893586.183

 -17458065.02948 -13530398.74048  21249272.0104   21249275.8374   21249272.500
        53.0004         49.0004
  -3622527.05847  -2814618.43147  23393693.9154   23393700.2744   23393694.383
        46.0004         42.0004
   1463509.14547   1204524.59346  22898765.5524   22898781.6494   22898766.509
        46.0004         41.0004
 -14910075.25948 -11569940.93048  21781735.1214   21781743.5814   21781736.143
        53.0004         48.0004
 15  1  1  2  6 30.0000000  0  8G19G03G27G31G16G08G14G32
  -2776918.41848  -2155856.37347  22052491.3144   22052502.4854   22052491.910
        52.0004         47.0004
  -4624366.63948  -3566793.89847  22504441.6324   22504450.3724   22504441.035
        49.0004         45.0004
   -812563.23149   -623721.45748  20563064.5764   20563073.2004   20563064.167
        57.0004         53.0004
   -593575.44659   -457005.49956  23893968.7705   23893991.0015   23893966.709
        58.0004         39.0004
 -17398037.84349 -13483624.19048  21260694.5154   21260699.2024   21260694.734
        54.0004         49.0004
  -3639314.91747  -2827699.79746  23390498.5534   23390505.1554   23390500.372
        46.0004         41.0004
   1534627.73247   1259941.53746  22912298.1824   22912314.6174   22912298.139
        45.0004         40.0004
 -14871578.12248 -11539943.19248  21789061.2854   21789069.2494   21789060.874
        53.0004         48.0004
 15  1  1  2  7  0.0000000  0  6G19G03G16G08G14G32
  -2868154.78648  -2226949.21347  22035128.9564   22035140.1734   22035129.988
        52.0004         47.0004
  -4633030.72448  -3573545.15247  22502792.7254   22502801.1454   22502792.942
        50.0004         44.0004
 -17337715.26748 -13436619.32848  21272173.3934   21272178.3024   21272174.420
        53.0004         48.0004
  -3656265.53747  -2840908.05347  23387273.1874   23387279.5124   23387273.813
        46.0004         42.0004
   1606185.64147   1315700.85346  22925914.0334   22925932.4074   22925916.373
        45.0004         41.0004
 -14832775.33848 -11509707.27848  21796444.7474   21796453.4514   21796445.439
        53.0004         48.0004
 15  1  1  2  7 30.0000000  0  7G19G03G27G16G08G14G32
  -2959238.53348  -2297923.17747  22017796.3724   22017807.5174   22017796.205
        52.0004         47.0004
  -4641337.17248  -3580017.74547  22501213.3614   22501220.9164   22501212.047
        49.0004         45.0004
   -612352.89849   -440197.69148  20548848.1434   20548857.2414   20548847.800
        57.0004         51.0004
 -17277188.79148 -13389455.78248  21283691.2224   21283695.2014   21283691.539
        53.0004         49.0004
  -3673466.54647  -2854311.41246  23384000.4954   23384006.7484   23384001.173
        46.0004         41.0004
   1678093.97247   1371733.39446  22939599.2834   22939615.5014   22939601.276
        45.0004         40.0004
 -14793757.20648 -11479303.58348  21803869.5044   21803878.3534   21803870.395
        53.0004         48.0004
 15  1  1  2  8  0.0000000  0  9G19G03G04G27G31G16G08G14G32
  -3050096.44548  -2368721.13847  22000506.0954   22000517.0314   22000506.761
        52.0004         47.0004
  -4649217.61048  -3586158.37247  22499713.0924   22499721.1414   22499712.448
        49.0004         44.0004
                                                                  24574220.691

   -648971.90549                  20541879.4954                   20541879.101
        56.0004
                                                                  23895067.445

 -17216391.51348 -13342081.28548  21295260.7584   21295265.3604   21295261.412
        53.0004         51.0004
  -3690847.89047  -2867855.28846  23380692.8904   23380698.6074   23380692.750
        46.0004         41.0004
   1750420.41247   1428091.77946  22953362.4774   22953378.2314   22953362.615
        45.0004         40.0004
 -14754456.45748 -11448679.66248  21811348.6734   21811357.1324   21811348.970
        53.0004         48.0004
 15  1  1  2  8 30.0000000  0  8G19G03G27G31G16G08G14G32
  -3140759.28548  -2439367.12447  21983253.2884   21983263.4234   21983254.357
        52.0004         47.0004
  -4656706.97348  -3591994.27047  22498288.4724   22498296.1794   22498287.984
        49.0004         45.0004
   -685110.90849   -496891.94248  20535002.2644   20535011.4994   20535002.255
        57.0004         51.0004
                                                                  23895385.867

 -17155358.30648 -13294522.20848  21306874.3144   21306879.5704   21306873.997
        53.0004         49.0004
  -3708442.65147  -2881565.45446  23377343.9544   23377350.4454   23377344.694
        46.0004         41.0004
   1823129.77547   1484748.56346  22967197.4624   22967214.0744   22967197.406
        45.0004         40.0004
 -14714909.08148 -11417863.57448  21818874.3844   21818882.9694   21818874.682
        53.0004         48.0004
 15  1  1  2  9  0.0000000  0  9G19G03G04G27G31G16G08G14G32
  -3231209.75548  -2509847.63547  21966041.4324   21966051.3944   21966042.246
        52.0004         47.0004
  -4663792.64348  -3597515.61647  22496939.6084   22496947.4544   22496938.664
        49.0004         44.0004
   -572688.86148   -423970.00846  24564141.3374   24564155.1204   24564140.490
        49.0004         37.0004
   -720751.31349   -524663.43448  20528220.2044   20528229.1014   20528220.003
        56.0004         53.0004
   -493729.27948   -382662.78546  23895709.1914   23895722.5894   23895710.139
        48.0004         38.0004
 -17094079.92349 -13246772.16248  21318534.8114   21318538.9124   21318535.225
        54.0004         50.0004
  -3726236.70247  -2895430.82046  23373957.5374   23373964.0914   23373959.315
        46.0004         41.0004
   1896234.54647   1541713.48546  22981109.1354   22981124.1554   22981109.461
        45.0004         41.0004
 -14675103.53548 -11386846.31748  21826448.6814   21826457.9204   21826449.518
        53.0004         48.0004
 15  1  1  2  9 30.0000000  0  9G19G03G04G27G31G16G08G14G32
  -3321442.93048  -2580158.84747  21948870.4624   21948880.4924   21948871.305
        52.0004         47.0004
  -4670474.19048  -3602722.06247  22495667.9574   22495676.5644   22495667.280
        49.0004         44.0004
   -599573.96947   -444919.52946  24559025.2774   24559039.0804   24559024.443
        44.0004         36.0004
   -755888.77649   -552042.75248  20521533.4494   20521542.6534   20521533.552
        56.0004         53.0004
                                                                  23896021.602

 -17032558.99448 -13198833.71247  21330242.1374   21330245.8734   21330242.088
        53.0004         47.0004
  -3744228.19847  -2909450.14146  23370534.3554   23370540.1224   23370534.862
        46.0004         41.0004
   1969734.84447   1598986.71346  22995095.4024   22995112.4174   22995096.740
        45.0004         40.0004
 -14635040.51748 -11355628.43948  21834073.0544   21834080.9204   21834073.812
        53.0004         48.0004
 15  1  1  2 10  0.0000000  0  9G19G03G04G27G31G16G08G14G32
  -3411467.35348  -2650307.46748  21931738.3434   21931749.0304   21931739.211
        52.0004         48.0004
  -4676764.95648  -3607623.99447  22494471.6044   22494478.9154   22494470.062
        49.0004         44.0004
                   -466084.87045                  24553863.6254   24553854.168
                        32.0004
   -790536.00849   -579040.43048  20514940.1144   20514949.2484   20514939.833
        55.0004         53.0004
   -426753.30748   -327812.53946  23896322.3524   23896334.8884   23896321.724
        51.0004         40.0004
 -16970808.41248 -13150715.89547  21341991.8574   21341996.9644   21341992.389
        52.0004         46.0004
  -3762428.64047  -2923632.31746  23367070.9694   23367076.6634   23367071.646
        46.0004         41.0004
   2043616.60947   1656557.16946  23009154.4924   23009170.5154   23009155.491
        45.0004         41.0004
 -14594734.24248 -11324221.02148  21841742.9914   21841751.5034   21841743.276
        53.0004         48.0004
 15  1  1  2 10 30.0000000  0  9G19G03G04G27G31G16G08G14G32
  -3501270.08548  -2720283.38148  21914650.0814   21914659.8004   21914650.872
        52.0004         48.0004
  -4682656.00648  -3612214.50347  22493350.5874   22493357.9914   22493348.682
        49.0004         44.0004
   -654163.46946   -487456.80745  24548636.0594   24548647.8734   24548635.959
        38.0004         34.0004
   -824679.83449   -605646.10549  20508442.9334   20508451.6684   20508443.146
        56.0004         54.0004
   -425231.43448   -326626.61646  23896610.9604   23896624.7724   23896611.131
        48.0004         40.0004
 -16908823.25448 -13102416.06348  21353787.4874   21353791.6544   21353787.554
        52.0004         50.0004
  -3780827.77847  -2937969.48046  23363569.7394   23363575.7984   23363568.681
        46.0004         41.0004
   2117888.60147   1714431.60546  23023288.7304   23023306.0954   23023288.832
        45.0004         40.0004
 -14554176.99448 -11292618.03048  21849460.7594   21849469.2534   21849461.220
        53.0004         48.0004
 15  1  1  2 11  0.0000000  0  9G19G03G04G27G31G16G08G14G32
  -3590851.89648  -2790087.16648  21897603.2944   21897612.3894   21897603.591
        52.0004         48.0004
  -4688153.25848  -3616498.14047  22492304.0554   22492312.5694   22492302.814
        49.0004         44.0004
                   -509040.55345                  24543382.4644   24543367.296
                        33.0004
   -858322.46249   -631861.29748  20502040.4714   20502049.6614   20502040.297
        56.0004         49.0004
   -423767.43357   -325486.41156  23896890.8755   23896900.8205   23896889.243
        46.0004         39.0004
 -16846608.25448 -13053936.50248  21365626.1464   21365630.7564   21365625.821
        53.0004         51.0004
  -3799428.91047  -2952463.98046  23360030.3144   23360035.4574   23360031.043
        46.0004         41.0004
   2192545.07047   1772605.80847  23037495.0424   23037510.9074   23037495.746
        45.0004         42.0004
 -14513375.61448 -11260824.81748  21857224.8254   21857233.3974   21857225.120
        53.0004         48.0004
 15  1  1  2 11 30.0000000  0  8G19G03G27G31G16G08G14G32
  -3680202.55148  -2859710.86648  21880599.1394   21880609.2934   21880600.359
        52.0004         48.0004
  -4693250.91748  -3620470.38847  22491334.2494   22491342.6124   22491333.758
        49.0004         45.0004
   -340335.62749   -262106.28548  20495735.9664   20495743.1734   20495735.472
        57.0004         52.0004
   -422350.22047   -324381.94847  23897160.5384   23897175.9184   23897161.175
        46.0004         42.0004
 -16784160.82048 -13005275.93447  21377509.9634   21377513.5264   21377509.670
        53.0004         46.0004
  -3818224.86647  -2967110.28046  23356455.2584   23356459.6794   23356455.362
        46.0004         41.0004
   2267591.63247   1831084.07946  23051775.7614   23051791.9934   23051776.260
        45.0004         40.0004
 -14472325.43148 -11228837.72948  21865036.8024   21865045.1904   21865037.569
        53.0004         48.0004
 15  1  1  2 12  0.0000000  0  8G19G03G27G31G16G08G14G32
  -3769337.46548  -2929166.43347  21863637.4474   21863647.5884   21863637.337
        52.0004         47.0004
  -4697969.05248  -3624146.91847  22490436.2314   22490444.9024   22490436.332
        49.0004         45.0004
   -372972.93349   -287537.25348  20489524.9354   20489535.6274   20489524.706
        56.0004         52.0004
   -420998.17247   -323328.49546  23897415.5894   23897429.6114   23897413.632
        45.0004         40.0004
 -16721503.63648 -12956452.58748  21389433.7004   21389436.6394   21389433.540
        52.0004         49.0004
  -3837233.78947  -2981922.42247  23352836.3844   23352843.9434   23352836.293
        46.0004         42.0004
   2343007.42747   1889850.00146  23066125.8354   23066142.2874   23066125.632
        45.0004         40.0004
 -14431047.35848 -11196673.07348  21872891.9884   21872900.0794   21872892.070
        53.0004         48.0004
 15  1  1  2 12 30.0000000  0  8G19G03G27G31G16G08G14G32
  -3858225.01948  -2998429.22147  21846722.3824   21846732.0734   21846723.312
        52.0004         47.0004
  -4702280.70948  -3627506.70047  22489614.9314   22489624.5504   22489615.231
        49.0004         45.0004
   -281436.85149   -209516.65048  20483413.4074   20483422.5444   20483413.431
        57.0004         49.0004
   -419680.05057   -322301.10757  23897667.7535   23897681.9725   23897668.110
        45.0004         42.0004
 -16658610.68948 -12907445.86848  21401402.0964   21401405.9664   21401402.167
        53.0004         48.0004
  -3856427.02647  -2996878.18446  23349183.6164   23349188.9554   23349184.706
        46.0004         41.0004
   2418819.43047   1948924.69646  23080552.1024   23080568.3284   23080552.846
        45.0004         40.0004
 -14389515.51348 -11164310.67148  21880795.0944   21880803.0514   21880795.637
        53.0004         48.0004
 15  1  1  2 13  0.0000000  0  8G19G03G27G31G16G08G14G32
  -3946883.31448  -3067513.36647  21829851.2914   21829861.4264   21829852.192
        52.0004         47.0004
  -4706208.47948  -3630567.38447  22488868.3644   22488877.9294   22488867.268
        49.0004         45.0004
                                                                  20477398.456

   -418416.93747   -321316.54547  23897907.5514   23897921.7704   23897906.054
        46.0004         42.0004
 -16595505.07448 -12858273.18447  21413411.2594   21413414.7044   21413411.685
        52.0004         47.0004
  -3875825.40947  -3011993.86746  23345492.6054   23345497.4334   23345492.218
        46.0004         41.0004
   2495005.04447   2008290.73046  23095050.1944   23095066.2124   23095050.206
        45.0004         41.0004
 -14347753.52648 -11131768.93248  21888742.2164   21888750.3194   21888742.437
        53.0004         48.0004
 15  1  1  2 13 30.0000000  0  8G19G03G27G31G16G08G14G32
  -4035315.18848  -3136421.03147  21813022.6524   21813032.7554   21813023.891
        52.0004         47.0004
  -4709760.10848  -3633334.95547  22488193.3224   22488200.8804   22488192.542
        49.0004         44.0004
   -272581.73259   -193818.35759  20471478.1575   20471486.9445   20471477.892
        57.0004         55.0004
                                                                  23898133.919

 -16532196.63648 -12808942.50347  21425458.6194   21425463.3534   21425459.426
        52.0004         46.0004
  -3895434.82747  -3027274.05047  23341761.5654   23341767.7234   23341762.162
        46.0004         42.0004
   2571555.17447   2067940.48846  23109617.0414   23109631.0394   23109617.105
        45.0004         39.0004
 -14305769.94748 -11099054.51948  21896731.1364   21896740.3324   21896731.575
        53.0004         48.0004
 15  1  1  2 14  0.0000000  0  8G19G03G27G31G16G08G14G32
  -4123501.96148  -3205137.73048  21796241.2974   21796251.3844   21796242.089
        53.0004         48.0004
  -4712921.66548  -3635798.56947  22487590.8624   22487600.0784   22487590.659
        49.0004         45.0004
   -206684.31349   -153903.62848  20465656.5904   20465664.1044   20465656.909
        57.0004         51.0004
   -207797.49048   -160841.91246  23898356.3904   23898370.8924   23898355.614
        49.0004         39.0004
 -16468671.81348 -12759442.84647  21437547.5404   21437552.2854   21437547.691
        51.0004         47.0004
  -3915238.90447  -3042705.77647  23337993.3584   23338000.2494   23337993.712
        46.0004         42.0004
   2648484.61247   2127886.16946  23124256.1644   23124271.4884   23124256.217
        44.0004         40.0004
 -14263551.90648 -11066157.42348  21904765.5804   21904773.3914   21904766.283
        53.0004         48.0004
 15  1  1  2 14 30.0000000  0  8G19G03G27G31G16G08G14G32
  -4211454.42548  -3273671.84448  21779504.5844   21779514.0004   21779505.048
        52.0004         48.0004
  -4715708.59048  -3637970.26247  22487061.6644   22487069.7534   22487060.607
        49.0004         45.0004
   -236771.79149   -177348.02548  20459930.8704   20459937.4314   20459930.448
        57.0004         51.0004
   -206688.85247                  23898566.9624                   23898566.745
        46.0004
 -16404949.99848 -12709790.16247  21449673.5604   21449677.3914   21449673.773
        52.0004         46.0004
  -3935251.35647  -3058299.93447  23334185.3664   23334190.6234   23334184.182
        46.0004         42.0004
   2725777.69047   2188115.34946  23138962.5054   23138977.5944   23138962.980
        44.0004         40.0004
 -14221115.81848 -11033090.42348  21912840.2394   21912848.7864   21912841.243
        52.0004         48.0004
 15  1  1  2 15  0.0000000  0  8G19G03G27G31G16G08G14G32
  -4299157.93748  -3342011.96848  21762815.2234   21762824.8194   21762815.377
        53.0004         48.0004
  -4718110.71448  -3639842.12547  22486603.3604   22486612.1294   22486602.796
        50.0004         45.0004
   -266340.48149   -200388.28548  20454303.7894   20454312.1054   20454303.877
        56.0004         49.0004
   -205622.23547   -159145.24846  23898768.3184   23898783.7184   23898769.507
        44.0004         40.0004
 -16341020.27548 -12659975.06048  21461839.0974   21461844.6104   21461839.616
        52.0004         50.0004
  -3955459.97447  -3074046.98647  23330339.9724   23330345.3014   23330340.884
        46.0004         42.0004
   2803443.32547   2248634.43646  23153742.9564   23153755.8174   23153742.125
        43.0004         38.0004
 -14178452.31948 -10999846.22248  21920959.8484   21920967.5134   21920960.923
        53.0004         48.0004
 15  1  1  2 15 30.0000000  0  8G19G03G27G31G16G08G14G32
  -4386606.40648  -3410153.38748  21746174.2654   21746183.0934   21746175.068
        53.0004         48.0004
  -4720127.06948  -3641413.40247  22486220.4004   22486228.7494   22486219.982
        50.0004         45.0004
   -295386.29549   -223021.14547  20448776.8524   20448780.6844   20448776.794
        55.0004         46.0004
   -204590.58447   -158340.30247  23898965.7724   23898976.9534   23898965.913
        45.0004         42.0004
 -16276882.20248 -12609996.73847  21474043.7504   21474045.4124   21474044.285
        52.0004         44.0004
  -3975861.77547  -3089944.52046  23326456.5794   23326462.3624   23326457.499
        46.0004         41.0004
   2881482.57547   2309444.61746  23168592.4174   23168606.5414   23168593.202
        45.0004         41.0004
 -14135561.40348 -10966424.80248  21929121.1524   21929129.5374   21929121.410
        53.0004         48.0004
 15  1  1  2 16  0.0000000  0  8G19G03G27G31G16G08G14G32
  -4473801.21548  -3478097.13848  21729580.8824   21729590.6284   21729581.864
        53.0004         49.0004
  -4721764.06248  -3642689.07147  22485908.7734   22485915.7944   22485907.762
        49.0004         44.0004
   -323913.46849   -245250.12848  20443347.7844   20443355.4114   20443347.889
        56.0004         53.0004
   -203600.02947   -157567.73456  23899153.1694   23899166.3055   23899151.632
        44.0004         40.0004
 -16212546.27048 -12559864.55447  21486286.7844   21486289.9044   21486287.376
        52.0004         47.0004
  -3996461.00947  -3105995.84046  23322535.6824   23322542.1094   23322536.665
        46.0004         41.0004
   2959888.87247   2370540.92046  23183512.2274   23183527.0284   23183512.356
        44.0004         41.0004
 -14092450.39748 -10932831.88848  21937324.9614   21937333.5954   21937325.899
        52.0004         48.0004
 15  1  1  2 16 30.0000000  0  7G19G03G31G16G08G14G32
  -4560710.12748  -3545818.05648  21713042.9344   21713051.6904   21713043.231
        53.0004         48.0004
  -4722994.32048  -3643647.80847  22485674.3514   22485682.7054   22485674.210
        49.0004         45.0004
   -202618.94347   -156803.13647  23899340.8204   23899352.8994   23899340.811
        45.0004         43.0004
 -16147986.38248 -12509558.28948  21498571.5374   21498575.9544   21498572.019
        52.0004         49.0004
  -4017228.14447  -3122177.96347  23318584.8164   23318591.8344   23318586.143
        46.0004         42.0004
   3038689.27847   2431944.09846  23198507.1654   23198521.4144   23198507.250
        43.0004         39.0004
 -14049092.74348 -10899046.77948  21945575.8374   21945584.2764   21945576.471
        52.0004         48.0004
 15  1  1  2 17  0.0000000  0  8G19G03G27G31G16G08G14G32
  -4647405.98448  -3613373.01148  21696544.6634   21696554.0174   21696545.110
        53.0004         48.0004
  -4723895.05148  -3644349.76747  22485503.4064   22485511.3544   22485503.264
        49.0004         45.0004
    -61238.06459    -41445.45559  20432790.9115   20432799.5035   20432790.651
        57.0004         54.0004
   -201721.74147   -156104.00846  23899510.5354   23899523.6824   23899510.086
        46.0004         41.0004
 -16083281.08548 -12459138.86948  21510885.2444   21510890.1644   21510885.408
        53.0004         49.0004
  -4038238.36747  -3138549.54447  23314587.6934   23314594.1034   23314586.846
        46.0004         42.0004
   3117807.26147   2493595.36946  23213561.6144   23213576.3684   23213562.314
        44.0004         40.0004
 -14005566.58948 -10865130.36647  21953858.7954   21953867.3394   21953858.849
        52.0004         47.0004
 15  1  1  2 17 30.0000000  0  8G19G03G27G31G16G08G14G32
  -4733828.98448  -3680715.35748  21680098.6324   21680107.8664   21680099.521
        53.0004         49.0004
  -4724411.06348  -3644751.93447  22485404.9734   22485413.1704   22485404.766
        50.0004         45.0004
    -88204.25549    -62458.19548  20427659.8214   20427667.9814   20427659.622
        56.0004         51.0004
   -200849.20647   -155424.06146  23899677.5014   23899689.9284   23899676.951
        46.0004         41.0004
 -16018376.56248 -12408564.47047  21523236.7444   21523241.8554   21523236.599
        52.0004         44.0004
  -4059434.48047  -3155066.04647  23310553.9244   23310559.6714   23310554.572
        47.0004         42.0004
   3197296.88847   2555535.91046  23228688.2024   23228704.0634   23228686.685
        43.0004         38.0004
 -13961817.61948 -10831040.32848  21962183.7744   21962192.4144   21962184.021
        52.0004         48.0004
 15  1  1  2 18  0.0000000  0  8G19G03G27G31G16G08G14G32
  -4819991.61048  -3747854.79048  21663702.0114   21663711.3234   21663702.754
        53.0004         49.0004
  -4724559.86248  -3644867.97847  22485376.9034   22485385.7704   22485375.624
        50.0004         45.0004
   -114648.08649    -83062.96748  20422626.7904   20422634.6984   20422626.511
        56.0004         51.0004
  -1775436.54647                  23899836.0724                   23899835.977
        46.0004
 -15953290.09448 -12357847.68048  21535621.9074   21535626.7954   21535622.088
        52.0004         48.0004
  -4080832.03147  -3171739.56747  23306480.5824   23306487.3024   23306481.385
        46.0004         42.0004
   1701720.60947   1390152.43546  23243881.3524   23243895.4424   23243879.505
        42.0004         38.0004
 -13917864.13948 -10796790.93148  21970548.1754   21970556.3284   21970548.509
        52.0004         48.0004
 15  1  1  2 18 30.0000000  0  8G19G03G27G31G16G08G14G32
  -4905830.42648  -3814741.96748  21647367.7534   21647376.7544   21647368.330
        53.0004         49.0004
  -4724282.72048  -3644652.10447  22485428.6274   22485438.9594   22485429.049
        49.0004         44.0004
  -1715931.14249  -1330816.13848  20417705.3034   20417714.2364   20417705.171
        57.0004         53.0004
  -1774581.17147  -1381709.66146  23899998.7974   23900012.2024   23899999.146
        45.0004         40.0004
 -15887965.31048 -12306945.27647  21548053.3434   21548057.2524   21548053.494
        51.0004         47.0004
  -4102369.79447  -3188522.31847  23302382.5934   23302389.0464   23302382.156
        46.0004         42.0004
                   1452689.97546                  23259172.0674   23259150.623
                        37.0004
 -13873648.23548 -10762337.03247  21978961.6324   21978970.4884   21978962.255
        52.0004         47.0004
 15  1  1  2 19  0.0000000  0  8G19G03G27G31G16G08G14G32
  -4991453.25848  -3881460.79748  21631073.9274   21631083.2264   21631074.640
        53.0004         48.0004
  -4723692.60848  -3644192.35847  22485542.8234   22485550.4734   22485541.193
        49.0004         44.0004
  -1741322.05949  -1350601.46849  20412873.7504   20412882.2634   20412873.769
        57.0004         54.0004
  -1773811.39447  -1381110.04746  23900145.7814   23900158.2534   23900145.218
        45.0004         39.0004
 -15822516.93848 -12255946.71747  21560507.1344   21560512.3354   21560507.598
        52.0004         45.0004
  -4124158.61847  -3205500.77347  23298237.1534   23298241.6164   23298237.200
        47.0004         42.0004
   1862531.16546   1515460.02846  23274481.3614   23274493.7104   23274482.521
        41.0004         36.0004
 -13829283.80548 -10727767.40347  21987404.9944   21987412.4914   21987405.410
        52.0004         47.0004
 15  1  1  2 19 30.0000000  0  9G19G03G27G23G31G16G08G14G32
  -5076788.23448  -3947955.37648  21614834.9884   21614844.0864   21614835.990
        53.0004         49.0004
  -4722722.22448  -3643436.28747  22485726.9524   22485735.7804   22485726.568
        49.0004         45.0004
  -1766168.46149  -1369961.68348  20408145.1054   20408154.5334   20408144.996
        56.0004         50.0004
  -1833569.17148  -1404615.83047  23551425.8784   23551428.7954   23551426.115
        48.0004         43.0004
  -1773057.26147  -1380522.17046  23900289.6654   23900300.6714   23900289.197
        47.0004         40.0004
 -15756879.06348 -12204800.57148  21572997.9534   21573003.3314   21572997.945
        52.0004         49.0004
  -4146128.73647  -3222620.46247  23294056.5924   23294063.1504   23294056.366
        47.0004         42.0004
   1943453.14147   1578516.97246  23289880.6314   23289892.6764   23289880.883
        43.0004         40.0004
 -13784704.32248 -10693030.19647  21995886.6104   21995895.7814   21995887.535
        52.0004         47.0004
 15  1  1  2 20  0.0000000  0  8G19G03G27G23G16G08G14G32
  -5161833.02048  -4014223.83248  21598651.2994   21598660.5124   21598652.367
        53.0004         48.0004
  -4721374.53448  -3642386.18647  22485983.5814   22485992.0624   22485983.384
        49.0004         45.0004
  -1790473.07949  -1388900.62048  20403520.0734   20403528.1534   20403520.490
        55.0004         49.0004
  -1938098.95748  -1486067.66547  23531535.1464   23531537.5714   23531533.439
        48.0004         43.0004
 -15691055.36548 -12153509.48448  21585524.4834   21585528.9864   21585524.104
        52.0004         48.0004
  -4168280.77347  -3239881.85247  23289839.8654   23289846.2344   23289840.461
        46.0004         42.0004
   2024737.42757   1641856.00956  23305346.6845   23305362.0725   23305346.753
        44.0004         39.0004
 -13739913.48548 -10658128.29047  22004410.7954   22004420.0584   22004411.263
        52.0004         47.0004
 15  1  1  2 20 30.0000000  0  9G19G03G27G23G31G16G08G14G32
  -5246601.01848  -4080276.60548  21582520.2244   21582529.7904   21582520.995
        53.0004         49.0004
  -4719667.71948  -3641056.24847  22486307.5724   22486317.0134   22486306.715
        49.0004         44.0004
  -1814248.55549  -1407426.80749  20398995.8604   20399003.8494   20398995.711
        58.0004         55.0004
  -2042552.08547  -1567459.83647  23511657.5374   23511658.7754   23511658.068
        47.0004         42.0004
  -1413955.33448  -1098757.08846  23900564.4444   23900580.0364   23900564.610
        53.0004         38.0004
 -15625065.96648 -12102089.58747  21598081.5054   21598086.6524   21598081.619
        51.0004         47.0004
  -4190630.67847  -3257297.54947  23285588.2624   23285593.8124   23285586.590
        46.0004         42.0004
   2106365.87047   1705462.45746  23320880.5264   23320893.8014   23320880.553
        43.0004         39.0004
 -13694930.24948 -10623076.46947  22012970.6254   22012979.2484   22012971.445
        52.0004         47.0004
 15  1  1  2 21  0.0000000  0  8G19G03G27G23G20G16G08G32
  -5331084.99048  -4146108.05448  21566443.3144   21566452.6774   21566443.778
        53.0004         49.0004
  -4717599.34248  -3639444.57947  22486701.6754   22486711.1904   22486701.119
        49.0004         45.0004
  -1370875.63249  -1063564.50648  20394572.8914   20394581.4074   20394572.955
        58.0004         53.0004
  -2146921.49147  -1648786.73147  23491797.0784   23491799.0464   23491796.724
        47.0004         43.0004
  -1485168.10147  -1135449.50845  23869077.3114   23869080.2164   23869077.773
        47.0004         34.0004
 -15558908.49848 -12050538.25948  21610671.0004   21610675.9104   21610671.053
        52.0004         50.0004
  -4213173.61247  -3274863.51347  23281297.0904   23281304.4694   23281298.149
        46.0004         42.0004
 -13649753.08048 -10587873.53347  22021567.3474   22021576.7774   22021568.324
        52.0004         47.0004
 15  1  1  2 21 30.0000000  0  8G19G03G27G23G20G16G08G32
  -5415290.54248  -4211722.56348  21550419.6234   21550428.9334   21550420.527
        53.0004         48.0004
  -4715179.92448  -3637559.37247  22487162.0664   22487171.8024   22487161.869
        49.0004         45.0004
  -1393591.09649  -1081264.89848  20390250.6304   20390258.9244   20390250.086
        57.0004         53.0004
  -2251213.52747  -1730053.37047  23471950.5774   23471952.8674   23471951.041
        47.0004         42.0004
  -1504507.99947  -1150519.57646  23865397.4144   23865402.7104   23865396.715
        43.0004         36.0004
 -15492595.87848 -11998866.06847  21623289.8104   21623295.1134   21623289.803
        52.0004         46.0004
  -4235917.67047  -3292586.27747  23276971.7854   23276976.8834   23276970.392
        47.0004         42.0004
 -13604393.15748 -10552528.19047  22030200.1064   22030208.6854   22030200.153
        52.0004         47.0004
 15  1  1  2 22  0.0000000  0 10G19G03G27G23G31G20G16G08G14G32
  -5499178.02148  -4277089.23348  21534455.6004   21534465.7264   21534456.232
        53.0004         49.0004
  -4712374.82848  -3635373.61947  22487695.9764   22487704.5564   22487695.409
        49.0004         45.0004
  -1415742.75549  -1098526.35948  20386036.0434   20386044.1494   20386035.404
        56.0004         49.0004
  -2355388.60647  -1811228.81247  23452126.7864   23452129.8184   23452126.614
        47.0004         43.0004
  -1322433.88349                  23900944.6654                   23900944.341
        55.0004
  -1523483.96447  -1165306.05146  23861785.0294   23861791.2814   23861786.924
        42.0004         36.0004
 -15426094.13948 -11947046.54347  21635944.8594   21635949.9194   21635944.980
        52.0004         46.0004
  -4258825.71747  -3310436.69347  23272611.1314   23272617.2624   23272611.479
        47.0004         42.0004
  -1250493.78349                  23367879.3044                   23367876.065
        54.0004
 -13558816.62948 -10517014.06847  22038872.1354   22038881.0634   22038872.584
        52.0004         47.0004
 15  1  1  2 22 30.0000000  0 10G19G03G27G23G31G20G16G08G14G32
  -5582784.05348  -4342236.56448  21518546.0544   21518554.8974   21518546.638
        53.0004         49.0004
  -4709226.16748  -3632920.16247  22488295.8234   22488302.9884   22488294.737
        49.0004         44.0004
  -1437368.61849  -1115377.86648  20381920.1384   20381928.4294   20381920.240
        56.0004         53.0004
  -2459484.57647  -1892342.56847  23432319.1864   23432320.2854   23432317.612
        47.0004         42.0004
                                                                  23901063.969

  -1542137.92946  -1179841.58046  23858236.1874   23858242.0364   23858235.211
        41.0004         36.0004
 -15359445.71648 -11895112.03647  21648627.0844   21648631.7164   21648626.808
        51.0004         46.0004
  -4281937.62847  -3328446.02047  23268213.8444   23268220.0584   23268213.707
        46.0004         42.0004
  -1167483.09148   -918093.47146  23383673.8444   23383686.8534   23383673.145
        48.0004         39.0004
 -13513066.21848 -10481364.46847  22047578.6754   22047586.9074   22047579.037
        52.0004         47.0004
 15  1  1  2 23  0.0000000  0 10G19G03G27G23G31G20G16G08G14G32
  -5666081.33848  -4407143.29248  21502694.7644   21502703.6564   21502696.179
        53.0004         49.0004
  -4705711.34748  -3630181.37147  22488964.3074   22488973.3804   22488963.363
        49.0004         44.0004
  -1458444.87449  -1131801.84948  20377910.0894   20377919.1884   20377909.934
        56.0004         52.0004
  -2563474.30147  -1973373.52747  23412528.1414   23412532.7474   23412529.906
        47.0004         42.0004
                                                                  23901183.325

  -1560446.66346  -1194108.20746  23854752.1714   23854758.3124   23854752.211
        41.0004         36.0004
 -15292631.72448 -11843049.30747  21661340.9724   21661346.1884   21661341.358
        51.0004         47.0004
  -4305228.45047  -3346594.92747  23263781.8054   23263786.8964   23263782.775
        46.0004         42.0004
  -1084122.86547                  23399537.0324                   23399535.567
        44.0004
 -13467120.22148 -10445562.45747  22056321.8684   22056330.5854   22056322.674
        52.0004         47.0004
 15  1  1  2 23 30.0000000  0  9G19G03G27G23G20G16G08G14G32
  -5749077.88448  -4471815.68948  21486901.1404   21486910.0154   21486901.743
        53.0004         49.0004
  -4701843.12048  -3627167.19247  22489699.9864   22489708.6574   22489699.463
        49.0004         45.0004
  -1478978.00149  -1147801.78148  20374003.3834   20374011.1244   20374003.307
        56.0004         51.0004
  -2667365.97347  -2054328.07747  23392759.7744   23392762.9824   23392757.712
        47.0004         42.0004
  -1578422.05946  -1208115.01746  23851330.6974   23851339.4254   23851330.033
        41.0004         36.0004
 -15225665.05648 -11790867.55147  21674084.2834   21674088.5684   21674084.881
        51.0004         44.0004
  -4328708.02447  -3364890.79447  23259314.5084   23259319.5824   23259313.424
        46.0004         42.0004
  -1000423.75647                  23415462.7844                   23415461.630
        42.0004
 -13420991.98848 -10409618.44947  22065099.2814   22065108.2194   22065100.243
        52.0004         47.0004
 15  1  1  2 24  0.0000000  0 10G19G03G04G27G23G31G20G16G08G32
  -5831806.42149  -4536279.25548  21471158.3334   21471167.0904   21471159.137
        54.0004         49.0004
  -4697659.07848  -3623906.94547  22490496.9464   22490504.6794   22490495.110
        49.0004         45.0004
  -1331208.31747  -1033499.27245  24388318.5684   24388336.7154   24388317.151
        46.0004         35.0004
  -1499003.57349  -1163406.07748  20370192.2984   20370201.3454   20370192.197
        55.0004         52.0004
  -2771193.06447  -2135232.29647  23373001.7844   23373004.6484   23373001.899
        47.0004         42.0004
                                                                  23901405.042

  -1596100.95446  -1221890.78746  23847967.3984   23847974.0284   23847968.778
        41.0004         36.0004
 -15158582.68048 -11738595.14447  21686849.6684   21686854.9774   21686850.497
        51.0004         46.0004
  -4352411.59447  -3383361.20247  23254801.0914   23254809.2644   23254801.603
        46.0004         42.0004
 -13374719.90848 -10373562.35847  22073905.7394   22073914.1894   22073906.252
        52.0004         47.0004
 15  1  1  2 24 30.0000000  0 10G19G03G04G27G23G31G20G16G08G32
  -5914193.53349  -4600476.77648  21455480.3034   21455489.2474   21455480.976
        54.0004         49.0004
  -4693090.98048  -3620347.41947  22491366.2024   22491374.6154   22491365.858
        49.0004         45.0004
  -1366149.14347  -1060725.60446  24381669.4034   24381684.4434   24381668.348
        44.0004         38.0004
  -1518450.64049  -1178559.58548  20366491.8014   20366499.0384   20366491.560
        55.0004         48.0004
  -2874882.48147  -2216029.22047  23353270.2904   23353273.3354   23353270.324
        47.0004         42.0004
  -1220165.67248   -949253.01747  23901513.8134   23901527.7964   23901513.949
        49.0004         43.0004
  -1613413.99846  -1235381.51546  23844671.8944   23844676.7384   23844673.640
        41.0004         36.0004
 -15091319.32448 -11686182.12847  21699649.2884   21699654.4294   21699650.146
        51.0004         45.0004
  -4376268.49047  -3401951.22547  23250263.0164   23250269.2434   23250264.145
        46.0004         42.0004
 -13328236.34648 -10337341.47747  22082750.1884   22082759.7214   22082750.520
        52.0004         47.0004
 15  1  1  2 25  0.0000000  0 10G19G03G04G27G23G31G20G16G08G32
  -5996266.68649  -4664429.58648  21439862.4144   21439870.7824   21439862.764
        54.0004         49.0004
  -4688171.50848  -3616514.08647  22492302.8884   22492310.0244   22492301.448
        49.0004         45.0004
  -1401351.60347                  24374970.8054                   24374970.981
        42.0004
  -1537348.10949  -1193284.75448  20362895.6864   20362904.4514   20362895.325
        56.0004         49.0004
  -2978462.35947  -2296740.84647  23333559.5604   23333562.0324   23333559.046
        47.0004         42.0004
  -1219591.06147   -948805.39747  23901622.8524   23901636.2654   23901623.435
        46.0004         42.0004
  -1630393.49946  -1248612.39546  23841441.9294   23841448.1014   23841442.847
        41.0004         36.0004
 -15023907.93448 -11633653.28847  21712477.2214   21712481.4574   21712477.524
        51.0004         46.0004
  -4400308.76547  -3420684.15347  23245688.8044   23245694.4254   23245689.884
        46.0004         42.0004
 -13281574.66548 -10300981.81747  22091630.3834   22091639.6604   22091630.780
        52.0004         47.0004
 15  1  1  2 25 30.0000000  0 10G19G03G04G27G23G31G20G16G08G32
  -6078031.48749  -4728142.15548  21424302.7114   21424310.9754   21424303.443
        54.0004         49.0004
  -4682910.82748  -3612414.87147  22493302.6194   22493310.3654   22493302.671
        49.0004         44.0004
                  -1115797.02645                  24368235.2454   24368219.917
                        34.0004
  -1138203.58749   -878466.37548  20359402.2614   20359410.2594   20359402.196
        57.0004         50.0004
  -3081938.56747  -2377371.74147  23313869.4724   23313872.1964   23313868.597
        47.0004         42.0004
  -1219030.02847                  23901731.4114                   23901730.490
        45.0004
  -1647048.85346  -1261590.65946  23838270.9504   23838279.9814   23838273.897
        41.0004         36.0004
 -14956361.26748 -11581019.68148  21725331.1134   21725335.0644   21725331.742
        52.0004         48.0004
  -4424540.01447  -3439565.96747  23241078.1994   23241083.1564   23241078.231
        47.0004         42.0004
 -13234745.67848 -10264491.78947  22100541.2944   22100550.1654   22100542.252
        52.0004         47.0004
 15  1  1  2 26  0.0000000  0  9G19G03G27G23G20G16G08G14G32
  -6159450.48649  -4791585.25548  21408809.1514   21408817.5184   21408809.783
        54.0004         49.0004
  -4677276.87748  -3608024.80547  22494375.4664   22494383.5134   22494375.002
        49.0004         44.0004
  -1155982.36159   -892319.75258  20356018.7915   20356027.2525   20356018.715
        57.0004         53.0004
  -3185273.94347  -2457892.91447  23294204.4884   23294207.3144   23294205.133
        47.0004         42.0004
  -1663347.30346  -1274290.79246  23835169.4424   23835177.2894   23835171.800
        40.0004         36.0004
 -14888647.40848 -11528255.89048  21738216.7324   21738221.3884   21738216.813
        51.0004         48.0004
  -4448927.29047  -3458569.25747  23236435.8954   23236442.5064   23236437.357
        46.0004         42.0004
                                                                  23496047.588

 -13187717.98048 -10227846.92347  22109490.4054   22109499.4014   22109490.389
        51.0004         46.0004
 15  1  1  2 26 30.0000000  0 10G19G03G27G23G31G20G16G08G14G32
  -6240573.44949  -4854797.71248  21393371.8584   21393380.0364   21393372.782
        54.0004         49.0004
  -4671324.38048  -3603386.47447  22495507.4314   22495516.7904   22495506.714
        49.0004         45.0004
  -1173237.09649   -905765.19447  20352734.7694   20352743.9424   20352735.352
        56.0004         46.0004
  -3288518.88347  -2538343.60847  23274558.8064   23274560.8384   23274558.994
        46.0004         42.0004
                                                                  23901947.131

  -1679342.99946  -1286754.98845  23832129.9324   23832131.7664   23832128.133
        40.0004         35.0004
 -14820823.94248 -11475407.59647  21751123.7854   21751129.2784   21751124.470
        52.0004         47.0004
  -4473522.69047  -3477734.69447  23231756.6414   23231762.7384   23231756.951
        46.0004         42.0004
   -935917.41747                  23512350.2614                   23512350.038
        47.0004
 -13140546.98348 -10191090.41047  22118467.2384   22118476.2504   22118467.918
        51.0004         47.0004
 15  1  1  2 27  0.0000000  0  9G19G03G27G23G31G20G16G08G32
  -6321386.69849  -4917768.83048  21377993.1354   21378001.6214   21377993.892
        54.0004         49.0004
  -4665044.74948  -3598493.22247  22496703.1894   22496710.6534   22496701.398
        49.0004         44.0004
  -1189955.01949   -918792.21348  20349554.4144   20349562.1864   20349554.414
        57.0004         53.0004
  -3391659.78947  -2618713.26447  23254930.4254   23254933.0834   23254930.643
        46.0004         42.0004
  -1080664.00648   -838732.34547  23902049.0994   23902061.2754   23902050.192
        49.0004         43.0004
  -1695026.43046  -1298975.81545  23829142.1654   23829148.1064   23829140.782
        39.0004         34.0004
 -14752880.19148 -11422464.95648  21764053.4974   21764058.6324   21764053.327
        51.0004         48.0004
  -4498315.03847  -3497053.59847  23227039.3574   23227046.4374   23227040.285
        46.0004         42.0004
 -13093224.62548 -10154215.96247  22127472.9694   22127480.9044   22127472.990
        51.0004         47.0004
 15  1  1  2 27 30.0000000  0 10G19G03G27G23G31G20G16G08G14G32
  -6401863.50549  -4980477.82148  21362678.6394   21362686.7294   21362679.129
        54.0004         49.0004
  -4658416.25348  -3593328.17947  22497964.4804   22497972.3384   22497963.779
        49.0004         44.0004
  -1206110.52249   -931380.71448  20346479.9624   20346488.4064   20346479.998
        56.0004         53.0004
  -3494670.37047  -2698981.31446  23235327.1684   23235331.6194   23235328.718
        46.0004         41.0004
                                                                  23902152.235

  -1710375.05746                  23826221.9214                   23826221.410
        39.0004
 -14684795.64348 -11369412.15147  21777009.2624   21777014.6434   21777009.475
        51.0004         47.0004
  -4523280.26147  -3516507.24147  23222289.4914   23222295.9624   23222289.037
        47.0004         42.0004
                                                                  23545139.616

 -13045729.71148 -10117207.05647  22136510.5634   22136519.6984   22136511.138
        51.0004         47.0004
 15  1  1  2 28  0.0000000  0 10G19G03G27G23G31G20G16G08G14G32
  -6481970.97749  -5042898.97548  21347434.5784   21347443.0804   21347435.622
        54.0004         49.0004
  -4651411.45948  -3587869.90747  22499297.3584   22499305.5944   22499296.565
        49.0004         45.0004
  -1221674.46149   -943508.62348  20343518.1504   20343526.9984   20343517.910
        57.0004         53.0004
  -3597518.55847  -2779122.84446  23215757.6584   23215761.0554   23215756.942
        46.0004         41.0004
  -1010829.57448                  23902266.2534                   23902266.498
        52.0004
  -1725360.79846                  23823370.2874                   23823371.136
        39.0004
 -14616544.81048 -11316229.74047  21789997.3604   21790002.0454   21789997.413
        50.0004         46.0004
  -4548387.76247  -3536071.76447  23217510.7254   23217516.6354   23217509.713
        46.0004         42.0004
   -877936.50248   -688184.79545  23561635.0484   23561646.8224   23561635.180
        49.0004         35.0004
 -12998035.47148 -10080042.82347  22145586.4444   22145596.0134   22145586.972
        51.0004         47.0004
 15  1  1  2 28 30.0000000  0 11G19G03G04G27G23G31G20G16G08G14G32
  -6561780.23049  -5105087.79748  21332247.0124   21332255.6234   21332248.295
        54.0004         49.0004
  -4644105.80048  -3582177.20447  22500687.0164   22500696.4644   22500686.195
        49.0004         45.0004
  -1003590.16849   -776080.17046  24326679.7984   24326693.9204   24326679.275
        54.0004         41.0004
  -1236718.24049   -955230.94248  20340655.3914   20340664.2684   20340655.296
        57.0004         52.0004
  -3700275.17047  -2859192.98747  23196203.6844   23196206.5154   23196203.486
        46.0004         42.0004
  -1010269.16147   -783237.92946  23902373.0654   23902386.3764   23902372.330
        47.0004         40.0004
                                                                  23820571.478

 -14548204.36648                  21803003.1314                   21803003.141
        50.0004
  -4573710.18947  -3555803.73547  23212692.4184   23212697.7254   23212692.867
        46.0004         42.0004
   -790970.01047   -620417.94946  23578184.2024   23578196.0314   23578183.956
        44.0004         37.0004
 -12950217.80248 -10042782.40747  22154685.2214   22154695.0774   22154686.033
        51.0004         46.0004
 15  1  1  2 29  0.0000000  0 10G19G03G27G23G31G20G16G08G14G32
  -6641232.05649  -5166998.07948  21317127.8804   21317136.1354   21317128.714
        54.0004         49.0004
  -4636445.67748  -3576208.31847  22502145.3954   22502153.5754   22502144.184
        49.0004         45.0004
  -1251185.13749   -966503.51348  20337902.2194   20337910.8794   20337901.935
        57.0004         53.0004
  -3802881.69447  -2939146.26247  23176680.3144   23176681.2564   23176678.435
        47.0004         42.0004
                                                                  23902482.931

                                                                  23817840.688

 -14479719.86248 -11209612.70247  21816034.6174   21816038.7354   21816034.524
        51.0004         45.0004
  -4599190.89547  -3575659.02847  23207843.3304   23207850.7594   23207842.674
        46.0004         42.0004
   -703668.64947   -552390.92646  23594797.3374   23594808.6994   23594797.490
        43.0004         38.0004
 -12902223.80648 -10005384.59747  22163819.1824   22163828.1624   22163819.558
        51.0004         47.0004
 15  1  1  2 29 30.0000000  0 10G19G03G27G23G31G20G16G08G14G32
  -6720364.53149  -5228659.52748  21302069.3674   21302077.1634   21302070.206
        54.0004         49.0004
  -4628474.55448  -3569997.12247  22503661.8854   22503670.6404   22503661.290
        49.0004         45.0004
  -1265116.74249   -977359.27048  20335251.0424   20335259.6554   20335250.764
        57.0004         53.0004
  -3905377.18747  -3019013.09046  23157173.9154   23157176.6994   23157175.160
        47.0004         41.0004
   -937234.02858                  23902592.9715                   23902591.519
        49.0004
                                                                  23815167.166

 -14411137.63848 -11156171.70147  21829085.1564   21829089.2454   21829084.863
        51.0004         45.0004
  -4624870.51247  -3595669.30447  23202957.6884   23202964.1854   23202958.160
        46.0004         42.0004
   -616073.62347   -484134.62046  23611465.6954   23611477.9774   23611464.883
        43.0004         39.0004
 -12854097.49948  -9967883.69647  22172977.0494   22172986.1844   22172977.913
        51.0004         46.0004
 15  1  1  2 30  0.0000000  0  9G19G03G27G23G31G16G08G14G32
  -6799144.25649  -5290046.07248  21287078.2064   21287085.8394   21287078.930
        54.0004         50.0004
  -4620164.23148  -3563521.60347  22505243.8634   22505252.5454   22505243.097
        49.0004         45.0004
  -1278481.06349   -987772.87748  20332707.6994   20332716.3444   20332707.526
        57.0004         53.0004
  -4007728.36047  -3098767.40547  23137697.3274   23137700.3094   23137697.586
        47.0004         43.0004
   -936641.85747                  23902703.4434                   23902703.530
        46.0004
 -14342430.12448 -11102633.06047  21842158.3894   21842164.5054   21842158.917
        51.0004         45.0004
  -4650718.15447  -3615810.47847  23198037.8894   23198045.4124   23198039.478
        47.0004         42.0004
   -528157.37447   -415628.00646  23628194.8424   23628207.1174   23628193.544
        43.0004         39.0004
 -12805811.15948  -9930258.10947  22182166.2064   22182175.1594   22182166.539
        51.0004         46.0004
